{"version": 0.6, "generator": "Overpass API 0.7.62.5 1bd436f1", "osm3s": {"timestamp_osm_base": "2025-04-09T14:31:06Z", "copyright": "The data included in this document is from www.openstreetmap.org. The data is made available under ODbL."}, "elements": [{"type": "node", "id": 2626169059, "lat": 35.4461754, "lon": 2.9091627, "tags": {"abandoned": "yes", "disused:railway": "station", "name": "Gare abandonn\u00e9e", "railway": "station"}}, {"type": "node", "id": 3050527166, "lat": 35.7016373, "lon": 3.075728, "tags": {"bus": "yes", "highway": "bus_stop", "public_transport": "platform"}}, {"type": "node", "id": 4424292190, "lat": 35.8896188, "lon": 3.1483931, "tags": {"bus": "yes", "highway": "bus_stop", "name": "Arr\u00eat de bus", "name:ar": "Arr\u00eat de bus", "public_transport": "platform"}}, {"type": "node", "id": 4574342810, "lat": 35.7015457, "lon": 2.8860109, "tags": {"name": "Boughezoul", "name:ar": "\u0628\u0648\u063a\u0632\u0648\u0644", "name:en": "Boughezoul", "name:fr": "Boughezoul", "public_transport": "station", "railway": "station", "train": "yes", "wikidata": "Q116024999", "wikipedia": "fr:Gare de Boughezoul"}}, {"type": "node", "id": 9335078829, "lat": 35.6603388, "lon": 3.20999, "tags": {"name": "Birine", "name:ar": "\u0627\u0644\u0628\u064a\u0631\u064a\u0646", "name:en": "Birine", "name:fr": "Birine", "public_transport": "station", "railway": "station", "train": "yes", "wikidata": "Q116059129"}}, {"type": "node", "id": 11805050016, "lat": 35.4427961, "lon": 2.9380217}, {"type": "node", "id": 11805050017, "lat": 35.4424772, "lon": 2.9382766}, {"type": "node", "id": 11805050018, "lat": 35.4425118, "lon": 2.9383615}, {"type": "node", "id": 11805050019, "lat": 35.4428183, "lon": 2.9382614}, {"type": "way", "id": 1271198345, "nodes": [11805050016, 11805050017, 11805050018, 11805050019, 11805050016], "tags": {"building": "yes", "name": "A\u00efn Oussera", "public_transport": "station", "railway": "station", "train": "yes"}}]}