{"version": 0.6, "generator": "Overpass API 0.7.62.5 1bd436f1", "osm3s": {"timestamp_osm_base": "2025-04-09T14:38:15Z", "copyright": "The data included in this document is from www.openstreetmap.org. The data is made available under ODbL."}, "elements": [{"type": "node", "id": 259441579, "lat": 39.6045316, "lon": 2.7017839}, {"type": "node", "id": 259441580, "lat": 39.6046417, "lon": 2.7016549}, {"type": "node", "id": 259441582, "lat": 39.6043161, "lon": 2.7012032}, {"type": "node", "id": 259441583, "lat": 39.6042092, "lon": 2.7013259}, {"type": "node", "id": 259637319, "lat": 39.6151644, "lon": 2.7164534}, {"type": "node", "id": 259637320, "lat": 39.6152504, "lon": 2.7163418}, {"type": "node", "id": 259637321, "lat": 39.6158058, "lon": 2.7170886}, {"type": "node", "id": 259637322, "lat": 39.6157198, "lon": 2.7171916}, {"type": "node", "id": 295249206, "lat": 39.6202646, "lon": 2.6609239, "tags": {"name": "Son Sardina (FS)", "name:ca": "Son Sardina", "public_transport": "station", "railway": "station", "train": "yes", "wheelchair": "no"}}, {"type": "node", "id": 295249249, "lat": 39.6974505, "lon": 2.6941475, "tags": {"name": "Bunyola", "network": "Transports p\u00fablics de Mallorca", "operator": "Ferrocarril de S\u00f2ller", "public_transport": "station", "railway": "station", "train": "yes", "wheelchair": "no", "wikidata": "Q115756690"}}, {"type": "node", "id": 295249299, "lat": 39.7605908, "lon": 2.7063551, "tags": {"name": "Mirador des Pujol d\u2019en Banya", "public_transport": "station", "railway": "station", "wheelchair": "no"}}, {"type": "node", "id": 295249363, "lat": 39.7646765, "lon": 2.7151232, "tags": {"name": "S\u00f3ller", "name:ca": "S\u00f3ller", "public_transport": "station", "railway": "station", "wheelchair": "no", "wikidata": "Q107137148"}}, {"type": "node", "id": 299437469, "lat": 39.5146857, "lon": 2.4826312, "tags": {"bench": "yes", "bin": "yes", "bus": "yes", "departures_board": "timetable", "highway": "bus_stop", "lit": "yes", "name": "Sa Pinada (Santa Pon\u00e7a)", "network": "Transports p\u00fablics de Mallorca", "operator": "Consorci de Transports de Mallorca", "public_transport": "platform", "ref": "11089", "shelter": "yes", "surface": "paving_stones", "tactile_paving": "no", "website": "https://www.tib.org/portal/de/web/ctm/parades/-/parada/11089"}}, {"type": "node", "id": 369813706, "lat": 39.7350043, "lon": 2.6125593, "tags": {"bench": "no", "bus": "yes", "departures_board": "timetable", "highway": "bus_stop", "lit": "no", "name": "Ca Mad\u00f2 Pilla 1 (Valldemossa)", "network": "Transports p\u00fablics de Mallorca", "operator": "Consorci de Transports de Mallorca", "public_transport": "platform", "ref": "63005", "shelter": "no", "surface": "asphalt", "tactile_paving": "no"}}, {"type": "node", "id": 369813717, "lat": 39.7235917, "lon": 2.6058946, "tags": {"bench": "no", "bin": "no", "bus": "yes", "check_date:shelter": "2023-12-10", "departures_board": "timetable", "highway": "bus_stop", "lit": "no", "name": "Ermita de la Trinitat 1 (Valldemossa)", "network": "Transports p\u00fablics de Mallorca", "operator": "Consorci de Transports de Mallorca", "public_transport": "platform", "ref": "63003", "shelter": "no", "surface": "asphalt", "tactile_paving": "no"}}, {"type": "node", "id": 415003755, "lat": 39.536502, "lon": 2.4561609, "tags": {"bench": "yes", "bin": "yes", "bus": "yes", "departures_board": "timetable", "highway": "bus_stop", "lit": "yes", "name": "Tor\u00e0 (Peguera)", "name:ca": "Tor\u00e0 (Peguera)", "network": "Transports p\u00fablics de Mallorca", "operator": "Consorci de Transports de Mallorca", "public_transport": "platform", "ref": "11131", "shelter": "yes", "surface": "paving_stones", "tactile_paving": "no"}}, {"type": "node", "id": 415003769, "lat": 39.5373618, "lon": 2.4485457, "tags": {"bench": "yes", "bin": "yes", "bus": "yes", "check_date": "2024-03-29", "departures_board": "timetable", "highway": "bus_stop", "lit": "yes", "name": "Palmira 1 (Peguera)", "network": "Transports p\u00fablics de Mallorca", "operator": "Consorci de Transports de Mallorca", "public_transport": "platform", "ref": "11133", "shelter": "no", "surface": "paving_stones", "tactile_paving": "no", "wheelchair": "yes"}}, {"type": "node", "id": 497114380, "lat": 39.5175928, "lon": 2.488378, "tags": {"bench": "yes", "bin": "yes", "bus": "yes", "departures_board": "timetable", "highway": "bus_stop", "lit": "yes", "name": "Rei Jaume I, 124 (Santa Pon\u00e7a)", "name:ca": "Rei Jaume I, 124 (Santa Pon\u00e7a)", "network": "Transports p\u00fablics de Mallorca", "operator": "Consorci de Transports de Mallorca", "public_transport": "platform", "ref": "11190", "shelter": "yes", "surface": "paving_stones", "tactile_paving": "no"}}, {"type": "node", "id": 497114381, "lat": 39.5174852, "lon": 2.4875194, "tags": {"bench": "yes", "bin": "yes", "bus": "yes", "departures_board": "timetable", "highway": "bus_stop", "lit": "yes", "name": "Rei Jaume I, 117 (Santa Pon\u00e7a)", "name:ca": "Rei Jaume I, 117 (Santa Pon\u00e7a)", "network": "Transports p\u00fablics de Mallorca", "operator": "Consorci de Transports de Mallorca", "public_transport": "platform", "ref": "11091", "shelter": "yes", "surface": "paving_stones", "tactile_paving": "no", "website": "https://www.tib.org/portal/de/web/ctm/parades/-/parada/11091"}}, {"type": "node", "id": 497114383, "lat": 39.537795, "lon": 2.4515376, "tags": {"bench": "no", "bin": "no", "bus": "yes", "departures_board": "timetable", "highway": "bus_stop", "lit": "yes", "name": "Palmira 2 (Peguera)", "network": "Transports p\u00fablics de Mallorca", "operator": "Consorci de Transports de Mallorca", "public_transport": "platform", "ref": "11132", "shelter": "no", "surface": "paving_stones", "tactile_paving": "no", "wheelchair": "limited"}}, {"type": "node", "id": 561066618, "lat": 39.5281811, "lon": 2.5441196, "tags": {"bench": "yes", "bin": "yes", "bus": "yes", "departures_board": "timetable", "highway": "bus_stop", "lit": "yes", "name": "Son Caliu 1 (Son Caliu)", "network": "Transports p\u00fablics de Mallorca", "operator": "Consorci de Transports de Mallorca", "public_transport": "platform", "ref": "11024", "shelter": "yes", "surface": "paving_stones", "tactile_paving": "no"}}, {"type": "node", "id": 591777800, "lat": 39.5780054, "lon": 2.6316725, "tags": {"bench": "yes", "bin": "yes", "bus": "yes", "departures_board": "timetable", "highway": "bus_stop", "lit": "yes", "name": "Llibertat - Sant Ferran", "name:ca": "Llibertat - Sant Ferran", "network": "Bus de Palma", "operator": "Empresa Municipal de Transports de Palma", "public_transport": "platform", "ref": "223", "shelter": "no", "source": "Bing", "surface": "paving_stones", "tactile_paving": "no", "wheelchair": "yes"}}, {"type": "node", "id": 605574676, "lat": 39.5933067, "lon": 2.6477024, "tags": {"bench": "yes", "bus": "yes", "highway": "bus_stop", "name": "Cra. Valldemossa", "network": "Bus de Palma", "operator": "Empresa Municipal de Transports de Palma", "passenger_information_display": "yes", "public_transport": "platform", "ref": "557", "route_ref": "19, 20, 29", "shelter": "yes"}}, {"type": "node", "id": 616776994, "lat": 39.5755843, "lon": 2.6539023, "tags": {"bench": "yes", "bin": "yes", "bus": "yes", "check_date:shelter": "2021-10-15", "highway": "bus_stop", "lit": "no", "name": "Pla\u00e7a d'Espanya", "name:ca": "Pla\u00e7a d'Espanya", "network": "Bus de Palma", "not_served_by": "1, 3, 5, 6, 7, 8, 9, 10, 11, 12, 14, 16, 19, 23, 24, 33, 41, 42, 43, 44, 46", "operator": "Empresa Municipal de Transports de Palma", "passenger_information_display": "yes", "public_transport": "platform", "ref": "455", "route_ref": "15, 25, 30, 50", "shelter": "yes", "tactile_paving": "yes", "wheelchair": "yes"}}, {"type": "node", "id": 619985924, "lat": 39.5722663, "lon": 2.6556805, "tags": {"bench": "yes", "bin": "yes", "bus": "yes", "departures_board": "realtime", "highway": "bus_stop", "lit": "yes", "name": "Sindicat - \u00c0rea d'intercanvi Sindicat", "name:ca": "Sindicat - \u00c0rea d'intercanvi Sindicat", "network": "Bus de Palma", "operator": "Empresa Municipal de Transports de Palma", "public_transport": "platform", "ref": "360", "shelter": "yes", "source": "http://www.emtpalma.es/EMTPalma/Front/index.en.jsp", "surface": "paving_stones", "tactile_paving": "no"}}, {"type": "node", "id": 620547625, "lat": 39.5790892, "lon": 2.6276716, "tags": {"bench": "no", "bin": "yes", "bus": "yes", "departures_board": "timetable", "highway": "bus_stop", "lit": "yes", "name": "Dragonera - Cl\u00ednica Juaneda", "name:ca": "Dragonera - Cl\u00ednica Juaneda", "network": "Bus de Palma", "operator": "Empresa Municipal de Transports de Palma", "public_transport": "platform", "ref": "224", "shelter": "yes", "surface": "paving_stones", "tactile_paving": "no", "wheelchair": "yes"}}, {"type": "node", "id": 620547630, "lat": 39.583613, "lon": 2.630396, "tags": {"bench": "yes", "bin": "yes", "bus": "yes", "departures_board": "timetable", "highway": "bus_stop", "lit": "yes", "name": "Policl\u00ednica", "name:ca": "Policl\u00ednica", "network": "Bus de Palma", "operator": "Empresa Municipal de Transports de Palma", "public_transport": "platform", "ref": "333", "shelter": "yes", "surface": "paving_stones", "tactile_paving": "no"}}, {"type": "node", "id": 651064644, "lat": 39.535276, "lon": 2.7236493, "tags": {"bench": "yes", "bin": "yes", "bus": "yes", "highway": "bus_stop", "name": "Can Pastilla - ses Fontanelles", "network": "Bus de Palma", "operator": "Empresa Municipal de Transports de Palma", "passenger_information_display": "no", "public_transport": "platform", "ref": "433", "route_ref": "15, 21, 23, 25, 31", "shelter": "yes", "tactile_paving": "yes", "wheelchair": "yes"}}, {"type": "node", "id": 651064645, "lat": 39.5354264, "lon": 2.7228579, "tags": {"bench": "yes", "bin": "yes", "bus": "yes", "departures_board": "timetable", "highway": "bus_stop", "lit": "yes", "name": "Can Pastilla - ses Fontanelles", "network": "Bus de Palma", "operator": "EMT Palma", "public_transport": "platform", "ref": "476", "shelter": "no", "surface": "paving_stones", "tactile_paving": "no"}}, {"type": "node", "id": 651064648, "lat": 39.5356022, "lon": 2.718958, "tags": {"bench": "no", "bus": "yes", "highway": "bus_stop", "name": "C/ X\u00e0bec - Av. Bartomeu Riutort (Can Pastilla)", "network": "Transports p\u00fablics de Mallorca", "operator": "Consorci de Transports de Mallorca", "passenger_information_display": "no", "public_transport": "platform", "ref": "40049", "route_ref": "210, 454", "shelter": "no"}}, {"type": "node", "id": 667110709, "lat": 39.6345007, "lon": 2.6476435}, {"type": "node", "id": 667110711, "lat": 39.634388, "lon": 2.6482789}, {"type": "node", "id": 667110714, "lat": 39.6348254, "lon": 2.6477456}, {"type": "node", "id": 667110717, "lat": 39.6347102, "lon": 2.6483813}, {"type": "node", "id": 668896162, "lat": 39.6374209, "lon": 2.6336329, "tags": {"bench": "yes", "bus": "yes", "highway": "bus_stop", "name": "Parc Bit", "name:ca": "Parc Bit", "network": "Bus de Palma", "operator": "Empresa Municipal de Transports de Palma", "passenger_information_display": "no", "public_transport": "platform", "route_ref": "19", "shelter": "572"}}, {"type": "node", "id": 669638488, "lat": 39.5788137, "lon": 2.6522438, "tags": {"bench": "no", "bin": "yes", "bus": "yes", "check_date:shelter": "2024-10-10", "highway": "bus_stop", "lit": "no", "name": "31 de desembre, 13", "network": "Bus de Palma", "not_served_by": "42", "operator": "Empresa Municipal de Transports de Palma", "passenger_information_display": "no", "public_transport": "platform", "ref": "389", "route_ref": "11, 12, 20", "shelter": "no", "tactile_paving": "yes"}}, {"type": "node", "id": 669638489, "lat": 39.580759, "lon": 2.6523217, "tags": {"bench": "no", "bin": "no", "bus": "yes", "check_date:shelter": "2024-11-07", "highway": "bus_stop", "lit": "yes", "name": "31 de desembre, 33", "network": "Bus de Palma", "operator": "Empresa Municipal de Transports de Palma", "passenger_information_display": "no", "public_transport": "platform", "ref": "388", "route_ref": "11, 12, 20, 42", "shelter": "no", "tactile_paving": "yes"}}, {"type": "node", "id": 669638490, "lat": 39.5806557, "lon": 2.6524938, "tags": {"bench": "no", "bin": "no", "bus": "yes", "check_date:shelter": "2024-10-30", "highway": "bus_stop", "lit": "no", "name": "31 de desembre, 34", "network": "Bus de Palma", "operator": "Empresa Municipal de Transports de Palma", "passenger_information_display": "no", "public_transport": "platform", "ref": "362", "route_ref": "12, 20. 42", "shelter": "no", "tactile_paving": "yes"}}, {"type": "node", "id": 669638492, "lat": 39.5786695, "lon": 2.6524338, "tags": {"bench": "no", "bin": "yes", "bus": "yes", "check_date:shelter": "2024-10-10", "highway": "bus_stop", "lit": "yes", "name": "31 de desembre, 16", "network": "Bus de Palma", "not_served_by": "20", "operator": "Empresa Municipal de Transports de Palma", "passenger_information_display": "no", "public_transport": "platform", "ref": "361", "route_ref": "12, 42", "shelter": "no", "tactile_paving": "no"}}, {"type": "node", "id": 669638494, "lat": 39.5473359, "lon": 2.7290833, "tags": {"bench": "yes", "bin": "yes", "bus": "yes", "departures_board": "realtime", "highway": "bus_stop", "lit": "yes", "name": "Aeroport - Arribades", "network": "Bus de Palma", "operator": "EMT Palma", "public_transport": "platform", "ref": "547", "shelter": "yes", "surface": "paving_stones", "tactile_paving": "no", "wheelchair": "yes"}}, {"type": "node", "id": 669638496, "lat": 39.5478409, "lon": 2.7303154, "tags": {"bench": "no", "bin": "no", "bus": "yes", "departures_board": "timetable", "highway": "bus_stop", "layer": "1", "level": "2", "lit": "yes", "name": "Aeroport - Sortides", "network": "Bus de Palma", "operator": "EMT Palma", "public_transport": "platform", "ref": "546", "shelter": "no", "surface": "paving_stones", "tactile_paving": "no", "wheelchair": "yes"}}, {"type": "node", "id": 669638503, "lat": 39.5884439, "lon": 2.5968475, "tags": {"bench": "no", "bin": "yes", "bus": "yes", "departures_board": "timetable", "highway": "bus_stop", "lit": "yes", "name": "Almadr\u00e0", "network": "Bus de Palma", "operator": "Empresa Municipal de Transports de Palma", "public_transport": "platform", "ref": "872", "shelter": "no", "surface": "asphalt", "tactile_paving": "no"}}, {"type": "node", "id": 669638505, "lat": 39.5880433, "lon": 2.7131805, "tags": {"bench": "yes", "bus": "yes", "highway": "bus_stop", "name": "Amadip", "network": "Bus de Palma", "operator": "Empresa Municipal de Transports de Palma", "passenger_information_display": "no", "public_transport": "platform", "ref": "808", "route_ref": "14", "shelter": "yes"}}, {"type": "node", "id": 669638508, "lat": 39.5744724, "lon": 2.7139738, "tags": {"bench": "no", "bus": "yes", "highway": "bus_stop", "name": "Ambulatori de Son Ferriol", "name:ca": "Ambulatori de Son Ferriol", "network": "Bus de Palma", "operator": "Empresa Municipal de Transports de Palma", "passenger_information_display": "no", "public_transport": "platform", "ref": "816", "route_ref": "14", "shelter": "no"}}, {"type": "node", "id": 669638510, "lat": 39.571516, "lon": 2.7129091, "tags": {"bench": "yes", "bus": "yes", "highway": "bus_stop", "name": "Son Ferriol", "name:ca": "Son Ferriol", "network": "Bus de Palma", "not_served_by": "28", "operator": "Empresa Municipal de Transports de Palma", "passenger_information_display": "no", "public_transport": "platform", "ref": "848", "route_ref": "14", "shelter": "yes"}}, {"type": "node", "id": 669638512, "lat": 39.5706423, "lon": 2.6289744, "tags": {"bench": "no", "bin": "yes", "bus": "yes", "departures_board": "timetable", "highway": "bus_stop", "lit": "yes", "name": "Andrea Doria, 22", "network": "Bus de Palma", "operator": "Empresa Municipal de Trensports de Palma", "public_transport": "platform", "ref": "133", "shelter": "no", "surface": "paving_stones", "tactile_paving": "no"}}, {"type": "node", "id": 669638515, "lat": 39.5704949, "lon": 2.6286131, "tags": {"bench": "yes", "bin": "yes", "bus": "yes", "departures_board": "timetable", "highway": "bus_stop", "lit": "yes", "name": "Andrea Doria, 25", "network": "Bus de Palma", "operator": "Empresa Municipal de Transports de Palma", "public_transport": "platform", "ref": "155", "shelter": "no", "surface": "paving_stones", "tactile_paving": "no"}}, {"type": "node", "id": 669638518, "lat": 39.5709773, "lon": 2.6262198, "tags": {"bench": "yes", "bin": "yes", "bus": "yes", "departures_board": "realtime", "highway": "bus_stop", "lit": "yes", "name": "Andrea Doria, 41", "network": "Bus de Palma", "operator": "Empresa Municipal de Transports de Palma", "public_transport": "platform", "ref": "154", "shelter": "yes", "surface": "paving_stones", "tactile_paving": "no"}}, {"type": "node", "id": 669638523, "lat": 39.5709208, "lon": 2.6268348, "tags": {"bench": "yes", "bin": "yes", "bus": "yes", "departures_board": "timetable", "highway": "bus_stop", "lit": "yes", "name": "Andrea Doria, 42", "network": "Bus de Palma", "operator": "Empresa Municipal de Transports de Palma", "public_transport": "platform", "ref": "134", "shelter": "yes", "surface": "paving_stones", "tactile_paving": "no"}}, {"type": "node", "id": 669638532, "lat": 39.5704535, "lon": 2.6319069, "tags": {"bench": "yes", "bin": "no", "bus": "yes", "departures_board": "timetable", "highway": "bus_stop", "lit": "yes", "name": "Andrea Doria 1 (Palma)", "network": "Transports p\u00fablics de Mallorca", "operator": "Consorci de Transports de Mallorca", "public_transport": "platform", "ref": "40028", "shelter": "no", "surface": "paving_stones", "tactile_paving": "no"}}, {"type": "node", "id": 669638535, "lat": 39.5970408, "lon": 2.6915427, "tags": {"bench": "no", "bin": "yes", "bus": "yes", "departures_board": "timetable", "highway": "bus_stop", "lit": "yes", "name": "Antoni Maura - Cabana", "name:ca": "Antoni Maura - Cabana", "network": "Bus de Palma", "operator": "Empresa Municipal de Transports de Palma", "public_transport": "platform", "ref": "36", "shelter": "no", "surface": "paving_stones", "tactile_paving": "no"}}, {"type": "node", "id": 669638539, "lat": 39.5985618, "lon": 2.6942436, "tags": {"bench": "no", "bin": "no", "bus": "yes", "departures_board": "timetable", "highway": "bus_stop", "lit": "yes", "name": "Antoni Maura - Farinera", "name:ca": "Antoni Maura - Farinera", "network": "Bus de Palma", "operator": "Empresa Municipal de Transports de Palma", "public_transport": "platform", "ref": "126", "shelter": "no", "surface": "paving_stones", "tactile_paving": "no"}}, {"type": "node", "id": 669638541, "lat": 39.5987107, "lon": 2.6942901, "tags": {"bench": "no", "bin": "no", "bus": "yes", "departures_board": "timetable", "highway": "bus_stop", "lit": "yes", "name": "Antoni Maura - Farinera", "name:ca": "Antoni Maura - Farinera", "network": "Bus de Palma", "operator": "EMT Palma", "public_transport": "platform", "ref": "35", "shelter": "no", "surface": "paving_stones", "tactile_paving": "no"}}, {"type": "node", "id": 669638543, "lat": 39.5968491, "lon": 2.6914904, "tags": {"bench": "no", "bin": "no", "bus": "yes", "departures_board": "timetable", "highway": "bus_stop", "lit": "yes", "name": "Antoni Maura - Cabana", "name:ca": "Antoni Maura - Cabana", "network": "Bus de Palma", "operator": "Empresa Municipal de Transports de Palma", "public_transport": "platform", "ref": "125", "shelter": "no", "surface": "paving_stones", "tactile_paving": "no"}}, {"type": "node", "id": 669638556, "lat": 39.5731424, "lon": 2.6571398, "tags": {"bench": "yes", "bin": "yes", "bus": "yes", "departures_board": "realtime", "highway": "bus_stop", "lit": "yes", "name": "Grans Magatzems - \u00c0rea d'intercanvi Sindicat", "name:ca": "Grans Magatzems - \u00c0rea d'intercanvi Sindicat", "network": "Bus de Palma", "operator": "Empresa Municipal de Transports de Palma", "public_transport": "platform", "ref": "49", "shelter": "yes", "surface": "paving_stones", "tactile_paving": "no"}}, {"type": "node", "id": 669638558, "lat": 39.5811523, "lon": 2.6667228, "tags": {"bench": "yes", "bin": "yes", "bus": "yes", "departures_board": "timetable", "highway": "bus_stop", "lit": "yes", "name": "Arag\u00f3 - Son Fortesa", "name:ca": "Arag\u00f3 - Son Fortesa", "network": "Bus de Palma", "operator": "Empresa Municipal de Transports de Palma", "public_transport": "platform", "ref": "116", "shelter": "yes", "surface": "paving_stones", "tactile_paving": "no"}}, {"type": "node", "id": 669638559, "lat": 39.5813113, "lon": 2.6666601, "tags": {"bench": "yes", "bin": "yes", "bus": "yes", "departures_board": "timetable", "highway": "bus_stop", "lit": "yes", "name": "Arag\u00f3 - Son Fortesa", "name:ca": "Arag\u00f3 - Son Fortesa", "network": "Bus de Palma", "operator": "Empresa Municipal de Transports de Palma", "public_transport": "platform", "ref": "44", "shelter": "yes", "surface": "paving_stones", "tactile_paving": "no"}}, {"type": "node", "id": 669638561, "lat": 39.5854786, "lon": 2.6728781, "tags": {"bench": "yes", "bin": "no", "bus": "yes", "departures_board": "timetable", "highway": "bus_stop", "lit": "yes", "name": "Arag\u00f3 - torrent d'en Barber\u00e0", "name:ca": "Arag\u00f3 - torrent d'en Barber\u00e0", "network": "Bus de Palma", "operator": "Empresa Municipal de Transports de Palma", "public_transport": "platform", "ref": "118", "shelter": "no", "surface": "paving_stones", "tactile_paving": "no"}}, {"type": "node", "id": 669638562, "lat": 39.5859213, "lon": 2.673052, "tags": {"bench": "yes", "bin": "yes", "bus": "yes", "departures_board": "timetable", "highway": "bus_stop", "lit": "yes", "name": "Arag\u00f3 - torrent d'en Barber\u00e0", "name:ca": "Arag\u00f3 - torrent d'en Barber\u00e0", "network": "Bus de Palma", "operator": "Empresa Municipal de Transports de Palma", "public_transport": "platform", "ref": "1302", "shelter": "no", "surface": "paving_stones", "tactile_paving": "no"}}, {"type": "node", "id": 669638565, "lat": 39.5744885, "lon": 2.6585979, "tags": {"bench": "yes", "bin": "no", "bus": "yes", "departures_board": "realtime", "highway": "bus_stop", "lit": "yes", "name": "Arag\u00f3 - Miquel Marqu\u00e8s - \u00c0rea Sindicat", "name:ca": "Arag\u00f3 - Miquel Marqu\u00e8s - \u00c0rea Sindicat", "network": "Bus de Palma", "operator": "Empresa Municipal de Transports de Palma", "public_transport": "platform", "ref": "113", "shelter": "yes", "surface": "paving_stones", "tactile_paving": "no"}}, {"type": "node", "id": 669638579, "lat": 39.5880575, "lon": 2.6757131, "tags": {"bench": "yes", "bin": "yes", "bus": "yes", "departures_board": "timetable", "highway": "bus_stop", "lit": "yes", "name": "Arag\u00f3 - Son Fuster", "name:ca": "Arag\u00f3 - Son Fuster", "network": "Bus de Palma", "operator": "Empresa Municipal de Transports de Palma", "public_transport": "platform", "ref": "119", "shelter": "yes", "surface": "concrete", "tactile_paving": "no"}}, {"type": "node", "id": 669638581, "lat": 39.5884885, "lon": 2.6758683, "tags": {"bench": "yes", "bin": "yes", "bus": "yes", "departures_board": "timetable", "highway": "bus_stop", "lit": "yes", "name": "Arag\u00f3 - Son Fuster", "name:ca": "Arag\u00f3 - Son Fuster", "network": "Bus de Palma", "operator": "Empresa Municipal de Transports de Palma", "public_transport": "platform", "ref": "1301", "shelter": "yes", "surface": "concrete", "tactile_paving": "no"}}, {"type": "node", "id": 669638582, "lat": 39.5746726, "lon": 2.6585073, "tags": {"bench": "yes", "bin": "no", "bus": "yes", "departures_board": "timetable", "highway": "bus_stop", "lit": "yes", "name": "Arag\u00f3 - Miquel Marqu\u00e8s", "name:ca": "Arag\u00f3 - Miquel Marqu\u00e8s", "network": "Bus de Palma", "operator": "Empresa Municipal de Transports de Palma", "public_transport": "platform", "ref": "47", "shelter": "no", "surface": "paving_stones", "tactile_paving": "no"}}, {"type": "node", "id": 669638583, "lat": 39.5905143, "lon": 2.6791093, "tags": {"bench": "yes", "bin": "no", "bus": "yes", "departures_board": "timetable", "highway": "bus_stop", "lit": "yes", "name": "Arag\u00f3 - es Rafal Vell", "name:ca": "Arag\u00f3 - es Rafal Vell", "network": "Bus de Palma", "operator": "Empresa Municipal de Transports de Palma", "public_transport": "platform", "ref": "121", "shelter": "no", "surface": "paving_stones"}}, {"type": "node", "id": 669638584, "lat": 39.5907938, "lon": 2.6791021, "tags": {"bench": "no", "bin": "yes", "bus": "yes", "departures_board": "timetable", "highway": "bus_stop", "lit": "yes", "name": "Arag\u00f3 - es Rafal Vell", "name:ca": "Arag\u00f3 - es Rafal Vell", "network": "Bus de Palma", "operator": "Empresa Municipal de Transports de Palma", "public_transport": "platform", "ref": "39", "shelter": "no", "surface": "concrete", "tactile_paving": "no"}}, {"type": "node", "id": 669638586, "lat": 39.5926027, "lon": 2.6821056, "tags": {"bench": "yes", "bin": "yes", "bus": "yes", "departures_board": "timetable", "highway": "bus_stop", "lit": "yes", "name": "Arag\u00f3 - es Viver", "name:ca": "Arag\u00f3 - es Viver", "network": "Bus de Palma", "operator": "Empresa Municipal de Transports de Palma", "public_transport": "platform", "ref": "13", "shelter": "yes", "surface": "concrete", "tactile_paving": "no"}}, {"type": "node", "id": 669638587, "lat": 39.5928437, "lon": 2.6829809, "tags": {"bench": "no", "bin": "no", "bus": "yes", "departures_board": "timetable", "highway": "bus_stop", "lit": "yes", "name": "Arag\u00f3 - es Viver", "name:ca": "Arag\u00f3 - es Viver", "network": "Bus de Palma", "not_served_by": "34", "operator": "Empresa Municipal de Transports de Palma", "public_transport": "platform", "ref": "122", "shelter": "no", "surface": "paving_stones", "tactile_paving": "no"}}, {"type": "node", "id": 669638588, "lat": 39.5768162, "lon": 2.6602348, "tags": {"bench": "yes", "bin": "no", "bus": "yes", "departures_board": "timetable", "highway": "bus_stop", "lit": "yes", "name": "Arag\u00f3 - Escola Oficial d'Idiomes", "name:ca": "Arag\u00f3 - Escola Oficial d'Idiomes", "network": "Bus de Palma", "operator": "Empresa Municipal de Transports de Palma", "public_transport": "platform", "ref": "114", "shelter": "yes", "surface": "concrete", "tactile_paving": "no"}}, {"type": "node", "id": 669638589, "lat": 39.5774879, "lon": 2.6609286, "tags": {"bench": "yes", "bin": "yes", "bus": "yes", "highway": "bus_stop", "lit": "yes", "name": "Arag\u00f3 - Escola Oficial d'Idiomes", "name:ca": "Arag\u00f3 - Escola Oficial d'Idiomes", "network": "Bus de Palma", "operator": "Empresa Municipal de Transports de Palma", "passenger_information_display": "no", "public_transport": "platform", "ref": "46", "shelter": "yes", "surface": "paving_stones", "tactile_paving": "no"}}, {"type": "node", "id": 669638592, "lat": 39.5751114, "lon": 2.665081, "tags": {"bench": "yes", "bin": "no", "bus": "yes", "departures_board": "timetable", "highway": "bus_stop", "lit": "yes", "name": "pl. de Pere Garau - ses Cent Cases", "network": "Bus de Palma", "operator": "Empresa Municipal de Transport de Palma", "public_transport": "platform", "ref": "192", "shelter": "no", "surface": "concrete", "tactile_paving": "no"}}, {"type": "node", "id": 669638593, "lat": 39.5764084, "lon": 2.667974, "tags": {"bench": "yes", "bin": "yes", "bus": "yes", "departures_board": "realtime", "highway": "bus_stop", "lit": "yes", "name": "pl. de Miquel Dol\u00e7", "network": "Bus de Palma", "operator": "Empresa Municipal de Transports de Palma", "public_transport": "platform", "ref": "191", "shelter": "yes", "surface": "paving_stones", "tactile_paving": "no"}}, {"type": "node", "id": 669638595, "lat": 39.5763934, "lon": 2.6682213, "tags": {"bench": "yes", "bin": "no", "bus": "yes", "departures_board": "timetable", "highway": "bus_stop", "lit": "yes", "name": "pl. de Miquel Dol\u00e7", "network": "Bus de Palma", "operator": "Empresa Municipal de Transports de Palma", "public_transport": "platform", "ref": "211", "shelter": "no", "surface": "concrete", "tactile_paving": "no"}}, {"type": "node", "id": 669638597, "lat": 39.5750954, "lon": 2.6653486, "tags": {"bench": "yes", "bin": "no", "bus": "yes", "departures_board": "timetable", "highway": "bus_stop", "lit": "yes", "name": "pl. de Pere Garau - ses Cent Cases", "network": "Bus de Palma", "operator": "Empresa Municipal de Transports de Palma", "public_transport": "platform", "ref": "210", "shelter": "no", "surface": "paving_stones", "tactile_paving": "no"}}, {"type": "node", "id": 669638598, "lat": 39.585053, "lon": 2.6577231, "tags": {"bench": "no", "bin": "yes", "bus": "yes", "departures_board": "timetable", "highway": "bus_stop", "lit": "yes", "name": "Arxiduc Llu\u00eds Salvador - Coliseu", "name:ca": "Arxiduc Llu\u00eds Salvador - Coliseu", "network": "Bus de Palma", "operator": "Empresa Municipal de Transports de Palma", "public_transport": "platform", "ref": "251", "shelter": "no", "surface": "paving_stones", "tactile_paving": "no"}}, {"type": "node", "id": 669638602, "lat": 39.5877097, "lon": 2.6592241, "tags": {"bench": "yes", "bin": "no", "bus": "yes", "departures_board": "timetable", "highway": "bus_stop", "lit": "yes", "name": "Son Oliva", "name:ca": "Son Oliva", "network": "Bus de Palma", "operator": "Empresa Municipal de Transports de Palma", "public_transport": "platform", "ref": "287", "shelter": "no", "surface": "paving_stones", "tactile_paving": "no"}}, {"type": "node", "id": 669638604, "lat": 39.5881285, "lon": 2.6595855, "tags": {"bench": "no", "bin": "yes", "bus": "yes", "departures_board": "timetable", "highway": "bus_stop", "lit": "yes", "name": "Son Oliva", "name:ca": "Son Oliva", "network": "Bus de Palma", "operator": "Empresa Municipal de Transports de Palma", "public_transport": "platform", "ref": "1309", "shelter": "no", "surface": "paving_stones", "tactile_paving": "no"}}, {"type": "node", "id": 669638609, "lat": 39.5816397, "lon": 2.6556236, "tags": {"bench": "yes", "bin": "yes", "bus": "yes", "departures_board": "timetable", "highway": "bus_stop", "lit": "yes", "name": "pl. d'Alexander Flemming", "name:ca": "pl. d'Alexander Flemming", "network": "Bus de Palma", "operator": "Empresa Municipal de Transports de Palma", "public_transport": "platform", "ref": "250", "shelter": "no", "surface": "paving_stones", "tactile_paving": "no"}}, {"type": "node", "id": 669638612, "lat": 39.5844613, "lon": 2.6572061, "tags": {"bench": "yes", "bin": "no", "bus": "yes", "departures_board": "timetable", "highway": "bus_stop", "lit": "yes", "name": "Arxiduc Llu\u00eds Salvador - Coliseu", "name:ca": "Arxiduc Llu\u00eds Salvador - Coliseu", "network": "Bus de Palma", "operator": "Empresa Municipal de Transports de Palma", "public_transport": "platform", "ref": "289", "shelter": "no", "surface": "paving_stones", "tactile_paving": "no"}}, {"type": "node", "id": 669638619, "lat": 39.5761199, "lon": 2.6255324, "tags": {"bench": "yes", "bus": "yes", "highway": "bus_stop", "name": "Picasso, 41", "network": "Bus de Palma", "operator": "Empresa Municipal de Transports de Palma", "passenger_information_display": "no", "public_transport": "platform", "ref": "980", "route_ref": "29", "shelter": "no"}}, {"type": "node", "id": 669638621, "lat": 39.5788232, "lon": 2.626661, "tags": {"bench": "no", "bus": "yes", "highway": "bus_stop", "name": "Picasso, 61", "network": "Bus de Palma", "operator": "Empresa Municipal de Transports de Palma", "passenger_information_display": "no", "public_transport": "platform", "ref": "979", "route_ref": "29", "shelter": "no"}}, {"type": "node", "id": 669638624, "lat": 39.575257, "lon": 2.6550857, "tags": {"bench": "yes", "bin": "no", "bus": "yes", "check_date:shelter": "2021-10-15", "departures_board": "realtime", "description": "Buses throughout the island go from here (downstairs). You can pay directly at the driver. Price to Muro is e.g. 6,50 \u20ac", "highway": "bus_stop", "name": "Pla\u00e7a d'Espanya", "name:ca": "Pla\u00e7a d'Espanya", "name:es": "Plaza de Espa\u00f1a", "network": "Bus de Palma", "operator": "Empresa Municipal de Transports de Palma", "public_transport": "platform", "ref": "404", "shelter": "yes", "surface": "paving_stones", "tactile_paving": "no", "wheelchair": "yes"}}, {"type": "node", "id": 669638629, "lat": 39.5780091, "lon": 2.6485982, "tags": {"bench": "yes", "bin": "yes", "bus": "yes", "departures_board": "timetable", "highway": "bus_stop", "lit": "no", "name": "\u00c0rea d'intercanvi Alemanya - Comte de Sallent", "name:ca": "\u00c0rea d'intercanvi Alemanya - Comte de Sallent", "network": "Bus de Palma", "operator": "Empresa Municipal de Transports de Palma", "public_transport": "platform", "ref": "981", "shelter": "yes", "surface": "paving_stones", "tactile_paving": "no", "wheelchair": "yes"}}, {"type": "node", "id": 669638635, "lat": 39.5659885, "lon": 2.6680935, "tags": {"bench": "yes", "bin": "no", "bus": "yes", "departures_board": "timetable", "highway": "bus_stop", "lit": "yes", "name": "Avinguda de M\u00e8xic", "name:ca": "Avinguda de M\u00e8xic", "network": "Bus de Palma", "operator": "Empresa Municipal de Transports de Palma", "public_transport": "platform", "ref": "609", "shelter": "no", "surface": "paving_stones", "tactile_paving": "no"}}, {"type": "node", "id": 669638638, "lat": 39.5709523, "lon": 2.6571065, "tags": {"bench": "yes", "bin": "yes", "bus": "yes", "departures_board": "realtime", "highway": "bus_stop", "lit": "yes", "name": "Gabriel Alomar - \u00c0rea d'intercanvi Sindicat", "network": "Bus de Palma", "operator": "EMT Palma", "public_transport": "platform", "ref": "452", "shelter": "yes", "surface": "paving_stones", "tactile_paving": "no", "wheelchair": "yes"}}, {"type": "node", "id": 669638639, "lat": 39.5680168, "lon": 2.6574266, "tags": {"bench": "yes", "bin": "yes", "bus": "yes", "check_date:shelter": "2024-12-28", "departures_board": "timetable", "highway": "bus_stop", "lit": "yes", "name": "Gabriel Alomar, 29", "network": "Bus de Palma", "operator": "Empresa Municipal de Transports de Palma", "public_transport": "platform", "ref": "451", "shelter": "yes", "surface": "paving_stones", "tactile_paving": "no", "wheelchair": "yes"}}, {"type": "node", "id": 669638641, "lat": 39.5723367, "lon": 2.6434356, "tags": {"bench": "yes", "bin": "no", "bus": "yes", "departures_board": "realtime", "highway": "bus_stop", "lit": "yes", "name": "Jaume III", "name:ca": "Jaume III", "network": "Bus de Palma", "operator": "EMT Palma", "public_transport": "platform", "ref": "104", "shelter": "yes", "surface": "paving_stones", "tactile_paving": "no", "wheelchair": "no"}}, {"type": "node", "id": 669638643, "lat": 39.5765728, "lon": 2.6530788, "tags": {"bench": "yes", "bin": "yes", "bus": "yes", "departures_board": "realtime", "highway": "bus_stop", "lit": "yes", "name": "pl. d'Espanya - Estaci\u00f3 Intermodal", "name:ca": "pl. d'Espanya - Estaci\u00f3 Intermodal", "network": "Bus de Palma", "operator": "Empresa Municipal de Transports de Palma", "public_transport": "platform", "ref": "390", "shelter": "yes", "surface": "paving_stones", "tactile_paving": "no"}}, {"type": "node", "id": 669638647, "lat": 39.5573455, "lon": 2.6230711, "tags": {"bench": "yes", "bin": "yes", "bus": "yes", "departures_board": "timetable", "highway": "bus_stop", "lit": "yes", "name": "Joan Mir\u00f3 - torrent des Mal Pas", "network": "Bus de Palma", "operator": "Empresa Municipal de Transports de Palma", "public_transport": "platform", "ref": "95", "shelter": "yes", "surface": "paving_stones", "tactile_paving": "no"}}, {"type": "node", "id": 669638649, "lat": 39.55748, "lon": 2.6228402, "tags": {"bench": "no", "bin": "yes", "bus": "yes", "departures_board": "timetable", "highway": "bus_stop", "lit": "yes", "name": "Joan Mir\u00f3 - torrent des Mal Pas", "network": "Bus de Palma", "operator": "Empresa Municipal de Transports de Palma", "public_transport": "platform", "ref": "64", "shelter": "no", "surface": "paving_stones", "tactile_paving": "no"}}, {"type": "node", "id": 669638650, "lat": 39.5547919, "lon": 2.6233084, "tags": {"bench": "no", "bin": "yes", "bus": "yes", "departures_board": "timetable", "highway": "bus_stop", "lit": "yes", "name": "Joan Mir\u00f3 - Corb Mar\u00ed", "network": "Bus de Palma", "operator": "Empresa Municipal de Transports de Palma", "public_transport": "platform", "ref": "81", "shelter": "no", "surface": "paving_stones", "tactile_paving": "no"}}, {"type": "node", "id": 669638653, "lat": 39.5547215, "lon": 2.6231598, "tags": {"bench": "no", "bin": "no", "bus": "yes", "departures_board": "timetable", "highway": "bus_stop", "lit": "yes", "name": "Joan Mir\u00f3 - Corb Mar\u00ed", "network": "Bus de Palma", "operator": "Empresa Municipal de Transports de Palma", "public_transport": "platform", "ref": "82", "shelter": "no", "surface": "paving_stones", "tactile_paving": "no"}}, {"type": "node", "id": 669638656, "lat": 39.5663263, "lon": 2.626811, "tags": {"bench": "no", "bin": "yes", "bus": "yes", "departures_board": "timetable", "highway": "bus_stop", "lit": "yes", "name": "Joan Mir\u00f3 - s'Aigua Dol\u00e7a", "network": "Bus de Palma", "operator": "Empresa Municipal de Transports de Palma", "public_transport": "platform", "ref": "61", "shelter": "no", "surface": "paving_stones", "tactile_paving": "no"}}, {"type": "node", "id": 669638657, "lat": 39.5589651, "lon": 2.6242752, "tags": {"bench": "no", "bin": "yes", "bus": "yes", "departures_board": "timetable", "highway": "bus_stop", "lit": "yes", "name": "Joan Mir\u00f3 - sa Portassa", "network": "Bus de Palma", "operator": "Empresa Municipal de Transports de Palma", "public_transport": "platform", "ref": "63", "shelter": "no", "surface": "paving_stones", "tactile_paving": "no"}}, {"type": "node", "id": 669638660, "lat": 39.578655, "lon": 2.6267812, "tags": {"bench": "yes", "bus": "yes", "highway": "bus_stop", "name": "Av. Picasso, 62", "network": "Bus de Palma", "operator": "Empresa Municipal de Transports de Palma", "passenger_information_display": "no", "public_transport": "platform", "ref": "910", "route_ref": "29", "shelter": "no"}}, {"type": "node", "id": 669638663, "lat": 39.5739082, "lon": 2.6247943, "tags": {"bench": "no", "bus": "yes", "highway": "bus_stop", "name": "Picasso, 30", "network": "Bus de Palma", "operator": "Empresa Municipal de Transports de Palma", "passenger_information_display": "no", "public_transport": "platform", "ref": "74", "route_ref": "29", "shelter": "no"}}, {"type": "node", "id": 669638664, "lat": 39.5760928, "lon": 2.6257558, "tags": {"bench": "yes", "bus": "yes", "highway": "bus_stop", "name": "Av. Picasso, 50", "network": "Bus de Palma", "operator": "Empresa Municipal de Transports de Palma", "passenger_information_display": "no", "public_transport": "platform", "ref": "308", "route_ref": "29", "shelter": "no"}}, {"type": "node", "id": 669638668, "lat": 39.5729631, "lon": 2.7176994, "tags": {"bench": "no", "bus": "yes", "highway": "bus_stop", "name": "Avinguda del Cid, 17", "name:ca": "Avinguda del Cid, 17", "network": "Bus de Palma", "operator": "Empresa Municipal de Transports de Palma", "passenger_information_display": "no", "public_transport": "platform", "ref": "821", "route_ref": "14, 28", "shelter": "no"}}, {"type": "node", "id": 669638670, "lat": 39.5753365, "lon": 2.7169859, "tags": {"bench": "no", "bus": "yes", "highway": "bus_stop", "name": "Avinguda del Cid, 37", "name:ca": "Avinguda del Cid, 37", "network": "Bus de Palma", "operator": "Empresa Municipal de Transports de Palma", "passenger_information_display": "no", "public_transport": "platform", "ref": "820", "route_ref": "14, 28", "shelter": "no"}}, {"type": "node", "id": 669638671, "lat": 39.5776913, "lon": 2.716243, "tags": {"bench": "no", "bus": "yes", "highway": "bus_stop", "name": "Avinguda del Cid, 63", "name:ca": "Avinguda del Cid, 63", "network": "Bus de Palma", "operator": "Empresa Municipal de Transports de Palma", "passenger_information_display": "no", "public_transport": "platform", "ref": "819", "route_ref": "14, 28", "shelter": "no"}}, {"type": "node", "id": 669638673, "lat": 39.5833245, "lon": 2.6768052, "tags": {"bench": "no", "bin": "yes", "bus": "yes", "departures_board": "timetable", "highway": "bus_stop", "lit": "yes", "name": "Baladre", "network": "Bus de Palma", "operator": "Empresa Municipal de Transports de Palma", "public_transport": "platform", "ref": "216", "shelter": "no", "surface": "paving_stones", "tactile_paving": "no"}}, {"type": "node", "id": 669638698, "lat": 39.5868149, "lon": 2.6841349, "tags": {"bench": "yes", "bin": "no", "bus": "yes", "departures_board": "timetable", "highway": "bus_stop", "lit": "yes", "name": "Baltasar Valent\u00ed", "name:ca": "Baltasar Valent\u00ed", "network": "Bus de Palma", "operator": "Empresa Municipal de Transports de Palma", "public_transport": "platform", "ref": "863", "shelter": "yes", "surface": "concrete", "tactile_paving": "no"}}, {"type": "node", "id": 669638702, "lat": 39.5772708, "lon": 2.6315528, "tags": {"bench": "no", "bin": "yes", "bus": "yes", "departures_board": "timetable", "highway": "bus_stop", "lit": "yes", "name": "Barrera - Sant Ferran", "name:ca": "Barrera - Sant Ferran", "network": "Bus de Palma", "operator": "Empresa Municipal de Transports de Palma", "public_transport": "platform", "ref": "244", "shelter": "no", "surface": "paving_stones", "tactile_paving": "no"}}, {"type": "node", "id": 669638710, "lat": 39.5740376, "lon": 2.6098845, "tags": {"bench": "yes", "bin": "yes", "bus": "yes", "check_date:shelter": "2023-09-08", "departures_board": "timetable", "highway": "bus_stop", "lit": "yes", "name": "Base Militar", "network": "Bus de Palma", "operator": "Empresa Municipal de Transports de Palma", "public_transport": "platform", "ref": "137", "shelter": "yes", "surface": "paving_stones", "tactile_paving": "no"}}, {"type": "node", "id": 669638711, "lat": 39.5821452, "lon": 2.6813662, "tags": {"bench": "yes", "bus": "yes", "highway": "bus_stop", "name": "Biniamar", "name:ca": "Biniamar", "network": "Bus de Palma", "operator": "Empresa Municipal de Transports de Palma", "passenger_information_display": "no", "public_transport": "platform", "ref": "860", "route_ref": "24, 28", "shelter": "yes"}}, {"type": "node", "id": 669638713, "lat": 39.5821949, "lon": 2.6809243, "tags": {"bench": "yes", "bus": "yes", "highway": "bus_stop", "name": "Biniamar, 10", "name:ca": "Biniamar, 10", "network": "Bus de Palma", "operator": "Empresa Municipal de Transports de Palma", "passenger_information_display": "no", "public_transport": "platform", "ref": "4", "route_ref": "24, 28", "shelter": "no"}}, {"type": "node", "id": 669638727, "lat": 39.5506026, "lon": 2.5992669, "tags": {"bench": "yes", "bin": "yes", "bus": "yes", "departures_board": "timetable", "highway": "bus_stop", "lit": "yes", "name": "Port Calanova 1 (Sant Agust\u00ed)", "network": "Transports p\u00fablics de Mallorca", "operator": "Consorci de Transports de Mallorca", "public_transport": "platform", "ref": "40019", "shelter": "no", "surface": "paving_stones", "tactile_paving": "no"}}, {"type": "node", "id": 669638733, "lat": 39.6197885, "lon": 2.6722795, "tags": {"bench": "no", "bin": "no", "bus": "yes", "departures_board": "timetable", "highway": "bus_stop", "lit": "yes", "name": "Cam\u00ed 140 - Cas Selleter", "name:ca": "Cam\u00ed 140 - Cas Selleter", "network": "Bus de Palma", "operator": "Empresa Municipal de Transports de Palma", "passenger_information_display": "no", "public_transport": "platform", "ref": "619", "shelter": "no", "surface": "ground", "tactile_paving": "no"}}, {"type": "node", "id": 669638734, "lat": 39.6197608, "lon": 2.6721785, "tags": {"bench": "no", "bin": "no", "bus": "yes", "departures_board": "timetable", "highway": "bus_stop", "lit": "yes", "name": "Cam\u00ed 140 - Cas Selleter", "network": "Bus de Palma", "operator": "Empresa Municipal de Transports de Palma", "public_transport": "platform", "ref": "643", "shelter": "no", "surface": "asphalt", "tactile_paving": "no"}}, {"type": "node", "id": 669638736, "lat": 39.6262858, "lon": 2.6694142, "tags": {"bench": "no", "bin": "no", "bus": "yes", "departures_board": "timetable", "highway": "bus_stop", "lit": "yes", "name": "Cam\u00ed 140 50", "network": "Bus de Palma", "operator": "Empresa Municipal de Transports de Palma", "public_transport": "platform", "ref": "665", "shelter": "no", "surface": "gravel", "tactile_paving": "no"}}, {"type": "node", "id": 669638737, "lat": 39.5514069, "lon": 2.7019639, "tags": {"bus": "yes", "highway": "bus_stop", "name": "Cam\u00ed Can Pastilla", "public_transport": "platform"}}, {"type": "node", "id": 669638739, "lat": 39.5415436, "lon": 2.7730744, "tags": {"bench": "no", "bus": "yes", "highway": "bus_stop", "name": "Cam\u00ed de Can Peixet", "name:ca": "Cam\u00ed de Can Peixet", "network": "Bus de Palma", "operator": "Empresa Municipal de Transports de Palma", "passenger_information_display": "no", "public_transport": "platform", "ref": "286", "route_ref": "31", "shelter": "no"}}, {"type": "node", "id": 669638746, "lat": 39.5730287, "lon": 2.6166783, "tags": {"bench": "yes", "bin": "no", "bus": "yes", "highway": "bus_stop", "name": "Cam\u00ed de G\u00e8nova, 43", "name:ca": "Cam\u00ed de G\u00e8nova, 43", "network": "Bus de Palma", "operator": "Empresa Municipal de Transports de Palma", "passenger_information_display": "no", "public_transport": "platform", "ref": "865", "route_ref": "46", "shelter": "no"}}, {"type": "node", "id": 669638747, "lat": 39.5738986, "lon": 2.6128785, "tags": {"bench": "no", "bin": "no", "bus": "yes", "departures_board": "timetable", "highway": "bus_stop", "lit": "yes", "name": "Cam\u00ed de G\u00e8nova, 100", "name:ca": "Cam\u00ed de G\u00e8nova, 100", "network": "Bus de Palma", "operator": "Empresa Municipal de Transports de Palma", "public_transport": "platform", "ref": "136", "shelter": "no", "surface": "paving_stones", "tactile_paving": "no"}}, {"type": "node", "id": 669638750, "lat": 39.5733462, "lon": 2.6160309, "tags": {"bench": "no", "bin": "no", "bus": "yes", "departures_board": "timetable", "highway": "bus_stop", "lit": "yes", "name": "Cam\u00ed de G\u00e8nova, 60", "name:ca": "Cam\u00ed de G\u00e8nova, 60", "network": "Bus de Palma", "operator": "Empresa Municipal de Transports de Palma", "public_transport": "platform", "ref": "165", "shelter": "no", "surface": "paving_stones", "tactile_paving": "no"}}, {"type": "node", "id": 669638752, "lat": 39.5784248, "lon": 2.6469257, "tags": {"bench": "no", "bin": "no", "bus": "yes", "departures_board": "timetable", "highway": "bus_stop", "lit": "yes", "name": "cam\u00ed de Jes\u00fas", "name:ca": "cam\u00ed de Jes\u00fas", "network": "Bus de Palma", "operator": "Empresa Municipal de Transports de Palma", "public_transport": "platform", "ref": "757", "route_ref": "9", "shelter": "no", "surface": "paving_stones", "tactile_paving": "no"}}, {"type": "node", "id": 669638760, "lat": 39.592336, "lon": 2.6321885, "tags": {"bench": "no", "bin": "yes", "bus": "yes", "departures_board": "timetable", "highway": "bus_stop", "lit": "yes", "name": "Can Valero - Zona comercial", "name:ca": "Can Valero - Zona comercial", "network": "Bus de Palma", "operator": "Empresa Municipal de Transports de Palma", "public_transport": "platform", "ref": "1026", "shelter": "no", "surface": "paving_stones", "tactile_paving": "no"}}, {"type": "node", "id": 669638761, "lat": 39.5953513, "lon": 2.6363429, "tags": {"bench": "no", "bin": "no", "bus": "yes", "departures_board": "timetable", "highway": "bus_stop", "lit": "yes", "name": "Can Valero", "name:ca": "Can Valero", "network": "Bus de Palma", "operator": "Empresa Municipal de Transports de Palma", "public_transport": "platform", "ref": "708", "shelter": "no", "surface": "paving_stones", "tactile_paving": "no"}}, {"type": "node", "id": 669638764, "lat": 39.5614829, "lon": 2.5996865, "tags": {"bench": "no", "bus": "yes", "highway": "bus_stop", "name": "Cam\u00ed dels Reis, 19", "network": "Bus de Palma", "operator": "Empresa Municipal de Transports de Palma", "passenger_information_display": "no", "public_transport": "platform", "ref": "141", "route_ref": "46", "shelter": "no"}}, {"type": "node", "id": 669638766, "lat": 39.5634297, "lon": 2.6004929, "tags": {"bench": "no", "bus": "yes", "highway": "bus_stop", "name": "Cam\u00ed dels Reis, 47", "network": "Bus de Palma", "operator": "Empresa Municipal de Transports de Palma", "passenger_information_display": "no", "public_transport": "platform", "ref": "140", "route_ref": "46", "shelter": "no"}}, {"type": "node", "id": 669638767, "lat": 39.5640997, "lon": 2.6009166, "tags": {"bench": "no", "bus": "yes", "highway": "bus_stop", "name": "Cam\u00ed dels Reis, 38", "name:ca": "Cam\u00ed dels Reis, 38", "network": "Bus de Palma", "operator": "Empresa Municipal de Transports de Palma", "passenger_information_display": "no", "public_transport": "platform", "ref": "148", "route_ref": "46", "shelter": "no"}}, {"type": "node", "id": 669638846, "lat": 39.5659089, "lon": 2.6017293, "tags": {"bench": "yes", "bus": "yes", "highway": "bus_stop", "name": "Cam\u00ed dels Reis, 60", "network": "Bus de Palma", "operator": "Empresa Municipal de Transports de Palma", "passenger_information_display": "yes", "public_transport": "platform", "ref": "149", "route_ref": "46", "shelter": "yes"}}, {"type": "node", "id": 669638862, "lat": 39.6141754, "lon": 2.6752769, "tags": {"bench": "no", "bin": "no", "bus": "yes", "departures_board": "timetable", "highway": "bus_stop", "lit": "yes", "name": "Cam\u00ed dels Reis - Ca n'Enric", "name:ca": "Cam\u00ed dels Reis - Ca n'Enric", "network": "Bus de Palma", "operator": "Empresa Municipal de Transports de Palma", "public_transport": "platform", "ref": "607", "shelter": "no", "surface": "ground", "tactile_paving": "no"}}, {"type": "node", "id": 669638872, "lat": 39.6140081, "lon": 2.675284, "tags": {"bench": "no", "bin": "no", "bus": "yes", "departures_board": "timetable", "highway": "bus_stop", "lit": "yes", "name": "Cam\u00ed dels Reis - Ca n'Enric", "name:ca": "Cam\u00ed dels Reis - Ca n'Enric", "network": "Bus de Palma", "operator": "Empresa Municipal de Transports de Palma", "public_transport": "platform", "ref": "201", "shelter": "no", "surface": "asphalt", "tactile_paving": "no"}}, {"type": "node", "id": 669638873, "lat": 39.6113349, "lon": 2.6767268, "tags": {"bench": "no", "bin": "no", "bus": "yes", "departures_board": "timetable", "highway": "bus_stop", "lit": "yes", "name": "Cam\u00ed dels Reis - Cam\u00ed Roig", "name:ca": "Cam\u00ed dels Reis - Cam\u00ed Roig", "network": "Bus de Palma", "operator": "Empresa Municipal de Transports de Palma", "public_transport": "platform", "ref": "270", "shelter": "no", "surface": "asphalt", "tactile_paving": "no"}}, {"type": "node", "id": 669638875, "lat": 39.5659952, "lon": 2.6015862, "tags": {"bench": "no", "bus": "yes", "highway": "bus_stop", "name": "Cam\u00ed dels Reis, 83", "name:ca": "Cam\u00ed dels Reis, 83", "network": "Bus de Palma", "operator": "Empresa Municipal de Transports de Palma", "passenger_information_display": "no", "public_transport": "platform", "ref": "139", "route_ref": "46", "shelter": "no"}}, {"type": "node", "id": 669638879, "lat": 39.6354942, "lon": 2.6580889, "tags": {"bus": "yes", "highway": "bus_stop", "name": "cam\u00ed del Destre 11", "name:ca": "cam\u00ed del Destre 11", "public_transport": "platform"}}, {"type": "node", "id": 669638880, "lat": 39.6353073, "lon": 2.658184, "tags": {"bus": "yes", "highway": "bus_stop", "name": "cam\u00ed del Destre 8", "name:ca": "cam\u00ed del Destre 8", "public_transport": "platform"}}, {"type": "node", "id": 669638882, "lat": 39.5893789, "lon": 2.6575387, "tags": {"bench": "no", "bin": "yes", "bus": "yes", "highway": "bus_stop", "name": "Em\u00edlia Sureda, 42", "name:ca": "Em\u00edlia Sureda, 42", "network": "Bus de Palma", "operator": "Empresa Municipal de Transports de Palma", "passenger_information_display": "no", "public_transport": "platform", "ref": "260", "route_ref": "11", "shelter": "no"}}, {"type": "node", "id": 669638887, "lat": 39.6093183, "lon": 2.6780174, "tags": {"bench": "no", "bin": "no", "bus": "yes", "departures_board": "timetable", "highway": "bus_stop", "lit": "yes", "name": "Na Cerdana", "name:ca": "Na Cerdana", "network": "Bus de Palma", "operator": "Empresa Municipal de Transports de Palma", "public_transport": "platform", "ref": "271", "shelter": "no", "surface": "paving_stones", "tactile_paving": "no"}}, {"type": "node", "id": 669638888, "lat": 39.6090565, "lon": 2.6783332, "tags": {"bench": "no", "bin": "no", "bus": "yes", "departures_board": "timetable", "highway": "bus_stop", "lit": "yes", "name": "Na Cerdana", "name:ca": "Na Cerdana", "network": "Bus de Palma", "operator": "Empresa Municipal de Transports de Palma", "public_transport": "platform", "ref": "269", "shelter": "no", "surface": "asphalt", "tactile_paving": "no"}}, {"type": "node", "id": 669638894, "lat": 39.5913025, "lon": 2.5947475, "tags": {"bench": "no", "bin": "no", "bus": "yes", "departures_board": "timetable", "highway": "bus_stop", "lit": "yes", "name": "Raixa", "name:ca": "Raixa", "network": "Bus de Palma", "operator": "Empresa Municipal de Transports de Palma", "public_transport": "platform", "ref": "233", "shelter": "no", "surface": "asphalt", "tactile_paving": "no"}}, {"type": "node", "id": 669638896, "lat": 39.624467, "lon": 2.638177, "tags": {"bench": "no", "bin": "no", "bus": "yes", "departures_board": "timetable", "highway": "bus_stop", "lit": "yes", "name": "Cam\u00ed de la Real (Can Rave)", "name:ca": "Cam\u00ed de la Real (Can Rave)", "network": "Bus de Palma", "operator": "Empresa Municipal de Transports de Palma", "public_transport": "platform", "ref": "770", "shelter": "no", "surface": "asphalt", "tactile_paving": "no"}}, {"type": "node", "id": 669638899, "lat": 39.6083245, "lon": 2.6414874, "tags": {"bench": "no", "bin": "no", "bus": "yes", "departures_board": "timetable", "highway": "bus_stop", "lit": "yes", "name": "es Secar de la Real", "name:ca": "es Secar de la Real", "network": "Bus de Palma", "operator": "Empresa Municipal de Transports de Palma", "public_transport": "platform", "ref": "749", "shelter": "no", "surface": "paving_stones", "tactile_paving": "no"}}, {"type": "node", "id": 669638900, "lat": 39.6300073, "lon": 2.6394516, "tags": {"bench": "no", "bin": "no", "bus": "yes", "departures_board": "timetable", "highway": "bus_stop", "lit": "yes", "name": "cam\u00ed de la Real - Can Canet", "name:ca": "cam\u00ed de la Real - Can Canet", "network": "Bus de Palma", "operator": "Empresa Municipal de Transports de Palma", "public_transport": "platform", "ref": "144", "shelter": "no", "surface": "asphalt", "tactile_paving": "no"}}, {"type": "node", "id": 669638901, "lat": 39.588241, "lon": 2.7313181, "tags": {"bench": "no", "bus": "yes", "highway": "bus_stop", "name": "Cam\u00ed de Son Ametler, 36", "name:ca": "Cam\u00ed de Son Ametler, 36", "network": "Bus de Palma", "operator": "Empresa Municipal de Transports de Palma", "passenger_information_display": "no", "public_transport": "platform", "ref": "955", "route_ref": "14", "shelter": "no"}}, {"type": "node", "id": 669638905, "lat": 39.6060114, "lon": 2.6786014, "tags": {"bench": "yes", "bin": "no", "bus": "yes", "covered": "yes", "departures_board": "realtime", "highway": "bus_stop", "lit": "yes", "name": "Cam\u00ed Vell de Bunyola,", "name:ca": "Cam\u00ed Vell de Bunyola,", "network": "Bus de Palma", "operator": "Empresa Municipal de Transports de Palma", "public_transport": "platform", "ref": "268", "shelter": "yes", "surface": "paving_stones", "tactile_paving": "no"}}, {"type": "node", "id": 669638907, "lat": 39.6055035, "lon": 2.678121, "tags": {"bench": "yes", "bin": "no", "bus": "yes", "covered": "no", "departures_board": "timetable", "highway": "bus_stop", "lit": "yes", "name": "Cam\u00ed Vell de Bunyola", "name:ca": "Cam\u00ed Vell de Bunyola", "network": "Bus de Palma", "operator": "Empresa Municipal de Transports de Palma", "public_transport": "platform", "ref": "272", "shelter": "no", "surface": "paving_stones", "tactile_paving": "no"}}, {"type": "node", "id": 669638908, "lat": 39.5911875, "lon": 2.6675302, "tags": {"bench": "no", "bin": "yes", "bus": "yes", "covered": "no", "departures_board": "timetable", "highway": "bus_stop", "lit": "yes", "name": "Son Fusteret", "name:ca": "Son Fusteret", "network": "Bus de Palma", "operator": "Empresa Municipal de Transports de Palma", "public_transport": "platform", "ref": "285", "shelter": "no", "surface": "paving_stones", "tactile_paving": "no"}}, {"type": "node", "id": 669638910, "lat": 39.5910783, "lon": 2.6676965, "tags": {"bench": "no", "bin": "yes", "bus": "yes", "covered": "no", "departures_board": "timetable", "highway": "bus_stop", "lit": "yes", "name": "Son Fusteret", "name:ca": "Son Fusteret", "network": "Bus de Palma", "operator": "Empresa Municipal de Transports de Palma", "public_transport": "platform", "ref": "256", "shelter": "no", "surface": "paving_stones", "tactile_paving": "no"}}, {"type": "node", "id": 669638915, "lat": 39.5591596, "lon": 2.626773, "tags": {"bench": "no", "bin": "no", "bus": "yes", "covered": "no", "departures_board": "timetable", "highway": "bus_stop", "lit": "yes", "name": "Can Barbar\u00e0 1 (Palma)", "name:ca": "Can Barbar\u00e0 (Palma)", "network": "Transports p\u00fablics de Mallorca", "operator": "Consorci de Transports de Mallorca", "public_transport": "platform", "ref": "40006", "shelter": "no", "surface": "paving_stones", "tactile_paving": "no"}}, {"type": "node", "id": 669638919, "lat": 39.5478354, "lon": 2.6981123, "tags": {"bench": "no", "bus": "yes", "highway": "bus_stop", "name": "Can Caimari, 22", "name:ca": "Can Caimari, 22", "network": "Bus de Palma", "operator": "Empresa Municipal de Transports de Palma", "passenger_information_display": "no", "public_transport": "platform", "ref": "992", "route_ref": "30", "shelter": "no"}}, {"type": "node", "id": 669638920, "lat": 39.5826928, "lon": 2.6689246, "tags": {"bench": "yes", "bin": "no", "bus": "yes", "departures_board": "timetable", "highway": "bus_stop", "lit": "yes", "name": "Arag\u00f3 - Can Capes", "name:ca": "Arag\u00f3 - Can Capes", "network": "Bus de Palma", "operator": "Empresa Municipal de Transports de Palma", "public_transport": "platform", "ref": "117", "shelter": "yes", "surface": "paving_stones", "tactile_paving": "no"}}, {"type": "node", "id": 669638927, "lat": 39.5522651, "lon": 2.5988918, "tags": {"bench": "no", "bus": "yes", "highway": "bus_stop", "name": "Can T\u00e0pera", "name:ca": "Can T\u00e0pera", "network": "Bus de Palma", "operator": "Empresa Municipal de Transports de Palma", "passenger_information_display": "no", "public_transport": "platform", "ref": "786", "route_ref": "20, 46", "shelter": "no"}}, {"type": "node", "id": 669638937, "lat": 39.6010744, "lon": 2.6164912, "tags": {"bench": "yes", "bin": "yes", "bus": "yes", "departures_board": "timetable", "highway": "bus_stop", "lit": "yes", "name": "Son Roca", "network": "Bus de Palma", "operator": "Empresa Municipal de Transports de Palma", "public_transport": "platform", "ref": "341", "shelter": "yes", "surface": "concrete", "tactile_paving": "no"}}, {"type": "node", "id": 669638940, "lat": 39.6034807, "lon": 2.617331, "tags": {"bench": "yes", "bin": "yes", "bus": "yes", "check_date:shelter": "2023-09-03", "departures_board": "timetable", "highway": "bus_stop", "lit": "yes", "name": "Son Ximelis", "network": "Bus de Palma", "operator": "Empresa Municipal de Transports de Palma", "public_transport": "platform", "ref": "342", "shelter": "yes", "surface": "paving_stones", "tactile_paving": "no"}}, {"type": "node", "id": 669638941, "lat": 39.5832486, "lon": 2.6530654, "tags": {"bench": "yes", "bus": "yes", "highway": "bus_stop", "name": "Alfons el Magn\u00e0nim, 12", "name:ca": "Alfons el Magn\u00e0nim, 12", "network": "Bus de Palma", "operator": "Empresa Municipal de Transports de Palma", "passenger_information_display": "no", "public_transport": "platform", "ref": "363", "route_ref": "12, 20, 42", "shelter": "no"}}, {"type": "node", "id": 669638943, "lat": 39.5860752, "lon": 2.6531524, "tags": {"bench": "no", "bin": "yes", "bus": "yes", "departures_board": "timetable", "highway": "bus_stop", "lit": "yes", "name": "Alfons el Magn\u00e0nim (Palma)", "name:ca": "Alfons el Magn\u00e0nim (Palma)", "network": "Transports p\u00fablics de Mallorca", "operator": "Consorci de Transports de Mallorca", "public_transport": "platform", "ref": "40037", "shelter": "no", "surface": "concrete", "tactile_paving": "partial"}}, {"type": "node", "id": 669638953, "lat": 39.5901503, "lon": 2.5982274, "tags": {"bench": "no", "bin": "yes", "bus": "yes", "departures_board": "tim", "highway": "bus_stop", "lit": "yes", "name": "Capocorb - Raixa", "network": "Bus de Palma", "operator": "Empresa Municipal de Transports de Palma", "public_transport": "platform", "ref": "236", "shelter": "no", "surface": "asphalt", "tactile_paving": "no"}}, {"type": "node", "id": 669638956, "lat": 39.5688656, "lon": 2.66717, "tags": {"bench": "no", "bin": "no", "bus": "yes", "departures_board": "timetable", "highway": "bus_stop", "lit": "yes", "name": "Caracas", "network": "Bus de Palma", "operator": "Empresa Municipal de Transports de Palma", "public_transport": "platform", "ref": "617", "shelter": "no", "surface": "concrete", "tactile_paving": "no"}}, {"type": "node", "id": 669638957, "lat": 39.555602, "lon": 2.6917121, "tags": {"bench": "yes", "bus": "yes", "highway": "bus_stop", "name": "Cardenal Rossell, 1", "network": "Bus de Palma", "operator": "Empresa Municipal de Transports de Palma", "passenger_information_display": "no", "public_transport": "platform", "ref": "467", "route_ref": "15, 18, 28, 30", "shelter": "yes"}}, {"type": "node", "id": 669638959, "lat": 39.5522806, "lon": 2.7005989, "tags": {"bench": "no", "bus": "yes", "highway": "bus_stop", "name": "Cardenal Rossell, 138", "network": "Bus de Palma", "operator": "Empresa Municipal de Transports de Palma", "passenger_information_display": "no", "public_transport": "platform", "ref": "673", "route_ref": "18, 28", "shelter": "no"}}, {"type": "node", "id": 669638962, "lat": 39.5523848, "lon": 2.7005257, "tags": {"bench": "no", "bus": "yes", "highway": "bus_stop", "name": "Cardenal Rossell, 16", "network": "Bus de Palma", "operator": "Empresa Municipal de Transports de Palma", "passenger_information_display": "no", "public_transport": "platform", "ref": "674", "route_ref": "18, 28", "shelter": "no"}}, {"type": "node", "id": 669638964, "lat": 39.5529331, "lon": 2.6944888, "tags": {"bench": "yes", "bus": "yes", "highway": "bus_stop", "name": "Cardenal Rossell, 23", "network": "Bus de Palma", "passenger_information_display": "yes", "public_transport": "platform", "ref": "441", "route_ref": "15, 18, 28, 30", "shelter": "yes"}}, {"type": "node", "id": 669638965, "lat": 39.5533997, "lon": 2.6938314, "tags": {"bench": "no", "bus": "yes", "highway": "bus_stop", "name": "Cardenal Rossel, 36", "network": "Bus de Palma", "operator": "Empresa Municipal de Transports de Palma", "passenger_information_display": "no", "public_transport": "platform", "ref": "468", "route_ref": "15, 18, 28, 30", "shelter": "no"}}, {"type": "node", "id": 669638966, "lat": 39.5929648, "lon": 2.6556548, "tags": {"bench": "no", "bus": "yes", "highway": "bus_stop", "name": "Carles Riba, 12", "name:ca": "Carles Riba, 12", "network": "Bus de Palma", "operator": "Empresa Municipal de Transports de Palma", "passenger_information_display": "no", "public_transport": "platform", "ref": "612", "route_ref": "11", "shelter": "no"}}, {"type": "node", "id": 669638968, "lat": 39.591636, "lon": 2.6580161, "tags": {"bench": "no", "bin": "no", "bus": "yes", "highway": "bus_stop", "name": "Carles Riba, 38", "name:ca": "Carles Riba, 38", "network": "Bus de Palma", "operator": "Empresa Municipal de Transports de Palma", "passenger_information_display": "no", "public_transport": "platform", "ref": "736", "route_ref": "11", "shelter": "no"}}, {"type": "node", "id": 669638970, "lat": 39.5733274, "lon": 2.6369168, "tags": {"bench": "no", "bin": "no", "bus": "yes", "departures_board": "timetable", "highway": "bus_stop", "lit": "yes", "name": "Caro - Col\u00b7legi Santa Catalina", "name:ca": "Caro - Col\u00b7legi Santa Catalina", "network": "Bus de Palma", "operator": "Empresa Municipal de Transports de Palma", "public_transport": "platform", "ref": "247", "shelter": "no", "surface": "paving_stones", "tactile_paving": "no", "wheelchair": "no"}}, {"type": "node", "id": 669639022, "lat": 39.5474852, "lon": 2.5961311, "tags": {"bench": "no", "bin": "yes", "bus": "yes", "departures_board": "timetable", "highway": "bus_stop", "lit": "yes", "name": "Ctra. Andratx - Mar i Cel 1 (Cas Catal\u00e0)", "network": "Transports p\u00fablics de Mallorca", "operator": "Consorci de Transports de Mallorca", "public_transport": "platform", "ref": "11001", "shelter": "no", "surface": "concrete", "tactile_paving": "no"}}, {"type": "node", "id": 669639025, "lat": 39.5676827, "lon": 2.756361, "tags": {"bench": "yes", "bus": "yes", "highway": "bus_stop", "name": "Sa Casa Blanca", "name:ca": "Sa Casa Blanca", "network": "Bus de Palma", "operator": "Empresa Municipal de Transports de Palma", "passenger_information_display": "no", "public_transport": "platform", "ref": "837", "route_ref": "14", "shelter": "yes"}}, {"type": "node", "id": 669639030, "lat": 39.5635481, "lon": 2.6198893, "tags": {"bench": "no", "bus": "yes", "highway": "bus_stop", "name": "Castell de Bellver", "name:ca": "Castell de Bellver", "name:es": "Castillo de Bellver", "network": "City Sightseeing Palma", "operator": "Empresa Municipal de Transports de Palma", "passenger_information_display": "no", "public_transport": "platform", "ref": "unknown", "route_ref": "50", "shelter": "no", "wheelchair": "no"}}, {"type": "node", "id": 669639042, "lat": 39.5572463, "lon": 2.5961843, "tags": {"bench": "yes", "bus": "yes", "highway": "bus_stop", "name": "Cementeri", "name:ca": "Cementeri", "network": "Bus de Palma", "operator": "Empresa Municipal de Transports de Palma", "passenger_information_display": "no", "public_transport": "platform", "ref": "142", "route_ref": "46", "shelter": "no"}}, {"type": "node", "id": 669639043, "lat": 39.5864656, "lon": 2.6395991, "tags": {"bench": "no", "bin": "yes", "bus": "yes", "departures_board": "timetable", "highway": "bus_stop", "lit": "yes", "name": "Cementeri", "name:ca": "Cementeri", "network": "Bus de Palma", "operator": "Empresa Municipal de Transports de Palma", "public_transport": "platform", "ref": "759", "shelter": "no", "surface": "paving_stones", "tactile_paving": "no", "wheelchair": "limited"}}, {"type": "node", "id": 669639044, "lat": 39.5936147, "lon": 2.6433638, "tags": {"bench": "yes", "bus": "yes", "highway": "bus_stop", "name": "Centre comercial", "name:ca": "Centre comercial", "network": "Bus de Palma", "operator": "Empresa Municipal de Transports de Palma", "passenger_information_display": "no", "public_transport": "platform", "ref": "537", "route_ref": "16, 29, 33, 42", "shelter": "yes", "wheelchair": "limited"}}, {"type": "node", "id": 669639053, "lat": 39.5795557, "lon": 2.6353611, "tags": {"bus": "yes", "highway": "bus_stop", "name": "City Council - UIAP1", "public_transport": "platform"}}, {"type": "node", "id": 669639054, "lat": 39.5864356, "lon": 2.6510191, "tags": {"bus": "yes", "highway": "bus_stop", "name": "UIAP2", "public_transport": "platform"}}, {"type": "node", "id": 669639060, "lat": 39.5737899, "lon": 2.7192352, "tags": {"bus": "yes", "highway": "bus_stop", "name": "City Council - UIAP6", "public_transport": "platform"}}, {"type": "node", "id": 669639068, "lat": 39.5736012, "lon": 2.6388052, "tags": {"bench": "yes", "bin": "yes", "bus": "yes", "check_date:shelter": "2024-10-14", "departures_board": "timetable", "highway": "bus_stop", "lit": "yes", "name": "Av. Comte de Barcelona (Palma)", "network": "Transports p\u00fablics de Mallorca", "operator": "Consorci de Transports de Mallorca", "public_transport": "platform", "ref": "40033", "route_ref": "100, 105", "shelter": "yes", "surface": "paving_stones", "tactile_paving": "no"}}, {"type": "node", "id": 669639071, "lat": 39.5784597, "lon": 2.6497999, "tags": {"bench": "yes", "bin": "no", "bus": "yes", "departures_board": "realtime", "highway": "bus_stop", "lit": "yes", "name": "\u00c0rea d'intercanvi Alemanya - Comte de Sallent", "network": "Bus de Palma", "operator": "Empresa Municipal de Transports de Palma", "public_transport": "platform", "ref": "492", "shelter": "yes", "surface": "paving_stones", "tactile_paving": "no", "wheelchair": "yes"}}, {"type": "node", "id": 669639073, "lat": 39.5944858, "lon": 2.6148131, "tags": {"bench": "no", "bin": "yes", "bus": "yes", "departures_board": "timetable", "highway": "bus_stop", "lit": "yes", "name": "Concha Espina", "network": "Bus de Palma", "operator": "Empresa Municipal de Transports de Palma", "public_transport": "platform", "ref": "989", "shelter": "no", "surface": "paving_stones", "tactile_paving": "no", "wheelchair": "no"}}, {"type": "node", "id": 669639082, "lat": 39.5898907, "lon": 2.6547583, "tags": {"bus": "yes", "highway": "bus_stop", "name": "Conservatori de M\u00fasica", "name:ca": "Conservatori de M\u00fasica", "public_transport": "platform"}}, {"type": "node", "id": 669639087, "lat": 39.6128685, "lon": 2.631284, "tags": {"bench": "no", "bus": "yes", "highway": "bus_stop", "name": "Joan Mascar\u00f3 i Forn\u00e9s, 146", "network": "Bus de Palma", "operator": "Empresa Municipal de Transports de Palma", "passenger_information_display": "no", "public_transport": "platform", "ref": "507", "route_ref": "16", "shelter": "no"}}, {"type": "node", "id": 669639094, "lat": 39.612846, "lon": 2.6311727, "tags": {"bench": "no", "bus": "yes", "highway": "bus_stop", "name": "Joan Mascar\u00f3 i Forn\u00e9s, 115", "network": "Bus de Palma", "operator": "Empresa Municipal de Transports de Palma", "passenger_information_display": "no", "public_transport": "platform", "ref": "529", "route_ref": "16", "shelter": "no"}}, {"type": "node", "id": 669639096, "lat": 39.614468, "lon": 2.6304217, "tags": {"bench": "no", "bus": "yes", "highway": "bus_stop", "name": "Joan Mascar\u00f3 i Forn\u00e9s, 139", "network": "Bus de Palma", "operator": "Empresa Municipal de Transports de Palma", "passenger_information_display": "no", "public_transport": "platform", "ref": "528", "route_ref": "16", "shelter": "no"}}, {"type": "node", "id": 669639097, "lat": 39.5973866, "lon": 2.6404198, "tags": {"bench": "yes", "bus": "yes", "highway": "bus_stop", "name": "Joan Mascar\u00f3 i Forn\u00e9s, 16 (Centre hospitalari)", "network": "Bus de Palma", "operator": "Empresa Municipal de Transports de Palma", "passenger_information_display": "no", "public_transport": "platform", "ref": "535", "route_ref": "16, 29, 33, 42", "shelter": "yes"}}, {"type": "node", "id": 669639098, "lat": 39.6149347, "lon": 2.6303388, "tags": {"bench": "no", "bus": "yes", "highway": "bus_stop", "name": "Joan Mascar\u00f3 i Forn\u00e9s, 182", "network": "Bus de Palma", "operator": "Empresa Municipal de Transports de Palma", "passenger_information_display": "no", "public_transport": "platform", "ref": "508", "route_ref": "16", "shelter": "no"}}, {"type": "node", "id": 669639100, "lat": 39.5985436, "lon": 2.6391604, "tags": {"bench": "no", "bus": "yes", "highway": "bus_stop", "name": "Joan Mascar\u00f3 i Forn\u00e9s, 27", "network": "Bus de Palma", "operator": "Empresa Municipal de Transports de Palma", "passenger_information_display": "no", "public_transport": "platform", "ref": "534", "route_ref": "16", "shelter": "no"}}, {"type": "node", "id": 669639101, "lat": 39.6033693, "lon": 2.6356574, "tags": {"bench": "no", "bus": "yes", "highway": "bus_stop", "name": "Joan Mascar\u00f3 i Forn\u00e9s, 43", "network": "Bus de Palma", "operator": "Empresa Municipal de Transports de Palma", "passenger_information_display": "no", "public_transport": "platform", "ref": "533", "route_ref": "16", "shelter": "no"}}, {"type": "node", "id": 669639103, "lat": 39.6035442, "lon": 2.6356976, "tags": {"bench": "no", "bus": "yes", "highway": "bus_stop", "name": "Joan Mascar\u00f3 i Forn\u00e9s, 56", "network": "Bus de Palma", "operator": "Empresa Municipal de Transports de Palma", "passenger_information_display": "no", "public_transport": "platform", "ref": "503", "route_ref": "16", "shelter": "no"}}, {"type": "node", "id": 669639108, "lat": 39.6100275, "lon": 2.6319721, "tags": {"bench": "no", "bus": "yes", "highway": "bus_stop", "name": "Joan Mascar\u00f3 i Forn\u00e9s, 95", "network": "Bus de Palma", "operator": "Empresa Municipal de Transports de Palma", "passenger_information_display": "no", "public_transport": "platform", "ref": "530", "route_ref": "16", "shelter": "no"}}, {"type": "node", "id": 669639121, "lat": 39.541463, "lon": 2.7728089, "tags": {"bench": "no", "bus": "yes", "highway": "bus_stop", "name": "Cra. Llucmajor, 252", "network": "Bus de Palma", "operator": "Empresa Municipal de Transports de Palma", "passenger_information_display": "no", "public_transport": "platform", "ref": "282", "route_ref": "31", "shelter": "no"}}, {"type": "node", "id": 669639127, "lat": 39.5410218, "lon": 2.7705905, "tags": {"bench": "no", "bus": "yes", "highway": "bus_stop", "name": "Cra. Militar, 19", "network": "Bus de Palma", "operator": "Empresa Municipal de Transports de Palma", "passenger_information_display": "no", "public_transport": "platform", "ref": "399", "route_ref": "31", "shelter": "no"}}, {"type": "node", "id": 669639130, "lat": 39.5413037, "lon": 2.7705961, "tags": {"bench": "no", "bus": "yes", "highway": "bus_stop", "name": "Cra. Militar, 22", "network": "Bus de Palma", "operator": "Empresa Municipal de Transports de Palma", "passenger_information_display": "no", "public_transport": "platform", "ref": "300", "route_ref": "31", "shelter": "no"}}, {"type": "node", "id": 669639135, "lat": 39.5899119, "lon": 2.6491912, "tags": {"bench": "yes", "bin": "no", "bus": "yes", "check_date:shelter": "2024-10-11", "highway": "bus_stop", "lit": "no", "name": "Cra. Valldemossa", "network": "Bus de Palma", "operator": "Empresa Municipal de Transports de Palma", "passenger_information_display": "yes", "public_transport": "platform", "ref": "741", "route_ref": "12, 20, 29, 42", "shelter": "yes", "tactile_paving": "yes"}}, {"type": "node", "id": 669639137, "lat": 39.5893521, "lon": 2.6496989, "tags": {"bench": "no", "bin": "no", "bus": "yes", "check_date:shelter": "2024-10-11", "highway": "bus_stop", "lit": "no", "name": "Cra. Valldemossa, 34", "network": "Bus de Palma", "operator": "Empresa Municipal de Transports de Palma", "passenger_information_display": "no", "public_transport": "platform", "ref": "738", "route_ref": "12, 20, 29, 42", "shelter": "no", "tactile_paving": "yes"}}, {"type": "node", "id": 669639139, "lat": 39.5940776, "lon": 2.6476621, "tags": {"bench": "yes", "bus": "yes", "highway": "bus_stop", "name": "Cra. Valldemossa, 66", "network": "Bus de Palma", "operator": "Empresa Municipal de Transports de Palma", "passenger_information_display": "yes", "public_transport": "platform", "ref": "556", "route_ref": "19, 20, 29, 42", "shelter": "yes"}}, {"type": "node", "id": 669639140, "lat": 39.6165103, "lon": 2.6455792, "tags": {"bench": "no", "bin": "yes", "bus": "yes", "departures_board": "timetable", "highway": "bus_stop", "lit": "no", "name": "Can Moreno", "network": "Bus de Palma", "public_transport": "platform", "ref": "748", "shelter": "no", "surface": "paving_stones", "tactile_paving": "no"}}, {"type": "node", "id": 669639143, "lat": 39.5703188, "lon": 2.6851963, "tags": {"bench": "no", "bus": "yes", "highway": "bus_stop", "name": "Cra. Manacor", "network": "Bus de Palma", "operator": "Empresa Municipal de Transports de Palma", "passenger_information_display": "no", "public_transport": "platform", "ref": "875", "route_ref": "14", "shelter": "no"}}, {"type": "node", "id": 669639146, "lat": 39.5714154, "lon": 2.6694585, "tags": {"bench": "yes", "bin": "no", "bus": "yes", "departures_board": "realtime", "highway": "bus_stop", "lit": "yes", "name": "Manacor - la Soledat", "name:ca": "Manacor - la Soledat", "network": "Bus de Palma", "operator": "Empresa Municipal de Transports de Palma", "public_transport": "platform", "ref": "395", "shelter": "yes", "surface": "paving_stones", "tactile_paving": "no"}}, {"type": "node", "id": 669639147, "lat": 39.5712829, "lon": 2.6734819, "tags": {"bench": "no", "bus": "yes", "highway": "bus_stop", "name": "Manacor, 137", "network": "Bus de Palma", "operator": "Empresa Municipal de Transports de Palma", "passenger_information_display": "no", "public_transport": "platform", "ref": "825", "route_ref": "14, 31, 42", "shelter": "no"}}, {"type": "node", "id": 669639148, "lat": 39.5711849, "lon": 2.6729055, "tags": {"bench": "no", "bin": "no", "bus": "yes", "departures_board": "timetable", "highway": "bus_stop", "lit": "yes", "name": "Manacor - Can Blau", "network": "Bus de Palma", "operator": "Empresa Municipal de Transports de Palma", "public_transport": "platform", "ref": "415", "shelter": "no", "surface": "paving_stones", "tactile_paving": "no"}}, {"type": "node", "id": 669639149, "lat": 39.5712961, "lon": 2.6586576, "tags": {"bench": "no", "bin": "yes", "bus": "yes", "departures_board": "timetable", "highway": "bus_stop", "lit": "yes", "name": "Manacor - Foners", "name:ca": "Manacor - Foners", "network": "Bus de Palma", "operator": "Empresa Municipal de Transports de Palma", "public_transport": "platform", "ref": "406", "shelter": "no", "surface": "concrete", "tactile_paving": "no"}}, {"type": "node", "id": 669639154, "lat": 39.5712719, "lon": 2.7199845, "tags": {"bench": "no", "bus": "yes", "highway": "bus_stop", "name": "Manacor, 303", "network": "Bus de Palma", "operator": "Empresa Municipal de Transports de Palma", "passenger_information_display": "no", "public_transport": "platform", "ref": "793", "route_ref": "14", "shelter": "no"}}, {"type": "node", "id": 669639155, "lat": 39.5713816, "lon": 2.7198856, "tags": {"bench": "no", "bus": "yes", "highway": "bus_stop", "name": "Manacor, 385", "network": "Bus de Palma", "operator": "Empresa Municipal de Transports de Palma", "passenger_information_display": "no", "public_transport": "platform", "ref": "794", "route_ref": "14", "shelter": "no"}}, {"type": "node", "id": 669639157, "lat": 39.5712537, "lon": 2.7382483, "tags": {"bench": "no", "bus": "yes", "highway": "bus_stop", "name": "Cra. Manacor", "network": "Bus de Palma", "operator": "Empresa Municipal de Transports de Palma", "passenger_information_display": "no", "public_transport": "platform", "ref": "563", "route_ref": "14", "shelter": "no"}}, {"type": "node", "id": 669639158, "lat": 39.5691948, "lon": 2.7489221, "tags": {"bus": "yes", "highway": "bus_stop", "name": "Ctra. Manacor Km 7,8", "public_transport": "platform"}}, {"type": "node", "id": 669639159, "lat": 39.5692966, "lon": 2.749058, "tags": {"bus": "yes", "highway": "bus_stop", "name": "Ctra. Manacor Km 8", "public_transport": "platform"}}, {"type": "node", "id": 669639164, "lat": 39.6169379, "lon": 2.6462582, "tags": {"bench": "no", "bus": "yes", "highway": "bus_stop", "name": "Rotonda de Can Moreno", "name:ca": "Rotonda de Can Moreno", "network": "Bus de Palma", "operator": "Empresa Municipal de Transports de Palma", "passenger_information_display": "no", "public_transport": "platform", "ref": "567", "route_ref": "19", "shelter": "no"}}, {"type": "node", "id": 669639169, "lat": 39.5496588, "lon": 2.6186669, "tags": {"bench": "no", "bin": "no", "bus": "yes", "departures_board": "timetable", "highway": "bus_stop", "lit": "yes", "name": "Dic de l'Oest, 2", "name:ca": "Dic de l'Oest, 2", "network": "Bus de Palma", "operator": "Empresa Municipal de Transports de Palma", "public_transport": "platform", "ref": "16", "shelter": "no", "surface": "paving_stones", "tactile_paving": "no", "wheelchair": "yes"}}, {"type": "node", "id": 669639175, "lat": 39.5786625, "lon": 2.6282935, "tags": {"bench": "no", "bin": "no", "bus": "yes", "departures_board": "timetable", "highway": "bus_stop", "lit": "yes", "name": "Dragonera - Cl\u00ednica Juaneda", "name:ca": "Dragonera - Cl\u00ednica Juaneda", "network": "Bus de Palma", "operator": "Empresa Municipal de Transports de Palma", "public_transport": "platform", "ref": "243", "shelter": "no", "surface": "paving_stones", "tactile_paving": "no", "wheelchair": "yes"}}, {"type": "node", "id": 669639179, "lat": 39.6374532, "lon": 2.6445978, "tags": {"bench": "yes", "bin": "no", "bus": "yes", "check_date:shelter": "2023-06-23", "highway": "bus_stop", "lit": "yes", "name": "Ed. Anselm Turmeda", "network": "Bus de Palma", "operator": "Empresa Municipal de Transports de Palma", "passenger_information_display": "yes", "public_transport": "platform", "ref": "1013", "route_ref": "19", "shelter": "yes", "tactile_paving": "no", "wheelchair": "yes"}}, {"type": "node", "id": 669639180, "lat": 39.6377117, "lon": 2.6452881, "tags": {"bench": "yes", "bin": "no", "bus": "yes", "highway": "bus_stop", "lit": "yes", "name": "UIB - Edifici Beatriu de Pin\u00f3s", "network": "Bus de Palma", "operator": "Empresa Municipal de Transports de Palma", "passenger_information_display": "no", "public_transport": "platform", "ref": "571", "route_ref": "19, 200, 210", "shelter": "yes", "tactile_paving": "no", "wheelchair": "yes"}}, {"type": "node", "id": 669639183, "lat": 39.5793694, "lon": 2.6638356, "tags": {"bench": "yes", "bin": "yes", "bus": "yes", "departures_board": "timetable", "highway": "bus_stop", "lit": "yes", "name": "Arag\u00f3 - els Hostalets", "name:ca": "Arag\u00f3 - els Hostalets", "network": "Bus de Palma", "operator": "Empresa Municipal de Transports de Palma", "public_transport": "platform", "ref": "45", "shelter": "yes", "surface": "paving_stones", "tactile_paving": "no"}}, {"type": "node", "id": 669639186, "lat": 39.5607035, "lon": 2.7116242, "tags": {"bus": "yes", "highway": "bus_stop", "name": "EMT Palma Cotxeres", "public_transport": "platform", "wheelchair": "limited"}}, {"type": "node", "id": 669639187, "lat": 39.5514893, "lon": 2.6965343, "tags": {"bench": "no", "bus": "yes", "highway": "bus_stop", "name": "Cardenal Rossell, 65 (Coll d'en Rabassa)", "network": "Bus de Palma", "operator": "Empresa Municipal de Transports de Palma", "passenger_information_display": "no", "public_transport": "platform", "ref": "440", "route_ref": "15, 18, 28, 30", "shelter": "no"}}, {"type": "node", "id": 669639188, "lat": 39.5512409, "lon": 2.6973059, "tags": {"bench": "no", "bus": "yes", "highway": "bus_stop", "name": "Cardenal Rosell, 90 (Coll d'en Rabassa)", "network": "Bus de Palma", "operator": "Empresa Municipal de Transports de Palma", "passenger_information_display": "no", "public_transport": "platform", "ref": "469", "route_ref": "15, 18, 28, 30", "shelter": "no"}}, {"type": "node", "id": 669639192, "lat": 39.6370204, "lon": 2.6160408, "tags": {"bench": "yes", "bus": "yes", "highway": "bus_stop", "name": "Es Muntant", "name:ca": "Es Muntant", "network": "Bus de Palma", "operator": "Empresa Municipal de Transports de Palma", "passenger_information_display": "no", "public_transport": "platform", "ref": "518", "route_ref": "16", "shelter": "yes"}}, {"type": "node", "id": 669639196, "lat": 39.5617964, "lon": 2.6706467, "tags": {"bench": "no", "bus": "yes", "highway": "bus_stop", "name": "Es Portitxol", "network": "Bus de Palma", "operator": "Empresa Municipal de Transports de Palma", "passenger_information_display": "no", "public_transport": "platform", "ref": "462", "route_ref": "15, 18, 28, 30", "shelter": "no", "tactile_paving": "no"}}, {"type": "node", "id": 669639198, "lat": 39.5799591, "lon": 2.6758916, "tags": {"bench": "yes", "bin": "yes", "bus": "yes", "departures_board": "timetable", "highway": "bus_stop", "lit": "yes", "name": "Poliesportiu Germans Escalas", "network": "Bus de Palma", "operator": "Empresa Municipal de Transports de Palma", "public_transport": "platform", "ref": "188", "shelter": "yes", "surface": "paving_stones", "tactile_paving": "no"}}, {"type": "node", "id": 669639200, "lat": 39.5695152, "lon": 2.6569082, "tags": {"bench": "yes", "bin": "yes", "bus": "yes", "departures_board": "timetable", "highway": "bus_stop", "lit": "no", "name": "Escola Graduada", "name:ca": "Escola Graduada", "name:es": "Escuela Graduada", "network": "Bus de Palma", "operator": "Empresa Municipal de Transports de Palma", "public_transport": "platform", "ref": "457", "shelter": "yes", "surface": "paving_stones", "tactile_paving": "no", "wheelchair": "yes"}}, {"type": "node", "id": 669639202, "lat": 39.5455863, "lon": 2.6224912, "tags": {"bench": "no", "bin": "no", "bus": "yes", "departures_board": "timetable", "highway": "bus_stop", "lit": "yes", "name": "Escola de N\u00e0utica", "name:ca": "Escola de N\u00e0utica", "network": "Bus de Palma", "operator": "EMT Palma", "public_transport": "platform", "ref": "18", "shelter": "no", "surface": "paving_stones", "tactile_paving": "no"}}, {"type": "node", "id": 669639204, "lat": 39.5685057, "lon": 2.6524359, "tags": {"bus": "yes", "highway": "bus_stop", "name": "Esgl\u00e9sia de Sant Francesc", "name:ca": "Esgl\u00e9sia de Sant Francesc", "public_transport": "platform"}}, {"type": "node", "id": 669639210, "lat": 39.5724486, "lon": 2.7146421, "tags": {"bench": "no", "bus": "yes", "highway": "bus_stop", "name": "carrer Margalida Monlau, 10B", "name:ca": "carrer Margalida Monlau, 10B", "network": "Bus de Palma", "operator": "Empresa Municipal de Transports de Palma", "passenger_information_display": "no", "public_transport": "platform", "ref": "815", "route_ref": "14", "shelter": "no"}}, {"type": "node", "id": 669639212, "lat": 39.6228412, "lon": 2.6255106, "tags": {"bench": "no", "bus": "yes", "highway": "bus_stop", "name": "Cra. Esporles, s/n", "network": "Bus de Palma", "operator": "Empresa Municipal de Transports de Palma", "passenger_information_display": "no", "public_transport": "platform", "ref": "512", "route_ref": "16", "shelter": "no"}}, {"type": "node", "id": 669639213, "lat": 39.6228276, "lon": 2.625398, "tags": {"bench": "no", "bus": "yes", "highway": "bus_stop", "name": "Cra. Esporles, 105", "network": "Bus de Palma", "operator": "Empresa Municipal de Transports de Palma", "passenger_information_display": "no", "public_transport": "platform", "ref": "524", "route_ref": "16", "shelter": "no"}}, {"type": "node", "id": 669639214, "lat": 39.630249, "lon": 2.6189749, "tags": {"bench": "no", "bus": "yes", "highway": "bus_stop", "name": "Cra. Esporles, 178", "network": "Bus de Palma", "operator": "Empresa Municipal de Transports de Palma", "passenger_information_display": "no", "public_transport": "platform", "ref": "515", "route_ref": "16", "shelter": "no"}}, {"type": "node", "id": 669639215, "lat": 39.6317215, "lon": 2.6177659, "tags": {"bench": "no", "bus": "yes", "highway": "bus_stop", "name": "Cra. Esporles, 186", "network": "Bus de Palma", "operator": "Empresa Municipal de Transports de Palma", "passenger_information_display": "no", "public_transport": "platform", "ref": "516", "route_ref": "16", "shelter": "no"}}, {"type": "node", "id": 669639217, "lat": 39.631837, "lon": 2.6175276, "tags": {"bench": "no", "bus": "yes", "highway": "bus_stop", "name": "Cra. Esporles, 203", "network": "Bus de Palma", "operator": "Empresa Municipal de Transports de Palma", "passenger_information_display": "no", "public_transport": "platform", "ref": "520", "route_ref": "16", "shelter": "no"}}, {"type": "node", "id": 669639218, "lat": 39.6355559, "lon": 2.6161305, "tags": {"bench": "no", "bus": "yes", "highway": "bus_stop", "name": "Cra. Esporles, 206", "network": "Bus de Palma", "operator": "Empresa Municipal de Transports de Palma", "passenger_information_display": "no", "public_transport": "platform", "ref": "517", "route_ref": "16", "shelter": "no"}}, {"type": "node", "id": 669639220, "lat": 39.6350592, "lon": 2.6161846, "tags": {"bench": "no", "bus": "yes", "highway": "bus_stop", "name": "Cra. Esporles, 221", "network": "Bus de Palma", "operator": "Empresa Municipal de Transports de Palma", "passenger_information_display": "no", "public_transport": "platform", "ref": "519", "route_ref": "16", "shelter": "no"}}, {"type": "node", "id": 669639222, "lat": 39.6178049, "lon": 2.6280641, "tags": {"bench": "yes", "bus": "yes", "highway": "bus_stop", "name": "Cra. Esporles, 25", "network": "Bus de Palma", "operator": "Empresa Municipal de Transports de Palma", "passenger_information_display": "no", "public_transport": "platform", "ref": "527", "route_ref": "16", "shelter": "yes"}}, {"type": "node", "id": 669639223, "lat": 39.6174199, "lon": 2.6285925, "tags": {"bench": "no", "bus": "yes", "highway": "bus_stop", "name": "Cra. Esporles, 26", "network": "Bus de Palma", "operator": "Empresa Municipal de Transports de Palma", "passenger_information_display": "no", "public_transport": "platform", "ref": "509", "route_ref": "16", "shelter": "no"}}, {"type": "node", "id": 669639226, "lat": 39.6194288, "lon": 2.6270394, "tags": {"bench": "no", "bus": "yes", "highway": "bus_stop", "name": "Cra. Esporles, 43", "network": "Bus de Palma", "operator": "Empresa Municipal de Transports de Palma", "passenger_information_display": "no", "public_transport": "platform", "ref": "526", "route_ref": "16", "shelter": "no"}}, {"type": "node", "id": 669639227, "lat": 39.6195901, "lon": 2.627107, "tags": {"bench": "no", "bus": "yes", "highway": "bus_stop", "name": "Cra. Esporles, 52", "network": "Bus de Palma", "operator": "Empresa Municipal de Transports de Palma", "passenger_information_display": "no", "public_transport": "platform", "ref": "510", "route_ref": "16", "shelter": "no"}}, {"type": "node", "id": 669639228, "lat": 39.6209859, "lon": 2.6265272, "tags": {"bench": "no", "bus": "yes", "highway": "bus_stop", "name": "Cra. Esporles, 76", "network": "Bus de Palma", "operator": "Empresa Municipal de Transports de Palma", "passenger_information_display": "no", "public_transport": "platform", "ref": "511", "route_ref": "16", "shelter": "no"}}, {"type": "node", "id": 669639230, "lat": 39.6280504, "lon": 2.6211425, "tags": {"bus": "yes", "highway": "bus_stop", "name": "Establiments", "name:ca": "Establiments", "public_transport": "platform"}}, {"type": "node", "id": 669639234, "lat": 39.5768227, "lon": 2.6541438, "tags": {"bench": "yes", "bin": "yes", "bus": "yes", "departures_board": "timetable", "highway": "bus_stop", "level": "0", "lit": "yes", "name": "pl. d'Espanya - Estaci\u00f3 Intermodal", "name:ca": "pl. d'Espanya - Estaci\u00f3 Intermodal", "network": "Bus de Palma", "operator": "EMT Palma", "public_transport": "platform", "ref": "559", "shelter": "no", "surface": "paving_stones", "tactile_paving": "no", "wheelchair": "limited"}}, {"type": "node", "id": 669639235, "lat": 39.5847698, "lon": 2.6624923, "tags": {"bench": "yes", "bin": "yes", "bus": "yes", "covered": "no", "departures_board": "timetable", "highway": "bus_stop", "lit": "yes", "name": "Parc de Son Costa", "name:ca": "Parc de Son Costa", "network": "Bus de Palma", "operator": "Empresa Municipal de Transports de Palma", "public_transport": "platform", "ref": "323", "shelter": "no", "surface": "paving_stones", "tactile_paving": "no"}}, {"type": "node", "id": 669639237, "lat": 39.579768, "lon": 2.6584364, "tags": {"bench": "no", "bin": "no", "bus": "yes", "departures_board": "timetable", "highway": "bus_stop", "lit": "yes", "name": "Eusebi Estada - Pont des Tren", "name:ca": "Eusebi Estada - Pont des Tren", "network": "Bus de Palma", "operator": "Empresa Municipal de Transports de Palma", "public_transport": "platform", "ref": "296", "shelter": "no", "surface": "paving_stones", "tactile_paving": "no"}}, {"type": "node", "id": 669639238, "lat": 39.579216, "lon": 2.6575739, "tags": {"bench": "no", "bin": "no", "bus": "yes", "departures_board": "timetable", "highway": "bus_stop", "lit": "yes", "name": "Eusebi Estada - Pont des Tren", "name:ca": "Eusebi Estada - Pont des Tren", "operator": "Empresa Municipal de Transports de Palma", "public_transport": "platform", "ref": "325", "shelter": "no", "surface": "paving_stones", "tactile_paving": "no"}}, {"type": "node", "id": 669639239, "lat": 39.5828071, "lon": 2.6611777, "tags": {"bench": "yes", "bin": "yes", "bus": "yes", "covered": "yes", "departures_board": "timetable", "highway": "bus_stop", "lit": "yes", "name": "Eusebi Estada - Coliseu", "name:ca": "Eusebi Estada - Coliseu", "network": "Bus de Palma", "operator": "Empresa Municipal de Transports de Palma", "public_transport": "platform", "ref": "297", "shelter": "yes", "surface": "concrete", "tactile_paving": "no"}}, {"type": "node", "id": 669639240, "lat": 39.5847906, "lon": 2.6626664, "tags": {"bench": "yes", "bin": "no", "bus": "yes", "covered": "no", "departures_board": "timetable", "highway": "bus_stop", "lit": "yes", "name": "Parc de Son Costa", "name:ca": "Parc de Son Costa", "network": "Bus de Palma", "operator": "Empresa Municipal de Transports de Palma", "public_transport": "platform", "ref": "298", "shelter": "no", "surface": "concrete", "tactile_paving": "no"}}, {"type": "node", "id": 669639242, "lat": 39.5829329, "lon": 2.6611397, "tags": {"bench": "yes", "bin": "no", "bus": "yes", "covered": "no", "departures_board": "timetable", "highway": "bus_stop", "lit": "yes", "name": "Eusebi Estada - Coliseu", "name:ca": "Eusebi Estada - Coliseu", "network": "Bus de Palma", "operator": "Empresa Municipal de Transports de Palma", "public_transport": "platform", "ref": "324", "shelter": "no", "surface": "concrete", "tactile_paving": "no"}}, {"type": "node", "id": 669639247, "lat": 39.5743652, "lon": 2.6636884, "tags": {"bench": "yes", "bin": "yes", "bus": "yes", "departures_board": "timetable", "highway": "bus_stop", "lit": "yes", "name": "Mercat de Pere Garau", "network": "Bus de Palma", "operator": "Empresa Municipal de Transports de Palma", "public_transport": "platform", "ref": "209", "shelter": "no", "surface": "paving_stones", "tactile_paving": "no"}}, {"type": "node", "id": 669639248, "lat": 39.5743776, "lon": 2.6634054, "tags": {"bench": "yes", "bin": "yes", "bus": "yes", "departures_board": "timetable", "highway": "bus_stop", "lit": "yes", "name": "Mercat de Pere Garau", "network": "Bus de Palma", "operator": "Empresa Municipal de Transport de Palma", "public_transport": "platform", "ref": "193", "shelter": "yes", "surface": "paving_stones", "tactile_paving": "no"}}, {"type": "node", "id": 669639249, "lat": 39.5943057, "lon": 2.6121443, "tags": {"bench": "no", "bin": "yes", "bus": "yes", "highway": "bus_stop", "lit": "yes", "name": "Florencia", "network": "Bus de Palma", "operator": "Empresa Municipal de Transports de Palma", "public_transport": "platform", "ref": "489", "shelter": "no", "surface": "paving_stones", "tactile_paving": "no", "wheelchair": "no"}}, {"type": "node", "id": 669639259, "lat": 39.5816464, "lon": 2.6382879, "tags": {"bench": "no", "bin": "no", "bus": "yes", "departures_board": "timetable", "highway": "bus_stop", "lit": "yes", "name": "Francesc Mart\u00ed i Mora- Centre de Salut de Son Pisa", "network": "Bus de Palma", "operator": "Empresa Municipal de Transports de Palma", "public_transport": "platform", "ref": "330", "shelter": "no", "surface": "paving_stones", "tactile_paving": "no"}}, {"type": "node", "id": 669639264, "lat": 39.5840505, "lon": 2.6362709, "tags": {"bench": "no", "bin": "yes", "bus": "yes", "departures_board": "timetable", "highway": "bus_stop", "lit": "yes", "name": "Francesc Mart\u00ed i Mora - Son Cotoner", "network": "Bus de Palma", "operator": "Empresa Municipal de Transports de Palma", "public_transport": "platform", "ref": "331", "shelter": "no", "surface": "paving_stones", "tactile_paving": "no"}}, {"type": "node", "id": 669639266, "lat": 39.5722503, "lon": 2.666266, "tags": {"bench": "no", "bus": "yes", "highway": "bus_stop", "name": "Pi i Margall, 12", "network": "Bus de Palma", "operator": "Empresa Municipal de Transports de Palma", "passenger_information_display": "no", "public_transport": "platform", "ref": "586", "route_ref": "L\u00ednies 28, 29", "shelter": "no", "tactile_paving": "no"}}, {"type": "node", "id": 669639267, "lat": 39.5835337, "lon": 2.6518008, "tags": {"bench": "yes", "bin": "yes", "bus": "yes", "check_date:shelter": "2023-07-31", "highway": "bus_stop", "lit": "no", "name": "Francesc Suau, 9", "network": "Bus de Palma", "operator": "Empresa Municipal de Transports de Palma", "passenger_information_display": "no", "public_transport": "platform", "ref": "387", "route_ref": "12, 20, 42", "shelter": "yes", "tactile_paving": "no"}}, {"type": "node", "id": 669639268, "lat": 39.5580015, "lon": 2.6195835, "tags": {"bench": "no", "bus": "yes", "highway": "bus_stop", "name": "Francesc Vidal i Sureda", "network": "Bus de Palma", "not_served_by": "50", "operator": "Empresa Municipal de Transports de Palma", "passenger_information_display": "no", "public_transport": "platform", "ref": "166", "route_ref": "46", "shelter": "no"}}, {"type": "node", "id": 669639270, "lat": 39.5568477, "lon": 2.6206975, "tags": {"bench": "no", "bus": "yes", "highway": "bus_stop", "name": "Francesc Vidal i Sureda, 11", "network": "Bus de Palma", "operator": "Empresa Municipal de Transports de Palma", "passenger_information_display": "no", "public_transport": "platform", "ref": "176", "route_ref": "46", "shelter": "no"}}, {"type": "node", "id": 669639272, "lat": 39.5577617, "lon": 2.6217708, "tags": {"bench": "no", "bus": "yes", "highway": "bus_stop", "name": "Francesc Vidal i Sureda, 2", "network": "Bus de Palma", "not_served_by": "50", "operator": "Empresa Municipal de Transports de Palma", "passenger_information_display": "no", "public_transport": "platform", "ref": "157", "route_ref": "46", "shelter": "no"}}, {"type": "node", "id": 669639273, "lat": 39.5555924, "lon": 2.6206734, "tags": {"bench": "yes", "bus": "yes", "highway": "bus_stop", "name": "Francesc Vidal i Sureda, 21 (Hotel Valpara\u00edso)", "network": "Bus de Palma", "operator": "Empresa Municipal de Transports de Palma", "passenger_information_display": "no", "public_transport": "platform", "ref": "175", "route_ref": "46", "shelter": "no"}}, {"type": "node", "id": 669639275, "lat": 39.5576272, "lon": 2.6220123, "tags": {"bench": "no", "bus": "yes", "highway": "bus_stop", "name": "Francesc Vidal i Sureda, 3", "network": "Bus de Palma", "operator": "Empresa Municipal de Transports de Palma", "passenger_information_display": "no", "public_transport": "platform", "ref": "177", "route_ref": "46", "shelter": "no"}}, {"type": "node", "id": 669639276, "lat": 39.5560577, "lon": 2.6184985, "tags": {"bench": "no", "bus": "yes", "highway": "bus_stop", "name": "Francesc Vidal i Sureda, 34", "network": "Bus de Palma", "not_served_by": "50", "operator": "Empresa Municipal de Transports de Palma", "passenger_information_display": "no", "public_transport": "platform", "ref": "160", "route_ref": "46", "shelter": "no"}}, {"type": "node", "id": 669639277, "lat": 39.5577597, "lon": 2.6163501, "tags": {"bench": "no", "bus": "yes", "highway": "bus_stop", "name": "Francesc Vidal i Sureda, 38", "network": "Bus de Palma", "not_served_by": "50", "operator": "Empresa Municipal de Transports de Palma", "passenger_information_display": "no", "public_transport": "platform", "ref": "161", "route_ref": "46", "shelter": "no"}}, {"type": "node", "id": 669639279, "lat": 39.5559296, "lon": 2.6184096, "tags": {"bench": "no", "bus": "yes", "highway": "bus_stop", "name": "Francesc Vidal i Sureda, 41", "network": "Bus de Palma", "operator": "Empresa Municipal de Transports de Palma", "passenger_information_display": "no", "public_transport": "platform", "ref": "174", "route_ref": "46", "shelter": "no"}},