{"version": 0.6, "generator": "Overpass API 0.7.62.5 1bd436f1", "osm3s": {"timestamp_osm_base": "2025-04-09T14:44:30Z", "copyright": "The data included in this document is from www.openstreetmap.org. The data is made available under ODbL."}, "elements": [{"type": "node", "id": 56147503, "lat": 48.0240712, "lon": 0.1763838, "tags": {"bench": "yes", "bus": "yes", "highway": "bus_stop", "name": "Zone Industrielle Nord", "public_transport": "platform", "ref": "ZIN 3", "shelter": "yes", "tactile_paving": "no", "timeo": "751", "wheelchair": "no"}}, {"type": "node", "id": 269444864, "lat": 47.8244661, "lon": 0.2689994, "tags": {"amenity": "vending_machine", "currency:EUR": "yes", "name": "\u00c9commoy", "official_name": "Ecommoy", "operator": "SNCF", "payment:coins": "yes", "payment:credit_cards": "yes", "public_transport": "stop_position", "railway": "station", "train": "yes", "uic_ref": "8739656", "vending": "public_transport_tickets", "wheelchair": "yes", "wikidata": "Q3095866", "wikipedia": "fr:Gare d'\u00c9commoy"}}, {"type": "node", "id": 312120853, "lat": 48.0122258, "lon": 0.1353467, "tags": {"bench": "yes", "bin": "yes", "bus": "yes", "highway": "bus_stop", "name": "Tourellerie", "public_transport": "platform", "ref": "TOURELL2", "shelter": "yes", "tactile_paving": "yes", "timeo": "719", "wheelchair": "yes"}}, {"type": "node", "id": 313033812, "lat": 48.0138973, "lon": 0.1348004, "tags": {"bench": "yes", "bin": "yes", "bus": "yes", "highway": "bus_stop", "name": "Beauvoir", "public_transport": "platform", "ref": "BEAUVOI2", "shelter": "yes", "tactile_paving": "no", "timeo": "67", "wheelchair": "no"}}, {"type": "node", "id": 313033814, "lat": 48.0170675, "lon": 0.1507932, "tags": {"bench": "no", "bus": "yes", "highway": "bus_stop", "name": "Universit\u00e9", "public_transport": "platform", "ref": "UNIVERS2", "shelter": "no", "tactile_paving": "no", "timeo": "720", "wheelchair": "no"}}, {"type": "node", "id": 313033846, "lat": 48.0151505, "lon": 0.147093, "tags": {"bench": "yes", "bin": "no", "bus": "yes", "check_date:shelter": "2023-01-17", "highway": "bus_stop", "name": "Oseraie", "public_transport": "platform", "ref": "OSERAIE2", "shelter": "no", "tactile_paving": "yes", "timeo": "438", "wheelchair": "yes"}}, {"type": "node", "id": 313125316, "lat": 48.0153361, "lon": 0.1469271, "tags": {"bench": "no", "bus": "yes", "check_date:shelter": "2023-02-27", "highway": "bus_stop", "name": "Oseraie", "public_transport": "platform", "ref": "OSERAIE1", "shelter": "no", "tactile_paving": "yes", "timeo": "437", "wheelchair": "yes"}}, {"type": "node", "id": 313317892, "lat": 48.0087925, "lon": 0.1360344, "tags": {"bench": "yes", "bin": "yes", "bus": "yes", "highway": "bus_stop", "name": "Primev\u00e8re", "public_transport": "platform", "ref": "PRIMEVE2", "shelter": "yes", "tactile_paving": "no", "timeo": "593", "wheelchair": "limited"}}, {"type": "node", "id": 442927896, "lat": 47.9652796, "lon": 0.202268, "tags": {"bench": "yes", "bus": "yes", "highway": "bus_stop", "name": "Jules V\u00e9drines", "public_transport": "platform", "shelter": "yes", "tactile_paving": "yes", "timeo": "380", "wheelchair": "yes"}}, {"type": "node", "id": 442927897, "lat": 47.9607676, "lon": 0.2004644, "tags": {"bench": "yes", "bin": "yes", "bus": "yes", "highway": "bus_stop", "lit": "yes", "name": "Oasis - Centre des Expositions", "public_transport": "platform", "shelter": "yes", "tactile_paving": "yes", "timeo": "518", "wheelchair": "yes"}}, {"type": "node", "id": 442927898, "lat": 47.9673778, "lon": 0.2032587, "tags": {"bench": "yes", "bus": "yes", "highway": "bus_stop", "name": "Lazare Weiller", "public_transport": "platform", "shelter": "yes", "tactile_paving": "yes", "timeo": "440", "wheelchair": "yes"}}, {"type": "node", "id": 442927899, "lat": 47.969389, "lon": 0.2042281, "tags": {"bench": "yes", "bus": "yes", "highway": "bus_stop", "name": "Ch\u00e2teau d'Eau", "public_transport": "platform", "shelter": "yes", "tactile_paving": "yes", "timeo": "165", "wheelchair": "yes"}}, {"type": "node", "id": 442927900, "lat": 47.9711082, "lon": 0.2050096, "tags": {"bench": "yes", "bus": "yes", "highway": "bus_stop", "name": "Maroc", "public_transport": "platform", "ref": "SETRAM", "shelter": "yes", "tactile_paving": "yes", "timeo": "463", "wheelchair": "yes"}}, {"type": "node", "id": 442956309, "lat": 47.9738844, "lon": 0.2063509, "tags": {"bench": "yes", "bus": "yes", "highway": "bus_stop", "name": "Ronceray", "public_transport": "platform", "shelter": "yes", "timeo": "631"}}, {"type": "node", "id": 442956310, "lat": 47.9758544, "lon": 0.2072469, "tags": {"bench": "yes", "bin": "yes", "bus": "yes", "highway": "bus_stop", "name": "Cit\u00e9 Joly", "public_transport": "platform", "shelter": "yes", "tactile_paving": "yes", "timeo": "183", "wheelchair": "yes"}}, {"type": "node", "id": 442956312, "lat": 47.9801454, "lon": 0.209269, "tags": {"bench": "yes", "bin": "yes", "bus": "yes", "highway": "bus_stop", "name": "Sapins", "public_transport": "platform", "shelter": "yes", "tactile_paving": "yes", "timeo": "665", "wheelchair": "yes"}}, {"type": "node", "id": 442956313, "lat": 47.9826069, "lon": 0.2104628, "tags": {"bench": "yes", "bin": "yes", "bus": "yes", "highway": "bus_stop", "lit": "no", "name": "Pontlieue Geneslay", "public_transport": "platform", "ref": "PONTLIE4", "shelter": "yes", "tactile_paving": "yes", "timeo": "581", "wheelchair": "yes"}}, {"type": "node", "id": 442956314, "lat": 47.9929726, "lon": 0.2042353, "tags": {"bench": "yes", "bin": "no", "bus": "yes", "highway": "bus_stop", "lit": "no", "name": "Viaducs", "public_transport": "platform", "ref": "VIADUCS1", "shelter": "yes", "tactile_paving": "yes", "timeo": "735", "wheelchair": "yes"}}, {"type": "node", "id": 442956315, "lat": 47.995958, "lon": 0.2031834, "tags": {"bench": "yes", "bus": "yes", "highway": "bus_stop", "name": "Washington", "public_transport": "platform", "ref": "WASHING2", "shelter": "yes", "tactile_paving": "no", "timeo": "743", "wheelchair": "limited"}}, {"type": "node", "id": 442956317, "lat": 47.9984978, "lon": 0.2030861, "tags": {"bench": "yes", "bus": "yes", "highway": "bus_stop", "name": "Chanzy", "public_transport": "platform", "ref": "CHANZY2", "shelter": "no", "tactile_paving": "no", "timeo": "156", "wheelchair": "limited"}}, {"type": "node", "id": 442956318, "lat": 48.0011662, "lon": 0.202696, "tags": {"bench": "yes", "bus": "yes", "highway": "bus_stop", "name": "Ifs", "public_transport": "platform", "ref": "IFS 2", "shelter": "no", "tactile_paving": "no", "timeo": "361", "wheelchair": "limited"}}, {"type": "node", "id": 443693631, "lat": 48.0027438, "lon": 0.200191, "tags": {"bench": "no", "bus": "yes", "highway": "bus_stop", "name": "Berthelot", "public_transport": "platform", "ref": "BERTHEL2", "shelter": "no", "tactile_paving": "yes", "timeo": "82", "wheelchair": "yes"}}, {"type": "node", "id": 443693632, "lat": 48.0014698, "lon": 0.1974612, "tags": {"bench": "no", "bin": "yes", "bus": "yes", "highway": "bus_stop", "lit": "no", "name": "Pr\u00e9fecture", "public_transport": "platform", "ref": "PREFECT1", "shelter": "no", "tactile_paving": "yes", "timeo": "590", "wheelchair": "yes"}}, {"type": "node", "id": 443693633, "lat": 47.9990762, "lon": 0.1998825, "tags": {"bench": "no", "bus": "yes", "highway": "bus_stop", "name": "Victor Hugo", "public_transport": "platform", "ref": "HUGO1", "shelter": "no", "tactile_paving": "no", "timeo": "737", "wheelchair": "yes"}}, {"type": "node", "id": 443693636, "lat": 47.997936, "lon": 0.2006115, "tags": {"bench": "no", "bus": "yes", "highway": "bus_stop", "name": "La Fuie", "public_transport": "platform", "ref": "FUIE1", "shelter": "no", "tactile_paving": "yes", "timeo": "387", "wheelchair": "yes"}}, {"type": "node", "id": 443693637, "lat": 47.9956028, "lon": 0.2023143, "tags": {"bench": "yes", "bin": "yes", "bus": "yes", "highway": "bus_stop", "lit": "no", "name": "Washington", "public_transport": "platform", "ref": "WASHING1", "shelter": "yes", "tactile_paving": "no", "timeo": "742", "wheelchair": "limited"}}, {"type": "node", "id": 443693640, "lat": 48.0046488, "lon": 0.1997178, "tags": {"bench": "yes", "bin": "yes", "bus": "yes", "highway": "bus_stop", "lit": "yes", "name": "Comtes du Maine - Office de Tourisme", "public_transport": "platform", "ref": "COM M1", "shelter": "yes", "tactile_paving": "yes", "timeo": "204", "wheelchair": "yes"}}, {"type": "node", "id": 443693643, "lat": 48.0068145, "lon": 0.1996166, "tags": {"bench": "yes", "bin": "yes", "bus": "yes", "highway": "bus_stop", "lit": "no", "name": "Mend\u00e8s France", "public_transport": "platform", "ref": "MENDES1", "shelter": "no", "tactile_paving": "yes", "timeo": "474", "wheelchair": "yes"}}, {"type": "node", "id": 443693646, "lat": 48.0092452, "lon": 0.2002683, "tags": {"bench": "no", "bin": "yes", "bus": "yes", "highway": "bus_stop", "name": "Jacobins", "public_transport": "platform", "ref": "JACOBIN1", "shelter": "no", "tactile_paving": "yes", "timeo": "362", "wheelchair": "yes"}}, {"type": "node", "id": 443693654, "lat": 48.0173542, "lon": 0.2178516, "tags": {"bench": "no", "bus": "yes", "highway": "bus_stop", "name": "Zamenhof", "official_status": "unofficial", "public_transport": "stop_position", "tactile_paving": "yes", "timeo": "745", "wheelchair": "no"}}, {"type": "node", "id": 443693655, "lat": 48.0193525, "lon": 0.2161393, "tags": {"bus": "yes", "highway": "bus_stop", "name": "Colette", "public_transport": "platform", "shelter": "yes", "timeo": "192"}}, {"type": "node", "id": 443693656, "lat": 48.0199684, "lon": 0.2138275, "tags": {"bus": "yes", "highway": "bus_stop", "name": "Sacha Guitry", "public_transport": "platform", "timeo": "674"}}, {"type": "node", "id": 443886402, "lat": 48.0270798, "lon": 0.1824574, "tags": {"bench": "yes", "bin": "yes", "bus": "yes", "highway": "bus_stop", "name": "Galli\u00e8re", "public_transport": "platform", "ref": "GALL", "shelter": "yes", "tactile_paving": "no", "timeo": "309", "wheelchair": "limited"}}, {"type": "node", "id": 444323831, "lat": 48.0054145, "lon": 0.2269336, "tags": {"bus": "yes", "highway": "bus_stop", "name": "Gazonfier", "public_transport": "platform", "shelter": "yes", "timeo": "328"}}, {"type": "node", "id": 444323832, "lat": 48.0057854, "lon": 0.2279131, "tags": {"bench": "no", "bin": "no", "bus": "yes", "highway": "bus_stop", "name": "Gazonfier", "public_transport": "platform", "shelter": "no", "timeo": "330"}}, {"type": "node", "id": 444323842, "lat": 47.9844095, "lon": 0.1419848, "tags": {"bench": "yes", "bin": "yes", "bus": "yes", "highway": "bus_stop", "name": "Saint-Joseph", "public_transport": "platform", "ref": "STJOSEPH", "shelter": "yes", "tactile_paving": "no", "timeo": "222", "wheelchair": "no"}}, {"type": "node", "id": 444323843, "lat": 48.0030876, "lon": 0.2303739, "tags": {"bench": "yes", "bin": "yes", "bus": "yes", "highway": "bus_stop", "name": "Charbonni\u00e8re", "public_transport": "platform", "shelter": "no", "timeo": "159"}}, {"type": "node", "id": 444323844, "lat": 48.0020176, "lon": 0.2279243, "tags": {"bench": "yes", "bin": "yes", "bus": "yes", "highway": "bus_stop", "name": "Alfred de Vigny", "public_transport": "platform", "shelter": "yes", "timeo": "16"}}, {"type": "node", "id": 444323845, "lat": 48.001555, "lon": 0.2310095, "tags": {"bench": "yes", "bin": "yes", "bus": "yes", "highway": "bus_stop", "name": "Sully Prudhomme", "public_transport": "platform", "shelter": "yes", "timeo": "594"}}, {"type": "node", "id": 444323846, "lat": 48.0000013, "lon": 0.2312466, "tags": {"bench": "yes", "bin": "yes", "bus": "yes", "highway": "bus_stop", "name": "Guillaume Apollinaire", "public_transport": "platform", "shelter": "yes", "timeo": "311"}}, {"type": "node", "id": 444323847, "lat": 47.9994726, "lon": 0.2276318, "tags": {"bench": "yes", "bin": "yes", "bus": "yes", "highway": "bus_stop", "name": "Marivaux", "public_transport": "platform", "shelter": "yes", "timeo": "459"}}, {"type": "node", "id": 444323849, "lat": 47.9978087, "lon": 0.2232774, "tags": {"bench": "yes", "bin": "yes", "bus": "yes", "highway": "bus_stop", "name": "Boll\u00e9e", "public_transport": "platform", "shelter": "yes", "timeo": "100"}}, {"type": "node", "id": 444323855, "lat": 48.0040895, "lon": 0.2004964, "tags": {"bench": "yes", "bus": "yes", "highway": "bus_stop", "name": "Comtes du Maine", "public_transport": "platform", "ref": "COM M2", "shelter": "yes", "tactile_paving": "yes", "timeo": "205", "wheelchair": "yes"}}, {"type": "node", "id": 444323857, "lat": 48.0067321, "lon": 0.1970958, "tags": {"bench": "yes", "bin": "yes", "bus": "yes", "highway": "bus_stop", "lit": "yes", "name": "Mairie du Mans", "public_transport": "platform", "ref": "MAIRIE2", "shelter": "yes", "tactile_paving": "yes", "timeo": "451", "wheelchair": "yes"}}, {"type": "node", "id": 444323858, "lat": 48.0054965, "lon": 0.1951924, "tags": {"bench": "yes", "bin": "yes", "bus": "yes", "highway": "bus_stop", "lit": "yes", "name": "\u00c9peron", "public_transport": "platform", "ref": "EPERON2", "shelter": "yes", "tactile_paving": "yes", "timeo": "257", "wheelchair": "yes"}}, {"type": "node", "id": 444323859, "lat": 48.0039784, "lon": 0.1935283, "tags": {"bench": "yes", "bin": "yes", "bus": "yes", "highway": "bus_stop", "lit": "yes", "name": "Les Halles", "public_transport": "platform", "ref": "HALLES2", "shelter": "no", "tactile_paving": "no", "timeo": "350"}}, {"type": "node", "id": 444323861, "lat": 48.0010287, "lon": 0.187299, "tags": {"bench": "yes", "bin": "yes", "bus": "yes", "highway": "bus_stop", "lit": "yes", "name": "La Fabrique", "public_transport": "platform", "ref": "EDF GDF1", "shelter": "yes", "tactile_paving": "no", "timeo": "246", "wheelchair": "limited"}}, {"type": "node", "id": 444323862, "lat": 48.0009863, "lon": 0.1842217, "tags": {"bench": "yes", "bus": "yes", "highway": "bus_stop", "name": "Anatole France", "public_transport": "platform", "ref": "FRANCE1", "shelter": "yes", "tactile_paving": "no", "timeo": "20", "wheelchair": "limited"}}, {"type": "node", "id": 444323863, "lat": 47.9987899, "lon": 0.1878025, "tags": {"bench": "yes", "bin": "yes", "bus": "yes", "check_date:shelter": "2023-03-15", "highway": "bus_stop", "lit": "no", "name": "Pont des Tabacs", "public_transport": "platform", "ref": "TABACS1", "shelter": "yes", "tactile_paving": "yes", "timeo": "578", "wheelchair": "yes"}}, {"type": "node", "id": 444323864, "lat": 47.999882, "lon": 0.1855641, "tags": {"bench": "no", "bus": "yes", "highway": "bus_stop", "name": "Colonel Raynal", "public_transport": "platform", "ref": "RAYNAL2", "shelter": "no", "tactile_paving": "yes", "timeo": "203", "wheelchair": "yes"}}, {"type": "node", "id": 444323865, "lat": 47.9982975, "lon": 0.1810337, "tags": {"bench": "no", "bin": "yes", "bus": "yes", "check_date:shelter": "2023-03-31", "highway": "bus_stop", "lit": "no", "name": "Acacias", "public_transport": "platform", "ref": "ACACIAS2", "shelter": "no", "tactile_paving": "no", "timeo": "13", "wheelchair": "no"}}, {"type": "node", "id": 444323866, "lat": 47.9966288, "lon": 0.1792956, "tags": {"bench": "yes", "bus": "yes", "highway": "bus_stop", "name": "Chaumard", "public_transport": "platform", "ref": "CHAUMAR2", "shelter": "yes", "tactile_paving": "yes", "timeo": "167", "wheelchair": "yes"}}, {"type": "node", "id": 444323867, "lat": 47.9952731, "lon": 0.1775305, "tags": {"bench": "no", "bin": "no", "bus": "yes", "check_date:shelter": "2022-04-29", "highway": "bus_stop", "lit": "no", "name": "Cimeti\u00e8re Saint-Georges", "public_transport": "platform", "ref": "CIMESTG2", "shelter": "no", "tactile_paving": "no", "timeo": "181", "wheelchair": "limited"}}, {"type": "node", "id": 444323868, "lat": 47.994119, "lon": 0.1760133, "tags": {"bench": "no", "bus": "yes", "highway": "bus_stop", "lit": "no", "name": "Pag\u00e8s", "public_transport": "platform", "ref": "PAGES2", "shelter": "no", "tactile_paving": "no", "timeo": "527", "wheelchair": "no"}}, {"type": "node", "id": 444323869, "lat": 47.9920849, "lon": 0.1727077, "tags": {"bench": "yes", "bin": "yes", "bus": "yes", "highway": "bus_stop", "name": "Fernand Tavano", "public_transport": "platform", "ref": "TAVANO2", "shelter": "no", "tactile_paving": "yes", "timeo": "710", "wheelchair": "yes"}}, {"type": "node", "id": 444323870, "lat": 47.9891859, "lon": 0.1671821, "tags": {"bench": "yes", "bin": "yes", "bus": "yes", "highway": "bus_stop", "name": "Vieux Colombier", "public_transport": "platform", "ref": "VCOLOMB2", "shelter": "no", "tactile_paving": "yes", "timeo": "170", "wheelchair": "yes"}}, {"type": "node", "id": 444323871, "lat": 47.9877453, "lon": 0.1662943, "tags": {"bench": "no", "bus": "yes", "highway": "bus_stop", "name": "Rue du Loir", "public_transport": "platform", "ref": "LOIR2", "shelter": "no", "tactile_paving": "yes", "timeo": "644", "wheelchair": "yes"}}, {"type": "node", "id": 444323872, "lat": 47.9859569, "lon": 0.1636592, "tags": {"bench": "yes", "bin": "yes", "bus": "yes", "highway": "bus_stop", "name": "Folleray", "public_transport": "platform", "ref": "FOLLERA2", "shelter": "no", "tactile_paving": "yes", "timeo": "295", "wheelchair": "yes"}}, {"type": "node", "id": 444323873, "lat": 47.9848986, "lon": 0.1612078, "tags": {"bench": "no", "bin": "yes", "bus": "yes", "highway": "bus_stop", "name": "Le Clos", "public_transport": "platform", "ref": "CLOS2", "shelter": "no", "tactile_paving": "no", "timeo": "403", "wheelchair": "no"}}, {"type": "node", "id": 444323874, "lat": 47.9837122, "lon": 0.153069, "tags": {"bench": "yes", "bus": "yes", "highway": "bus_stop", "name": "Croix Georgette", "public_transport": "platform", "ref": "MONTAIG2", "shelter": "no", "tactile_paving": "no", "timeo": "487", "wheelchair": "no"}}, {"type": "node", "id": 444323875, "lat": 47.98382, "lon": 0.150277, "tags": {"bench": "no", "bin": "yes", "bus": "yes", "highway": "bus_stop", "name": "Saint-Georges", "public_transport": "platform", "ref": "LACXGEO2", "shelter": "no", "tactile_paving": "no", "timeo": "862", "wheelchair": "no"}}, {"type": "node", "id": 444364777, "lat": 48.0000212, "lon": 0.1701279, "tags": {"bench": "yes", "bus": "yes", "highway": "bus_stop", "name": "Racine", "public_transport": "platform", "ref": "RACINE2", "shelter": "yes", "tactile_paving": "no", "timeo": "599", "wheelchair": "no"}}, {"type": "node", "id": 444364779, "lat": 48.0015181, "lon": 0.171448, "tags": {"bench": "yes", "bus": "yes", "highway": "bus_stop", "name": "Chateaubriand", "public_transport": "platform", "ref": "BAUDELA2", "shelter": "no", "tactile_paving": "no", "timeo": "61", "wheelchair": "no"}}, {"type": "node", "id": 444364781, "lat": 48.0037949, "lon": 0.1716387, "tags": {"bench": "yes", "bus": "yes", "highway": "bus_stop", "name": "Beaumarchais", "public_transport": "platform", "ref": "BEAUMAR2", "shelter": "yes", "tactile_paving": "no", "timeo": "64", "wheelchair": "no"}}, {"type": "node", "id": 444364784, "lat": 48.0039718, "lon": 0.1738893, "tags": {"bench": "no", "bus": "yes", "highway": "bus_stop", "name": "Pip\u00eache", "public_transport": "platform", "ref": "PIPECHE2", "shelter": "no", "tactile_paving": "no", "timeo": "564", "wheelchair": "no"}}, {"type": "node", "id": 444364786, "lat": 48.00487, "lon": 0.179481, "tags": {"bench": "no", "bin": "yes", "bus": "yes", "highway": "bus_stop", "lit": "yes", "name": "Bourges", "public_transport": "platform", "ref": "BOURGES2", "shelter": "no", "tactile_paving": "no", "timeo": "107", "wheelchair": "no"}}, {"type": "node", "id": 444364789, "lat": 48.0071195, "lon": 0.1803002, "tags": {"bench": "yes", "bin": "yes", "bus": "yes", "highway": "bus_stop", "lit": "yes", "name": "Saffray", "public_transport": "platform", "ref": "SAFFRAY2", "shelter": "yes", "tactile_paving": "no", "timeo": "659", "wheelchair": "no"}}, {"type": "node", "id": 444364790, "lat": 48.0088909, "lon": 0.1809419, "tags": {"bench": "no", "bin": "yes", "bus": "yes", "highway": "bus_stop", "name": "Pav\u00e9", "public_transport": "platform", "ref": "PAVE2", "shelter": "no", "tactile_paving": "no", "timeo": "547", "wheelchair": "no"}}, {"type": "node", "id": 444364791, "lat": 48.0114229, "lon": 0.1818468, "tags": {"bench": "no", "bin": "no", "bus": "yes", "highway": "bus_stop", "lit": "yes", "name": "Th\u00e9odore Monod", "public_transport": "platform", "ref": "MONOD1", "shelter": "no", "tactile_paving": "yes", "timeo": "717", "wheelchair": "yes"}}, {"type": "node", "id": 444364792, "lat": 48.0116794, "lon": 0.1863504, "tags": {"bench": "yes", "bin": "yes", "bus": "yes", "highway": "bus_stop", "lit": "yes", "name": "M\u00fbriers", "public_transport": "platform", "ref": "MURIERS1", "shelter": "yes", "tactile_paving": "yes", "timeo": "499", "wheelchair": "yes"}}, {"type": "node", "id": 444364797, "lat": 48.0081431, "lon": 0.1895452, "tags": {"bench": "yes", "bin": "yes", "bus": "yes", "highway": "bus_stop", "name": "Ch\u00eane Vert", "public_transport": "platform", "ref": "CHENE V1", "shelter": "yes", "tactile_paving": "yes", "timeo": "171", "wheelchair": "yes"}}, {"type": "node", "id": 444364799, "lat": 48.0053714, "lon": 0.1950662, "tags": {"bench": "yes", "bin": "yes", "bus": "yes", "highway": "bus_stop", "name": "\u00c9peron", "public_transport": "platform", "ref": "EPERON1", "shelter": "yes", "tactile_paving": "yes", "timeo": "256", "wheelchair": "yes"}}, {"type": "node", "id": 444364802, "lat": 48.0066713, "lon": 0.19722, "tags": {"bench": "yes", "bin": "yes", "bus": "yes", "highway": "bus_stop", "lit": "yes", "name": "Mairie du Mans", "public_transport": "platform", "ref": "MAIRIE1", "shelter": "yes", "tactile_paving": "yes", "timeo": "450", "wheelchair": "yes"}}, {"type": "node", "id": 444364806, "lat": 48.0100942, "lon": 0.1943371, "tags": {"bench": "yes", "bus": "yes", "highway": "bus_stop", "name": "La Calandre", "public_transport": "platform", "ref": "CALANDR2", "shelter": "no", "tactile_paving": "yes", "timeo": "385", "wheelchair": "yes"}}, {"type": "node", "id": 444364807, "lat": 48.0136992, "lon": 0.1903985, "tags": {"bench": "no", "bin": "no", "bus": "yes", "highway": "bus_stop", "lit": "yes", "name": "Boussini\u00e8re", "public_transport": "platform", "ref": "BOUSSIN2", "shelter": "no", "tactile_paving": "yes", "timeo": "110", "wheelchair": "yes"}}, {"type": "node", "id": 444364808, "lat": 48.013739, "lon": 0.1895219, "tags": {"bench": "no", "bin": "no", "bus": "yes", "highway": "bus_stop", "lit": "yes", "name": "Boussini\u00e8re", "public_transport": "platform", "ref": "BOUSSIN1", "shelter": "no", "tactile_paving": "no", "timeo": "109", "wheelchair": "no"}}, {"type": "node", "id": 444364809, "lat": 48.0173806, "lon": 0.1924485, "tags": {"bench": "yes", "bin": "yes", "bus": "yes", "highway": "bus_stop", "lit": "no", "name": "Cimeti\u00e8re de l'Ouest", "public_transport": "platform", "ref": "CIMEOUE2", "shelter": "yes", "tactile_paving": "yes", "timeo": "177", "wheelchair": "yes"}}, {"type": "node", "id": 444364810, "lat": 48.0175613, "lon": 0.1885942, "tags": {"bench": "no", "bin": "yes", "bus": "yes", "highway": "bus_stop", "name": "\u00c9tamines", "public_transport": "platform", "ref": "ETAMINE2", "shelter": "no", "tactile_paving": "no", "timeo": "272", "wheelchair": "no"}}, {"type": "node", "id": 444364811, "lat": 48.019006, "lon": 0.1871406, "tags": {"bench": "no", "bin": "yes", "bus": "yes", "highway": "bus_stop", "name": "Richepin", "public_transport": "platform", "ref": "RICEPIN2", "shelter": "no", "tactile_paving": "no", "timeo": "623", "wheelchair": "no"}}, {"type": "node", "id": 444364814, "lat": 48.0212916, "lon": 0.187376, "tags": {"bench": "no", "bin": "no", "bus": "yes", "highway": "bus_stop", "name": "B\u00e2le", "public_transport": "platform", "ref": "BALE2", "shelter": "no", "tactile_paving": "no", "timeo": "46", "wheelchair": "limited"}}, {"type": "node", "id": 444364819, "lat": 48.0242347, "lon": 0.1873877, "tags": {"bench": "no", "bin": "yes", "bus": "yes", "highway": "bus_stop", "name": "Moulin l'\u00c9v\u00eaque", "public_transport": "platform", "ref": "MOULIN2", "shelter": "no", "tactile_paving": "no", "timeo": "495", "wheelchair": "no"}}, {"type": "node", "id": 444364821, "lat": 48.0246846, "lon": 0.184742, "tags": {"bench": "no", "bin": "no", "bus": "yes", "highway": "bus_stop", "lit": "yes", "name": "Richet", "public_transport": "platform", "ref": "RICHET2", "shelter": "no", "tactile_paving": "no", "timeo": "625", "wheelchair": "no"}}, {"type": "node", "id": 444364823, "lat": 48.025252, "lon": 0.182808, "tags": {"bench": "no", "bin": "yes", "bus": "yes", "highway": "bus_stop", "name": "Florey", "public_transport": "platform", "ref": "FLOREY2", "shelter": "no", "tactile_paving": "no", "timeo": "290", "wheelchair": "no"}}, {"type": "node", "id": 444364824, "lat": 48.0214314, "lon": 0.1857308, "tags": {"bench": "yes", "bin": "yes", "bus": "yes", "highway": "bus_stop", "name": "Berne", "public_transport": "platform", "ref": "BERNE1", "shelter": "yes", "tactile_paving": "yes", "timeo": "79", "wheelchair": "yes"}}, {"type": "node", "id": 444364826, "lat": 48.0101091, "lon": 0.1924715, "tags": {"bench": "yes", "bus": "yes", "highway": "bus_stop", "name": "Gallou\u00e9dec", "public_transport": "platform", "ref": "GALOUED1", "shelter": "yes", "tactile_paving": "yes", "timeo": "310", "wheelchair": "yes"}}, {"type": "node", "id": 445399722, "lat": 47.9897222, "lon": 0.1988101, "tags": {"bench": "yes", "bin": "yes", "bus": "yes", "highway": "bus_stop", "lit": "no", "name": "Miroir", "public_transport": "platform", "shelter": "yes", "tactile_paving": "yes"}}, {"type": "node", "id": 445399724, "lat": 47.991558, "lon": 0.1981187, "tags": {"bench": "no", "bin": "yes", "bus": "yes", "highway": "bus_stop", "lit": "yes", "name": "Carel Mutualit\u00e9", "public_transport": "platform", "shelter": "no", "tactile_paving": "yes"}}, {"type": "node", "id": 445399725, "lat": 47.993383, "lon": 0.196188, "tags": {"bench": "no", "bin": "no", "bus": "yes", "highway": "bus_stop", "lit": "yes", "name": "Yourcenar", "public_transport": "platform", "shelter": "no", "tactile_paving": "yes"}}, {"type": "node", "id": 445399726, "lat": 47.9957885, "lon": 0.1936821, "tags": {"bench": "yes", "bin": "yes", "bus": "yes", "departures_board": "yes", "highway": "bus_stop", "lit": "no", "name": "Gares", "public_transport": "platform", "ref": "GARE2", "route_ref": "14-16-BR1-BR2", "shelter": "no", "tactile_paving": "yes", "timeo": "313", "wheelchair": "yes"}}, {"type": "node", "id": 445399728, "lat": 47.995796, "lon": 0.1932949, "tags": {"bench": "yes", "bin": "yes", "bus": "yes", "highway": "bus_stop", "lit": "yes", "name": "Gares", "operator": "S\u00e9tram", "public_transport": "platform", "ref": "GARE1", "route_ref": "T3", "shelter": "yes", "tactile_paving": "yes", "timeo": "314", "wheelchair": "yes"}}, {"type": "node", "id": 445399729, "lat": 47.9944376, "lon": 0.1857124, "tags": {"bench": "yes", "bin": "yes", "bus": "yes", "highway": "bus_stop", "lit": "yes", "name": "Novaxud", "public_transport": "platform", "ref": "NOVAXIS2", "shelter": "yes", "tactile_paving": "yes", "timeo": "516", "wheelchair": "yes"}}, {"type": "node", "id": 465522271, "lat": 48.0136104, "lon": 0.2655429, "tags": {"bench": "no", "bin": "yes", "bus": "yes", "check_date:shelter": "2023-10-07", "highway": "bus_stop", "name": "Pivoines", "public_transport": "platform", "shelter": "no", "tactile_paving": "no", "timeo": "566", "wheelchair": "yes"}}, {"type": "node", "id": 465545347, "lat": 48.0144928, "lon": 0.2648112, "tags": {"bench": "no", "bin": "yes", "bus": "yes", "highway": "bus_stop", "name": "Narcisses", "public_transport": "platform", "shelter": "no", "tactile_paving": "yes", "timeo": "505", "wheelchair": "yes"}}, {"type": "node", "id": 465594043, "lat": 48.0145857, "lon": 0.2671871, "tags": {"bench": "no", "bin": "yes", "bus": "yes", "highway": "bus_stop", "name": "Maine", "public_transport": "platform", "shelter": "no", "tactile_paving": "yes", "timeo": "448", "wheelchair": "yes"}}, {"type": "node", "id": 465597490, "lat": 48.0152231, "lon": 0.2700566, "tags": {"bench": "no", "bin": "no", "bus": "yes", "highway": "bus_stop", "name": "Perche", "public_transport": "platform", "shelter": "no", "tactile_paving": "no", "timeo": "551", "wheelchair": "no"}}, {"type": "node", "id": 465597940, "lat": 48.014358, "lon": 0.2715329, "tags": {"bench": "no", "bin": "yes", "bus": "yes", "check_date:shelter": "2023-10-07", "highway": "bus_stop", "name": "George Sand", "public_transport": "platform", "shelter": "no", "tactile_paving": "yes", "timeo": "332", "wheelchair": "yes"}}, {"type": "node", "id": 470636175, "lat": 48.0722945, "lon": 0.2905966, "tags": {"bench": "yes", "covered": "yes", "highway": "bus_stop", "name": "Plaisance", "network": "Al\u00e9op en Sarthe", "operator": "CD72", "shelter": "yes", "was:network": "TIS"}}, {"type": "node", "id": 471861812, "lat": 48.0777969, "lon": 0.2760342, "tags": {"highway": "bus_stop"}}, {"type": "node", "id": 582269646, "lat": 47.9900173, "lon": 0.1822877, "tags": {"bench": "yes", "bus": "yes", "highway": "bus_stop", "name": "P\u00eacheurs", "public_transport": "platform", "ref": "PECHEURS2", "shelter": "yes", "tactile_paving": "no", "timeo": "549", "wheelchair": "yes"}}, {"type": "node", "id": 595837093, "lat": 47.9526983, "lon": 0.1654314, "tags": {"bench": "yes", "bus": "yes", "highway": "bus_stop", "name": "Les Hautes M\u00e9tairies", "public_transport": "platform", "shelter": "yes", "tactile_paving": "no", "timeo": "667"}}, {"type": "node", "id": 595837094, "lat": 47.9564872, "lon": 0.1659473, "tags": {"bench": "yes", "bus": "yes", "highway": "bus_stop", "name": "Lyc\u00e9e Malraux", "public_transport": "platform", "ref": "LYCMALR2", "shelter": "yes", "tactile_paving": "no", "timeo": "443", "wheelchair": "limited"}}, {"type": "node", "id": 595837095, "lat": 47.9601585, "lon": 0.165597, "tags": {"bench": "yes", "bus": "yes", "highway": "bus_stop", "name": "Centre Hospitalier Sp\u00e9cialis\u00e9", "public_transport": "platform", "ref": "HOPSPEC2", "shelter": "yes", "tactile_paving": "no", "timeo": "354", "wheelchair": "limited"}}, {"type": "node", "id": 595837096, "lat": 47.963861, "lon": 0.1604095, "tags": {"bench": "yes", "bin": "yes", "bus": "yes", "highway": "bus_stop", "name": "Le Marin", "public_transport": "platform", "ref": "LEMARIN1", "shelter": "yes", "tactile_paving": "yes", "timeo": "412", "wheelchair": "yes"}}, {"type": "node", "id": 595837097, "lat": 47.9556306, "lon": 0.1715379, "tags": {"bench": "yes", "bin": "yes", "bus": "yes", "highway": "bus_stop", "name": "Languedoc", "public_transport": "platform", "ref": "LANGUED1", "shelter": "no", "tactile_paving": "no", "timeo": "390", "wheelchair": "yes"}}, {"type": "node", "id": 595837098, "lat": 47.9520716, "lon": 0.1709171, "tags": {"bench": "yes", "bin": "yes", "bus": "yes", "highway": "bus_stop", "name": "Gascogne", "public_transport": "platform", "ref": "GASCOGN1", "shelter": "no", "tactile_paving": "no", "timeo": "324", "wheelchair": "yes"}}, {"type": "node", "id": 595837099, "lat": 47.9554189, "lon": 0.1690729, "tags": {"bench": "yes", "bin": "yes", "bus": "yes", "highway": "bus_stop", "name": "Vend\u00e9e", "public_transport": "platform", "ref": "VENDEE1", "shelter": "yes", "tactile_paving": "no", "timeo": "732", "wheelchair": "yes"}}, {"type": "node", "id": 595837100, "lat": 47.9530524, "lon": 0.1684721, "tags": {"bench": "yes", "bin": "yes", "bus": "yes", "highway": "bus_stop", "name": "Bretagne", "public_transport": "platform", "ref": "BRETAGN1", "shelter": "yes", "timeo": "120"}}, {"type": "node", "id": 595837101, "lat": 47.9523268, "lon": 0.1655792, "tags": {"bench": "yes", "bin": "yes", "bus": "yes", "highway": "bus_stop", "name": "Allonnes", "public_transport": "platform", "shelter": "yes", "timeo": "24"}}, {"type": "node", "id": 595837102, "lat": 47.9540087, "lon": 0.172246, "tags": {"bench": "yes", "bin": "yes", "bus": "yes", "highway": "bus_stop", "name": "Flandres", "public_transport": "platform", "ref": "FLANDRE1", "shelter": "yes", "timeo": "285"}}, {"type": "node", "id": 595838105, "lat": 47.9639161, "lon": 0.1601854, "tags": {"bench": "yes", "bin": "yes", "bus": "yes", "highway": "bus_stop", "name": "Le Marin", "public_transport": "platform", "ref": "GYMNASE2", "shelter": "yes", "tactile_paving": "no", "timeo": "348", "wheelchair": "yes"}}, {"type": "node", "id": 595838106, "lat": 47.9655458, "lon": 0.1617835, "tags": {"bench": "yes", "bus": "yes", "highway": "bus_stop", "name": "Coll\u00e8ge Kennedy", "public_transport": "platform", "ref": "KENNEDY2", "shelter": "yes", "tactile_paving": "no", "timeo": "384", "wheelchair": "yes"}}, {"type": "node", "id": 595838107, "lat": 47.9644089, "lon": 0.156688, "tags": {"bench": "yes", "bin": "yes", "bus": "yes", "highway": "bus_stop", "name": "Perri\u00e8res", "public_transport": "platform", "ref": "PERRIER2", "shelter": "yes", "tactile_paving": "no", "timeo": "556", "wheelchair": "yes"}}, {"type": "node", "id": 595838776, "lat": 47.9686917, "lon": 0.1629126, "tags": {"bench": "yes", "bin": "yes", "bus": "yes", "highway": "bus_stop", "name": "Massenet", "public_transport": "platform", "ref": "MASSENE1", "shelter": "yes", "tactile_paving": "no", "timeo": "464", "wheelchair": "yes"}}, {"type": "node", "id": 595838777, "lat": 47.9716434, "lon": 0.1636187, "tags": {"bench": "yes", "bin": "yes", "bus": "yes", "highway": "bus_stop", "name": "Chabrier", "public_transport": "platform", "ref": "CHABRIE2", "shelter": "no", "tactile_paving": "yes", "timeo": "154", "wheelchair": "yes"}}, {"type": "node", "id": 595838778, "lat": 47.9702564, "lon": 0.1596289, "tags": {"bench": "yes", "bin": "yes", "bus": "yes", "check_date:shelter": "2022-04-29", "highway": "bus_stop", "lit": "yes", "name": "Mairie d'Allonnes", "public_transport": "platform", "shelter": "yes", "tactile_paving": "yes", "timeo": "414", "wheelchair": "yes"}}, {"type": "node", "id": 595838779, "lat": 47.9711511, "lon": 0.160469, "tags": {"bench": "yes", "bin": "yes", "bus": "yes", "highway": "bus_stop", "name": "Debussy", "public_transport": "platform", "ref": "DEBUSSY1", "shelter": "yes", "tactile_paving": "no", "timeo": "230", "wheelchair": "no"}}, {"type": "node", "id": 595838780, "lat": 47.9733184, "lon": 0.1587649, "tags": {"bench": "yes", "bus": "yes", "highway": "bus_stop", "name": "Stade Georges Garnier", "public_transport": "platform", "ref": "RATERIE2", "shelter": "yes", "tactile_paving": "yes", "timeo": "603", "wheelchair": "yes"}}, {"type": "node", "id": 595838781, "lat": 47.9670042, "lon": 0.1568721, "tags": {"bench": "yes", "bin": "yes", "bus": "yes", "highway": "bus_stop", "name": "Pasteur", "public_transport": "platform", "ref": "PASTEUR2", "shelter": "yes", "tactile_paving": "yes", "timeo": "537", "wheelchair": "yes"}}, {"type": "node", "id": 595838782, "lat": 47.9674637, "lon": 0.1604175, "tags": {"bench": "yes", "bus": "yes", "highway": "bus_stop", "name": "Centre Culturel Jean Carmet", "public_transport": "platform", "ref": "CCULTUR2", "shelter": "yes", "tactile_paving": "yes", "timeo": "146", "wheelchair": "yes"}}, {"type": "node", "id": 595838784, "lat": 47.9696394, "lon": 0.1656344, "tags": {"bench": "yes", "bin": "yes", "bus": "yes", "highway": "bus_stop", "name": "Chaou\u00e9", "public_transport": "platform", "ref": "CHAOUE2", "shelter": "yes", "tactile_paving": "yes", "timeo": "158", "wheelchair": "yes"}}, {"type": "node", "id": 595839061, "lat": 47.9849755, "lon": 0.1783604, "tags": {"bench": "yes", "bin": "yes", "bus": "yes", "highway": "bus_stop", "name": "Angevini\u00e8re", "public_transport": "platform", "ref": "ANGEVIN2", "shelter": "yes", "tactile_paving": "no", "timeo": "27", "wheelchair": "limited"}}, {"type": "node", "id": 595839062, "lat": 47.9763175, "lon": 0.167928, "tags": {"bench": "yes", "bus": "yes", "highway": "bus_stop", "name": "Martin Br\u00e9guet", "public_transport": "platform", "ref": "BREGUET2", "shelter": "yes", "tactile_paving": "no", "timeo": "119", "wheelchair": "yes"}}, {"type": "node", "id": 595839063, "lat": 47.9783927, "lon": 0.1731481, "tags": {"bench": "yes", "bus": "yes", "check_date:shelter": "2022-04-29", "highway": "bus_stop", "name": "Patte d'Oie", "public_transport": "platform", "shelter": "yes", "tactile_paving": "yes", "timeo": "407", "wheelchair": "yes"}}, {"type": "node", "id": 638410381, "lat": 48.0068131, "lon": 0.1899165, "tags": {"bench": "yes", "bin": "yes", "bus": "yes", "highway": "bus_stop", "name": "Lafayette", "public_transport": "platform", "ref": "LAFAYETT", "shelter": "yes", "tactile_paving": "yes", "timeo": "386", "wheelchair": "yes"}}, {"type": "node", "id": 638434096, "lat": 48.001595, "lon": 0.1844204, "tags": {"bench": "no", "bus": "yes", "highway": "bus_stop", "name": "Anatole France", "public_transport": "platform", "ref": "FRANCE2", "shelter": "no", "tactile_paving": "no", "timeo": "21", "wheelchair": "no"}}, {"type": "node", "id": 638434099, "lat": 48.0036127, "lon": 0.1863044, "tags": {"bench": "yes", "bus": "yes", "highway": "bus_stop", "lit": "yes", "name": "Richedou\u00e9", "public_transport": "platform", "ref": "RICHEDO1", "shelter": "no", "tactile_paving": "no", "timeo": "622", "wheelchair": "no"}}, {"type": "node", "id": 638434102, "lat": 48.0045921, "lon": 0.1873277, "tags": {"bench": "yes", "bus": "yes", "highway": "bus_stop", "lit": "yes", "name": "Lib\u00e9ration", "public_transport": "platform", "ref": "LIBERAT1", "shelter": "yes", "tactile_paving": "yes", "timeo": "429", "wheelchair": "yes"}}, {"type": "node", "id": 638434106, "lat": 48.0043451, "lon": 0.1872984, "tags": {"bench": "yes", "bus": "yes", "highway": "bus_stop", "lit": "yes", "name": "Lib\u00e9ration", "public_transport": "platform", "ref": "LIBERAT2", "shelter": "yes", "tactile_paving": "no", "timeo": "430", "wheelchair": "no"}}, {"type": "node", "id": 638623270, "lat": 47.9926138, "lon": 0.1947615, "tags": {"bench": "no", "bin": "yes", "bus": "yes", "highway": "bus_stop", "lit": "yes", "name": "Bobillot", "public_transport": "platform", "shelter": "no", "tactile_paving": "yes"}}, {"type": "node", "id": 638623272, "lat": 47.9924778, "lon": 0.194608, "tags": {"bench": "no", "bin": "yes", "bus": "yes", "highway": "bus_stop", "lit": "yes", "name": "Bobillot", "public_transport": "platform", "shelter": "no", "tactile_paving": "yes"}}, {"type": "node", "id": 638623277, "lat": 47.9969268, "lon": 0.1903235, "tags": {"bench": "yes", "bin": "yes", "bus": "yes", "highway": "bus_stop", "lit": "no", "name": "Gare Routi\u00e8re", "public_transport": "platform", "ref": "GARLIGN1", "route_ref": "13-16", "shelter": "yes", "tactile_paving": "yes", "timeo": "544", "wheelchair": "yes"}}, {"type": "node", "id": 638623301, "lat": 47.9960993, "lon": 0.192387, "tags": {"bench": "yes", "bin": "yes", "bus": "yes", "highway": "bus_stop", "lit": "no", "name": "Gares", "public_transport": "platform", "ref": "GARLIGN2", "route_ref": "T3-14-16-BR1-BR2", "shelter": "yes", "tactile_paving": "yes", "timeo": "545", "wheelchair": "yes"}}, {"type": "node", "id": 638645151, "lat": 47.9850162, "lon": 0.1863739, "tags": {"bench": "yes", "bin": "yes", "bus": "yes", "check_date:shelter": "2022-07-06", "highway": "bus_stop", "lit": "yes", "name": "Fusains", "public_transport": "platform", "shelter": "yes", "tactile_paving": "yes"}}, {"type": "node", "id": 638645155, "lat": 47.9876706, "lon": 0.1881086, "tags": {"bench": "no", "bin": "no", "bus": "yes", "highway": "bus_stop", "lit": "yes", "name": "Batignolles", "public_transport": "platform", "shelter": "no", "tactile_paving": "yes"}}, {"type": "node", "id": 638645156, "lat": 47.9875939, "lon": 0.1881488, "tags": {"bench": "no", "bin": "no", "bus": "yes", "highway": "bus_stop", "lit": "yes", "name": "Batignolles", "public_transport": "platform", "shelter": "no", "tactile_paving": "yes"}}, {"type": "node", "id": 638645159, "lat": 47.9892772, "lon": 0.1913718, "tags": {"bench": "yes", "bin": "yes", "bus": "yes", "check_date:shelter": "2024-09-07", "highway": "bus_stop", "lit": "yes", "name": "Jean Michel Gaudr\u00e9", "public_transport": "platform", "shelter": "yes", "tactile_paving": "no"}}, {"type": "node", "id": 638645164, "lat": 47.9901354, "lon": 0.1936444, "tags": {"bench": "yes", "bin": "yes", "bus": "yes", "covered": "yes", "highway": "bus_stop", "lit": "yes", "name": "Jean Mac\u00e9", "public_transport": "platform", "shelter": "yes", "tactile_paving": "yes"}}, {"type": "node", "id": 638770232, "lat": 47.9841231, "lon": 0.1866307, "tags": {"bus": "yes", "highway": "bus_stop", "name": "La Pointe", "public_transport": "platform", "shelter": "yes", "source": "cadastre-dgi-fr source : Direction G\u00e9n\u00e9rale des Imp\u00f4ts - Cadastre. Mise \u00e0 jour : 2010"}}, {"type": "node", "id": 638770233, "lat": 47.9840879, "lon": 0.1912583, "tags": {"bus": "yes", "highway": "bus_stop", "name": "Polygone", "public_transport": "platform", "shelter": "no", "source": "cadastre-dgi-fr source : Direction G\u00e9n\u00e9rale des Imp\u00f4ts - Cadastre. Mise \u00e0 jour : 2010"}}, {"type": "node", "id": 638770234, "lat": 47.984597, "lon": 0.1901463, "tags": {"bench": "yes", "bin": "yes", "bus": "yes", "highway": "bus_stop", "name": "Polygone", "public_transport": "platform", "shelter": "no", "source": "cadastre-dgi-fr source : Direction G\u00e9n\u00e9rale des Imp\u00f4ts - Cadastre. Mise \u00e0 jour : 2010", "tactile_paving": "no"}}, {"type": "node", "id": 638770235, "lat": 47.98385, "lon": 0.1945952, "tags": {"bus": "yes", "highway": "bus_stop", "name": "Bleuets", "public_transport": "platform", "shelter": "no", "source": "cadastre-dgi-fr source : Direction G\u00e9n\u00e9rale des Imp\u00f4ts - Cadastre. Mise \u00e0 jour : 2010"}}, {"type": "node", "id": 638770236, "lat": 47.983877, "lon": 0.1950663, "tags": {"bus": "yes", "highway": "bus_stop", "name": "Bleuets", "public_transport": "platform", "shelter": "yes", "source": "cadastre-dgi-fr source : Direction G\u00e9n\u00e9rale des Imp\u00f4ts - Cadastre. Mise \u00e0 jour : 2010"}}, {"type": "node", "id": 638770237, "lat": 47.9839636, "lon": 0.1995142, "tags": {"bench": "yes", "bin": "yes", "bus": "yes", "highway": "bus_stop", "lit": "yes", "name": "Fromendi\u00e8re", "public_transport": "platform", "shelter": "no", "source": "cadastre-dgi-fr source : Direction G\u00e9n\u00e9rale des Imp\u00f4ts - Cadastre. Mise \u00e0 jour : 2010", "tactile_paving": "yes"}}, {"type": "node", "id": 643030634, "lat": 47.984965, "lon": 0.1955655, "tags": {"bench": "no", "bin": "no", "bus": "yes", "highway": "bus_stop", "lit": "yes", "name": "Lilas", "public_transport": "platform", "shelter": "no", "tactile_paving": "no"}}, {"type": "node", "id": 643030636, "lat": 47.9859996, "lon": 0.1968837, "tags": {"bench": "yes", "bin": "yes", "bus": "yes", "highway": "bus_stop", "lit": "yes", "name": "Barbusse", "public_transport": "platform", "shelter": "yes", "tactile_paving": "no"}}, {"type": "node", "id": 643030637, "lat": 47.9822392, "lon": 0.2071446, "tags": {"bench": "yes", "bin": "yes", "bus": "yes", "highway": "bus_stop", "lit": "no", "name": "Champ de Mars", "public_transport": "platform", "shelter": "yes", "tactile_paving": "yes"}}, {"type": "node", "id": 643030640, "lat": 47.9843307, "lon": 0.2016925, "tags": {"bench": "yes", "bin": "yes", "bus": "yes", "highway": "bus_stop", "lit": "yes", "name": "Pied Sec", "public_transport": "platform", "shelter": "yes", "tactile_paving": "yes"}}, {"type": "node", "id": 643030641, "lat": 47.9832207, "lon": 0.2043157, "tags": {"bench": "yes", "bus": "yes", "highway": "bus_stop", "name": "Bobet", "public_transport": "platform", "shelter": "yes", "tactile_paving": "yes"}}, {"type": "node", "id": 643030643, "lat": 47.9858213, "lon": 0.2094793, "tags": {"bench": "yes", "bus": "yes", "highway": "bus_stop", "name": "Saint-Martin", "payment:coins": "yes", "payment:mastercard": "yes", "payment:visa": "yes", "public_transport": "platform", "ref": "MARTIN2", "shelter": "yes", "tactile_paving": "yes", "timeo": "698", "vending": "public_transport_tickets", "wheelchair": "yes"}}, {"type": "node", "id": 644629176, "lat": 47.9901733, "lon": 0.1934537, "tags": {"bench": "no", "bin": "no", "bus": "yes", "highway": "bus_stop", "lit": "yes", "name": "Jean Mac\u00e9", "public_transport": "platform", "shelter": "yes", "tactile_paving": "yes"}}, {"type": "node", "id": 656468012, "lat": 48.0154579, "lon": 0.2279332, "tags": {"bench": "yes", "bin": "yes", "bus": "yes", "highway": "bus_stop", "name": "Valence", "public_transport": "platform", "ref": "VALENCE1", "shelter": "yes", "timeo": "722"}}, {"type": "node", "id": 663602790, "lat": 48.0155946, "lon": 0.2304025, "tags": {"bench": "yes", "bin": "no", "bus": "yes", "highway": "bus_stop", "name": "Villaret", "public_transport": "platform", "ref": "VILLAR2", "shelter": "yes", "source": "cadastre-dgi-fr source : Direction G\u00e9n\u00e9rale des Imp\u00f4ts - Cadastre. Mise \u00e0 jour : 2010", "timeo": "740"}}, {"type": "node", "id": 679488760, "lat": 48.0447717, "lon": 0.3283946, "tags": {"highway": "bus_stop"}}, {"type": "node", "id": 735057382, "lat": 47.9686238, "lon": 0.1629763, "tags": {"bench": "yes", "bin": "yes", "bus": "yes", "highway": "bus_stop", "name": "Massenet", "public_transport": "platform", "ref": "MASSENE2", "shelter": "yes", "tactile_paving": "yes", "timeo": "465", "wheelchair": "yes"}}, {"type": "node", "id": 735057392, "lat": 47.9695527, "lon": 0.1655708, "tags": {"bench": "yes", "bin": "yes", "bus": "yes", "highway": "bus_stop", "name": "Chaou\u00e9", "public_transport": "platform", "ref": "CHAOUE1", "shelter": "yes", "tactile_paving": "yes", "timeo": "157", "wheelchair": "yes"}}, {"type": "node", "id": 735057410, "lat": 47.9716022, "lon": 0.1636302, "tags": {"bench": "yes", "bin": "yes", "bus": "yes", "highway": "bus_stop", "name": "Chabrier", "public_transport": "platform", "ref": "CHABRIE1", "shelter": "no", "tactile_paving": "no", "timeo": "153", "wheelchair": "limited"}}, {"type": "node", "id": 735057530, "lat": 47.9730313, "lon": 0.1586687, "tags": {"bench": "yes", "bus": "yes", "highway": "bus_stop", "name": "Stade Georges Garnier", "public_transport": "platform", "ref": "RATERIE1", "shelter": "yes", "tactile_paving": "yes", "timeo": "602", "wheelchair": "yes"}}, {"type": "node", "id": 735057743, "lat": 47.9673515, "lon": 0.1568589, "tags": {"bench": "yes", "bin": "yes", "bus": "yes", "departures_board": "yes", "highway": "bus_stop", "lit": "yes", "name": "Pasteur", "public_transport": "platform", "ref": "PASTEUR1", "shelter": "yes", "tactile_paving": "no", "timeo": "536", "wheelchair": "no"}}, {"type": "node", "id": 735057770, "lat": 47.9679343, "lon": 0.1601386, "tags": {"bench": "yes", "bus": "yes", "highway": "bus_stop", "name": "Centre Culturel Jean Carmet", "public_transport": "platform", "ref": "CCULTUR1", "shelter": "yes", "tactile_paving": "yes", "timeo": "145", "wheelchair": "yes"}}, {"type": "node", "id": 735057826, "lat": 47.9638322, "lon": 0.1620456, "tags": {"bench": "no", "highway": "bus_stop", "name": "Gymnase", "public_transport": "stop_position", "ref": "GYMNASE1", "shelter": "no", "tactile_paving": "no", "timeo": "347", "wheelchair": "limited"}}, {"type": "node", "id": 735057845, "lat": 47.9642606, "lon": 0.1572338, "tags": {"bench": "yes", "bin": "yes", "bus": "yes", "highway": "bus_stop", "name": "Perri\u00e8res", "public_transport": "platform", "ref": "PERRIER1", "shelter": "no", "tactile_paving": "no", "timeo": "555", "wheelchair": "yes"}}, {"type": "node", "id": 735057851, "lat": 47.9655243, "lon": 0.1616172, "tags": {"bench": "yes", "bus": "yes", "highway": "bus_stop", "name": "Coll\u00e8ge Kennedy", "public_transport": "platform", "ref": "KENNEDY1", "shelter": "yes", "tactile_paving": "no", "timeo": "383", "wheelchair": "yes"}}, {"type": "node", "id": 735058015, "lat": 47.9592374, "lon": 0.1655816, "tags": {"bench": "yes", "bus": "yes", "highway": "bus_stop", "name": "Centre Hospitalier Sp\u00e9cialis\u00e9", "public_transport": "platform", "ref": "HOPSPEC1", "shelter": "yes", "tactile_paving": "no", "timeo": "353", "wheelchair": "limited"}}, {"type": "node", "id": 735058087, "lat": 47.9521605, "lon": 0.1659828, "tags": {"bench": "no", "bus": "yes", "highway": "bus_stop", "name": "Allonnes", "public_transport": "platform", "shelter": "no", "tactile_paving": "no", "timeo": "25"}}, {"type": "node", "id": 735058121, "lat": 47.9563449, "lon": 0.1658589, "tags": {"bench": "no", "bus": "yes", "highway": "bus_stop", "name": "Lyc\u00e9e Malraux", "public_transport": "platform", "ref": "LYCMALR1", "shelter": "no", "tactile_paving": "no", "timeo": "442", "wheelchair": "limited"}}, {"type": "node", "id": 735064791, "lat": 47.9784238, "lon": 0.1730674, "tags": {"bench": "yes", "bus": "yes", "highway": "bus_stop", "name": "Patte d'Oie", "public_transport": "platform", "ref": "LEFAUCH1", "shelter": "yes", "tactile_paving": "yes", "timeo": "406", "wheelchair": "yes"}}, {"type": "node", "id": 735064794, "lat": 47.9850016, "lon": 0.1782592, "tags": {"bench": "yes", "bus": "yes", "check_date:shelter": "2022-04-29", "highway": "bus_stop", "name": "Angevini\u00e8re", "public_transport": "platform", "ref": "ANGEVIN1", "shelter": "yes", "tactile_paving": "no", "timeo": "26", "wheelchair": "limited"}}, {"type": "node", "id": 735064798, "lat": 47.976375, "lon": 0.167892, "tags": {"bench": "yes", "bus": "yes", "highway": "bus_stop", "name": "Martin Br\u00e9guet", "public_transport": "platform", "ref": "BREGUET1", "shelter": "yes", "tactile_paving": "no", "timeo": "118"}}, {"type": "node", "id": 735069371, "lat": 47.9899642, "lon": 0.1820948, "tags": {"bench": "yes", "bus": "yes", "highway": "bus_stop", "name": "P\u00eacheurs", "public_transport": "platform", "ref": "PECHEURS1", "shelter": "yes", "tactile_paving": "no", "timeo": "548", "wheelchair": "yes"}}, {"type": "node", "id": 735069375, "lat": 47.9943745, "lon": 0.185531, "tags": {"bench": "yes", "bin": "yes", "bus": "yes", "highway": "bus_stop", "lit": "yes", "name": "Novaxud", "public_transport": "platform", "ref": "NOVAXIS1", "shelter": "yes", "tactile_paving": "yes", "timeo": "515", "wheelchair": "yes"}}, {"type": "node", "id": 735110595, "lat": 48.0199593, "lon": 0.20631, "tags": {"bench": "yes", "bin": "yes", "bus": "yes", "covered": "no", "highway": "bus_stop", "name": "Copenhague", "public_transport": "platform", "shelter": "yes", "timeo": "208"}}, {"type": "node", "id": 735110598, "lat": 48.0185394, "lon": 0.2083961, "tags": {"bus": "yes", "highway": "bus_stop", "name": "Paul Louis Jacques", "public_transport": "platform", "shelter": "yes", "timeo": "570"}}, {"type": "node", "id": 735110600, "lat": 48.0184415, "lon": 0.2083311, "tags": {"bus": "yes", "highway": "bus_stop", "name": "Paul Louis Jacques", "public_transport": "platform", "shelter": "yes", "timeo": "571"}}, {"type": "node", "id": 735110607, "lat": 48.0159191, "lon": 0.2031928, "tags": {"bench": "yes", "bin": "yes", "bus": "yes", "highway": "bus_stop", "name": "Coll\u00e8ge Psalette", "public_transport": "platform", "shelter": "yes", "timeo": "47"}}, {"type": "node", "id": 735110613, "lat": 48.0239171, "lon": 0.2052588, "tags": {"bench": "yes", "bin": "yes", "bus": "yes", "highway": "bus_stop", "name": "\u00c9glise Coulaines", "public_transport": "platform", "shelter": "yes", "timeo": "252"}}, {"type": "node", "id": 735110616, "lat": 48.0241628, "lon": 0.2047942, "tags": {"bench": "yes", "bin": "yes", "bus": "yes", "highway": "bus_stop", "name": "\u00c9glise Coulaines", "public_transport": "platform", "shelter": "yes", "timeo": "251"}}, {"type": "node", "id": 735110620, "lat": 48.0220346, "lon": 0.2067574, "tags": {"bench": "yes", "bin": "yes", "bus": "yes", "highway": "bus_stop", "name": "Europe", "public_transport": "platform", "shelter": "yes", "timeo": "276"}}, {"type": "node", "id": 735110622, "lat": 48.0218769, "lon": 0.2068391, "tags": {"bench": "yes", "bin": "yes", "bus": "yes", "highway": "bus_stop", "name": "Europe", "public_transport": "platform", "shelter": "yes", "timeo": "277"}}, {"type": "node", "id": 735110625, "lat": 48.0196346, "lon": 0.206404, "tags": {"bench": "yes", "bin": "yes", "bus": "yes", "highway": "bus_stop", "name": "Copenhague", "public_transport": "platform", "shelter": "no", "timeo": "209"}}, {"type": "node", "id": 735110631, "lat": 48.0241364, "lon": 0.2022869, "tags": {"bench": "yes", "bin": "yes", "bus": "yes", "highway": "bus_stop", "lit": "no", "name": "La Paix", "public_transport": "platform", "shelter": "yes", "tactile_paving": "yes", "timeo": "391", "wheelchair": "yes"}}, {"type": "node", "id": 739001833, "lat": 47.9701316, "lon": 0.1595653, "tags": {"bench": "yes", "bin": "yes", "bus": "yes", "check_date:shelter": "2022-04-29", "highway": "bus_stop", "lit": "yes", "name": "Mairie d'Allonnes", "public_transport": "platform", "shelter": "yes", "tactile_paving": "yes", "timeo": "413", "wheelchair": "yes"}}, {"type": "node", "id": 740158380, "lat": 48.0033293, "lon": 0.1993721, "tags": {"bench": "yes", "bus": "yes", "highway": "bus_stop", "name": "R\u00e9publique", "public_transport": "platform", "ref": "REPLE1", "shelter": "yes", "tactile_paving": "yes", "timeo": "619", "wheelchair": "yes"}}, {"type": "node", "id": 749854613, "lat": 47.9737825, "lon": 0.2060126, "tags": {"bench": "yes", "bus": "yes", "highway": "bus_stop", "name": "Ronceray", "public_transport": "platform", "shelter": "yes", "tactile_paving": "yes", "timeo": "630", "wheelchair": "yes"}}, {"type": "node", "id": 749854619, "lat": 47.9647831, "lon": 0.2018123, "tags": {"bench": "yes", "bus": "yes", "highway": "bus_stop", "name": "Jules V\u00e9drines", "public_transport": "platform", "shelter": "no", "tactile_paving": "yes", "timeo": "379", "wheelchair": "yes"}}, {"type": "node", "id": 749854624, "lat": 47.9823976, "lon": 0.2101225, "tags": {"bench": "yes", "bin": "yes", "bus": "yes", "highway": "bus_stop", "lit": "no", "name": "Pontlieue Geneslay", "public_transport": "platform", "ref": "PONTLIE3", "shelter": "yes", "tactile_paving": "yes", "timeo": "580", "wheelchair": "yes"}}, {"type": "node", "id": 749854630, "lat": 47.971352, "lon": 0.2048767, "tags": {"bench": "yes", "bus": "yes", "highway": "bus_stop", "name": "Maroc", "public_transport": "platform", "shelter": "yes", "tactile_paving": "yes", "timeo": "462", "wheelchair": "yes"}}, {"type": "node", "id": 749854634, "lat": 47.9478835, "lon": 0.1941902, "tags": {"bench": "yes", "bus": "yes", "highway": "bus_stop", "name": "A\u00e9rodrome", "public_transport": "platform", "shelter": "yes", "tactile_paving": "yes", "timeo": "19", "wheelchair": "yes"}}, {"type": "node", "id": 749854640, "lat": 47.9799584, "lon": 0.2089629, "tags": {"bench": "yes", "bin": "yes", "bus": "yes", "highway": "bus_stop", "name": "Sapins", "public_transport": "platform", "shelter": "yes", "tactile_paving": "yes", "timeo": "664", "wheelchair": "yes"}}, {"type": "node", "id": 749854644, "lat": 47.9451154, "lon": 0.1878508, "tags": {"bench": "yes", "bus": "yes", "highway": "bus_stop", "name": "Pommiers", "public_transport": "platform", "shelter": "no", "tactile_paving": "no", "timeo": "575", "wheelchair": "no"}}, {"type": "node", "id": 749854649, "lat": 47.9606454, "lon": 0.1999001, "tags": {"bench": "no", "bin": "yes", "bus": "yes", "highway": "bus_stop", "lit": "yes", "name": "Oasis - Centre des Expositions", "public_transport": "platform", "shelter": "no", "tactile_paving": "no", "timeo": "517", "wheelchair": "no"}}, {"type": "node", "id": 749854655, "lat": 47.947783, "lon": 0.1940009, "tags": {"bench": "yes", "bus": "yes", "highway": "bus_stop", "name": "A\u00e9rodrome", "public_transport": "platform", "shelter": "yes", "tactile_paving": "yes", "timeo": "18", "wheelchair": "yes"}}, {"type": "node", "id": 749854659, "lat": 47.9824569, "lon": 0.2069319, "tags": {"bench": "yes", "bin": "yes", "bus": "yes", "highway": "bus_stop", "lit": "no", "name": "Champ de Mars", "public_transport": "platform", "shelter": "yes", "tactile_paving": "yes"}}, {"type": "node", "id": 749854667, "lat": 47.9755033, "lon": 0.2068058, "tags": {"bench": "yes", "bin": "yes", "bus": "yes", "highway": "bus_stop", "name": "Cit\u00e9 Joly", "public_transport": "platform", "shelter": "yes", "tactile_paving": "yes", "timeo": "182", "wheelchair": "yes"}}, {"type": "node", "id": 749854672, "lat": 47.9507586, "lon": 0.1955132, "tags": {"bench": "yes", "bus": "yes", "highway": "bus_stop", "name": "Actisud", "public_transport": "platform", "shelter": "yes", "tactile_paving": "yes", "wheelchair": "yes"}}, {"type": "node", "id": 749854677, "lat": 47.9501218, "lon": 0.1951042, "tags": {"bench": "yes", "bus": "yes", "highway": "bus_stop", "name": "Actisud", "public_transport": "platform", "shelter": "yes", "tactile_paving": "yes", "wheelchair": "yes"}}, {"type": "node", "id": 749854682, "lat": 47.9698795, "lon": 0.2041863, "tags": {"bench": "yes", "bus": "yes", "highway": "bus_stop", "name": "Ch\u00e2teau d'Eau", "public_transport": "platform", "shelter": "yes", "tactile_paving": "yes", "timeo": "164", "wheelchair": "yes"}}, {"type": "node", "id": 749854686, "lat": 47.9672298, "lon": 0.2029252, "tags": {"bench": "yes", "bus": "yes", "highway": "bus_stop", "name": "Lazare Weiller", "public_transport": "platform", "shelter": "yes", "tactile_paving": "yes", "timeo": "439", "wheelchair": "yes"}}, {"type": "node", "id": 749854698, "lat": 47.9450068, "lon": 0.187873, "tags": {"bench": "yes", "bus": "yes", "highway": "bus_stop", "name": "Pommiers", "public_transport": "platform", "shelter": "no", "tactile_paving": "no", "timeo": "576", "wheelchair": "no"}}, {"type": "node", "id": 749854701, "lat": 47.9831517, "lon": 0.2043085, "tags": {"bench": "yes", "bus": "yes", "highway": "bus_stop", "name": "Bobet", "public_transport": "platform", "shelter": "yes", "tactile_paving": "yes"}}, {"type": "node", "id": 750023568, "lat": 47.9804821, "lon": 0.1788527, "tags": {"bench": "yes", "bus": "yes", "highway": "bus_stop", "name": "Renault", "public_transport": "platform", "shelter": "yes"}}, {"type": "node", "id": 750023569, "lat": 47.9388904, "lon": 0.1854436, "tags": {"bench": "yes", "bus": "yes", "highway": "bus_stop", "name": "Coll\u00e8ges", "public_transport": "platform", "shelter": "yes", "tactile_paving": "no", "timeo": "200", "wheelchair": "limited"}}, {"type": "node", "id": 750023571, "lat": 47.9462926, "lon": 0.1862852, "tags": {"bus": "yes", "highway": "bus_stop", "name": "\u00c9tang", "public_transport": "platform", "shelter": "yes"}}, {"type": "node", "id": 750023572, "lat": 47.9724647, "lon": 0.176558, "tags": {"bus": "yes", "highway": "bus_stop", "name": "Bessemer", "public_transport": "platform"}}, {"type": "node", "id": 750023575, "lat": 47.9250134, "lon": 0.1866994, "tags": {"bench": "yes", "bus": "yes", "highway": "bus_stop", "name": "La Vall\u00e9e", "public_transport": "platform", "shelter": "yes", "tactile_paving": "no", "timeo": "400", "wheelchair": "no"}}, {"type": "node", "id": 750023576, "lat": 47.9883319, "lon": 0.2011386, "tags": {"bench": "no", "bus": "yes", "highway": "bus_stop", "name": "Feydeau", "public_transport": "platform", "shelter": "no", "tactile_paving": "no", "wheelchair": "no"}}, {"type": "node", "id": 750023577, "lat": 47.9456747, "lon": 0.1843309, "tags": {"bench": "yes", "bus": "yes", "highway": "bus_stop", "name": "La Gautrie", "public_transport": "platform", "shelter": "no", "tactile_paving": "no", "timeo": "326", "wheelchair": "yes"}}, {"type": "node", "id": 750023578, "lat": 47.9640793, "lon": 0.1798462, "tags": {"bus": "yes", "highway": "bus_stop", "name": "Z.I. Sud", "public_transport": "platform"}}, {"type": "node", "id": 750023579, "lat": 47.9274418, "lon": 0.184911, "tags": {"bench": "yes", "bus": "yes", "highway": "bus_stop", "name": "Avenue Nationale", "public_transport": "platform", "shelter": "yes", "tactile_paving": "no", "timeo": "45", "wheelchair": "no"}}, {"type": "node", "id": 750023580, "lat": 47.9912844, "lon": 0.1985729, "tags": {"bench": "no", "bin": "yes", "bus": "yes", "highway": "bus_stop", "lit": "yes", "name": "Carel Mutualit\u00e9", "public_transport": "platform", "shelter": "no", "tactile_paving": "no"}}, {"type": "node", "id": 750023581, "lat": 47.9500037, "lon": 0.1885633, "tags": {"bus": "yes", "highway": "bus_stop", "name": "Renoncules", "public_transport": "platform"}}, {"type": "node", "id": 750023583, "lat": 47.9381214, "lon": 0.1856146, "tags": {"bench": "yes", "bus": "yes", "highway": "bus_stop", "name": "Coll\u00e8ges", "public_transport": "platform", "shelter": "no", "tactile_paving": "no", "timeo": "199", "wheelchair": "limited"}}, {"type": "node", "id": 750023584, "lat": 47.9763144, "lon": 0.1759863, "tags": {"bus": "yes", "highway": "bus_stop", "name": "SETRAM", "public_transport": "platform"}}, {"type": "node", "id": 750023585, "lat": 47.96702, "lon": 0.1832766, "tags": {"bus": "yes", "highway": "bus_stop", "name": "\u00c9quipement", "public_transport": "platform"}}, {"type": "node", "id": 750023586, "lat": 47.9650182, "lon": 0.1844375, "tags": {"bus": "yes", "highway": "bus_stop", "name": "Jacquart", "public_transport": "platform"}}, {"type": "node", "id": 750023588, "lat": 47.9649711, "lon": 0.185385, "tags": {"bus": "yes", "highway": "bus_stop", "name": "Calberson", "public_transport": "platform"}}, {"type": "node", "id": 750023589, "lat": 47.9227601, "lon": 0.1856635, "tags": {"bus": "yes", "highway": "bus_stop", "name": "Croix de Braye", "public_transport": "platform", "timeo": "219"}}, {"type": "node", "id": 750023590, "lat": 47.9313076, "lon": 0.1866782, "tags": {"bench": "yes", "bus": "yes", "highway": "bus_stop", "name": "Rue du Port", "public_transport": "platform", "shelter": "yes", "tactile_paving": "no", "timeo": "646", "wheelchair": "no"}}, {"type": "node", "id": 750023591, "lat": 47.9504968, "lon": 0.1882494, "tags": {"bus": "yes", "highway": "bus_stop", "name": "Renoncules", "public_transport": "platform"}}, {"type": "node", "id": 750023592, "lat": 47.9646442, "lon": 0.1853946, "tags": {"bus": "yes", "highway": "bus_stop", "name": "Calberson", "public_transport": "platform"}}, {"type": "node", "id": 750023593, "lat": 47.9455612, "lon": 0.1842988, "tags": {"bench": "yes", "bus": "yes", "highway": "bus_stop", "name": "La Gautrie", "public_transport": "platform", "shelter": "yes", "tactile_paving": "no", "timeo": "327", "wheelchair": "yes"}}, {"type": "node", "id": 750023594, "lat": 47.9611154, "lon": 0.1865478, "tags": {"bus": "yes", "highway": "bus_stop", "name": "Saint-Julien", "public_transport": "platform"}}, {"type": "node", "id": 750023595, "lat": 47.9355793, "lon": 0.1867052, "tags": {"bench": "no", "bus": "yes", "highway": "bus_stop", "name": "Nauguibert", "public_transport": "platform", "shelter": "no", "tactile_paving": "no", "timeo": "507", "wheelchair": "no"}}, {"type": "node", "id": 750023597, "lat": 47.9632243, "lon": 0.1771719, "tags": {"bus": "yes", "highway": "bus_stop", "name": "Becquerel", "public_transport": "platform"}}, {"type": "node", "id": 750023598, "lat": 47.9285821, "lon": 0.1853002, "tags": {"bench": "yes", "highway": "bus_stop", "name": "Avenue Nationale", "public_transport": "stop_position", "shelter": "yes", "tactile_paving": "no"}}, {"type": "node", "id": 750023599, "lat": 47.9317534, "lon": 0.1868163, "tags": {"bench": "yes", "bus": "yes", "highway": "bus_stop", "name": "Rue du Port", "public_transport": "platform", "shelter": "yes", "tactile_paving": "no", "timeo": "645", "wheelchair": "no"}}, {"type": "node", "id": 750023600, "lat": 47.993036, "lon": 0.1969906, "tags": {"bench": "no", "bin": "yes", "bus": "yes", "highway": "bus_stop", "lit": "yes", "name": "Yourcenar", "public_transport": "platform", "shelter": "no", "tactile_paving": "yes"}}, {"type": "node", "id": 750023601, "lat": 47.9768902, "lon": 0.1761753, "tags": {"bus": "yes", "highway": "bus_stop", "name": "SETRAM", "public_transport": "platform"}}, {"type": "node", "id": 750023603, "lat": 47.9814971, "lon": 0.1802523, "tags": {"bench": "yes", "bus": "yes", "highway": "bus_stop", "name": "Renault", "public_transport": "platform", "shelter": "yes"}}, {"type": "node", "id": 750023604, "lat": 47.9694929, "lon": 0.1806598, "tags": {"bus": "yes", "highway": "bus_stop", "name": "Foucaudi\u00e8re", "public_transport": "platform"}}, {"type": "node", "id": 750023605, "lat": 47.9786981, "lon": 0.1777155, "tags": {"bus": "yes", "highway": "bus_stop", "name": "Pierre Piffault", "public_transport": "platform"}}, {"type": "node", "id": 750023606, "lat": 47.9269603, "lon": 0.1874202, "tags": {"bench": "yes", "bus": "yes", "highway": "bus_stop", "name": "H\u00f4tel de Ville Arnage", "public_transport": "platform", "shelter": "yes", "tactile_paving": "yes", "timeo": "358", "wheelchair": "yes"}}, {"type": "node", "id": 750023608, "lat": 47.9463715, "lon": 0.186446, "tags": {"bus": "yes", "highway": "bus_stop", "name": "\u00c9tang", "public_transport": "platform", "shelter": "yes"}}, {"type": "node", "id": 750023609, "lat": 47.936004, "lon": 0.1867403, "tags": {"bench": "yes", "bus": "yes", "highway": "bus_stop", "name": "Nauguibert", "public_transport": "platform", "shelter": "yes", "tactile_paving": "no", "timeo": "508", "wheelchair": "no"}}, {"type": "node", "id": 750023610, "lat": 47.9732692, "lon": 0.1758333, "tags": {"bus": "yes", "highway": "bus_stop", "name": "Bessemer", "public_transport": "platform"}}, {"type": "node", "id": 750023611, "lat": 47.9224401, "lon": 0.1845882, "tags": {"bench": "yes", "bus": "yes", "highway": "bus_stop", "name": "Route du Lude", "public_transport": "platform", "shelter": "yes", "tactile_paving": "no", "timeo": "636", "wheelchair": "no"}}, {"type": "node", "id": 750023612, "lat": 47.9604072, "lon": 0.179083, "tags": {"bus": "yes", "highway": "bus_stop", "name": "Faraday", "public_transport": "platform"}}, {"type": "node", "id": 750023613, "lat": 47.9787308, "lon": 0.1775519, "tags": {"bus": "yes", "highway": "bus_stop", "name": "Pierre Piffault", "public_transport": "platform"}}, {"type": "node", "id": 750023614, "lat": 47.9612948, "lon": 0.1851389, "tags": {"bus": "yes", "highway": "bus_stop", "name": "Abattoirs", "public_transport": "platform"}}, {"type": "node", "id": 750023616, "lat": 47.9537209, "lon": 0.1846189, "tags": {"bus": "yes", "highway": "bus_stop", "name": "Monier", "public_transport": "platform"}}, {"type": "node", "id": 750023617, "lat": 47.9608663, "lon": 0.1863277, "tags": {"bus": "yes", "highway": "bus_stop", "name": "Saint-Julien", "public_transport": "platform"}}, {"type": "node", "id": 750023619, "lat": 47.9536211, "lon": 0.1845876, "tags": {"bus": "yes", "highway": "bus_stop", "name": "Monier", "public_transport": "platform"}}, {"type": "node", "id": 750023620, "lat": 47.9252478, "lon": 0.1839214, "tags": {"bench": "yes", "bus": "yes", "highway": "bus_stop", "name": "Beuruay", "public_transport": "platform", "shelter": "yes", "tactile_paving": "yes", "timeo": "85", "wheelchair": "yes"}}, {"type": "node", "id": 750023621, "lat": 47.969632, "lon": 0.1802682, "tags": {"bus": "yes", "highway": "bus_stop", "name": "Foucaudi\u00e8re", "public_transport": "platform"}}, {"type": "node", "id": 750023622, "lat": 47.9831744, "lon": 0.1833534, "tags": {"bench": "yes", "bus": "yes", "highway": "bus_stop", "name": "Spoutnik", "public_transport": "platform", "shelter": "yes"}}, {"type": "node", "id": 750023623, "lat": 47.9674078, "lon": 0.183095, "tags": {"bus": "yes", "highway": "bus_stop", "name": "\u00c9quipement", "public_transport": "platform"}}, {"type": "node", "id": 750023624, "lat": 47.9890042, "lon": 0.1905237, "tags": {"bench": "no", "bin": "yes", "bus": "yes", "highway": "bus_stop", "lit": "no", "name": "Jean Michel Gaudr\u00e9", "public_transport": "platform", "shelter": "no", "tactile_paving": "no"}}, {"type": "node", "id": 750023626, "lat": 47.9834501, "lon": 0.1834595, "tags": {"bench": "yes", "bus": "yes", "highway": "bus_stop", "name": "Spoutnik", "public_transport": "platform", "shelter": "yes"}}, {"type": "node", "id": 756209042, "lat": 48.0040146, "lon": 0.1989142, "tags": {"bench": "yes", "bin": "yes", "bus": "yes", "highway": "bus_stop", "name": "De Gaulle", "public_transport": "platform", "ref": "DEGAUL1", "shelter": "yes", "source": "cadastre-dgi-fr source : Direction G\u00e9n\u00e9rale des Imp\u00f4ts - Cadastre. Mise \u00e0 jour : 2010", "tactile_paving": "yes", "timeo": "269", "wheelchair": "yes"}}, {"type": "node", "id": 799537453, "lat": 47.9948951, "lon": 0.1916094}, {"type": "node", "id": 799538036, "lat": 47.9949588, "lon": 0.1916363}, {"type": "node", "id": 799538078, "lat": 47.9948052, "lon": 0.191372}, {"type": "node", "id": 799539180, "lat": 47.9950624, "lon": 0.1909507}, {"type": "node", "id": 799541303, "lat": 47.9951164, "lon": 0.1909073}, {"type": "node", "id": 799552198, "lat": 47.9950281, "lon": 0.1910024}, {"type": "node", "id": 799553371, "lat": 47.9950406, "lon": 0.1909799}, {"type": "node", "id": 799555884, "lat": 47.9948752, "lon": 0.1915956}, {"type": "node", "id": 799556421, "lat": 47.99509, "lon": 0.1909243}, {"type": "node", "id": 799560382, "lat": 47.9949347, "lon": 0.1912708}, {"type": "node", "id": 799562562, "lat": 47.995073, "lon": 0.1909392}, {"type": "node", "id": 799566087, "lat": 47.9950171, "lon": 0.1910264}, {"type": "node", "id": 799566498, "lat": 47.9950016, "lon": 0.1910747}, {"type": "node", "id": 799567287, "lat": 47.9949041, "lon": 0.1916206}, {"type": "node", "id": 799577420, "lat": 47.9949211, "lon": 0.1916336}, {"type": "node", "id": 799577767, "lat": 47.9948687, "lon": 0.1915983}, {"type": "node", "id": 799579842, "lat": 47.9949018, "lon": 0.1916183, "tags": {"amenity": "parking_entrance"}}, {"type": "node", "id": 799584537, "lat": 47.9949255, "lon": 0.1916357}, {"type": "node", "id": 799597071, "lat": 47.9951351, "lon": 0.1908993}, {"type": "node", "id": 799598002, "lat": 47.9950497, "lon": 0.1909662, "tags": {"addr:housenumber": "59"}}, {"type": "node", "id": 799604717, "lat": 47.9948844, "lon": 0.1915881}, {"type": "node", "id": 799607526, "lat": 47.9951481, "lon": 0.1908954}, {"type": "node", "id": 799623875, "lat": 47.9949145, "lon": 0.1916301}, {"type": "node", "id": 799626971, "lat": 47.9949465, "lon": 0.1912787}, {"type": "node", "id": 799629334, "lat": 47.9948788, "lon": 0.1915939}, {"type": "node", "id": 799633491, "lat": 47.9951014, "lon": 0.1909159}, {"type": "node", "id": 799641900, "lat": 47.9950124, "lon": 0.1910391, "tags": {"addr:city": "Le Mans", "addr:housenumber": "61", "addr:postcode": "72100", "addr:street": "Boulevard Marie et Alexandre Oyon"}}, {"type": "node", "id": 799643452, "lat": 47.9949093, "lon": 0.1916257}, {"type": "node", "id": 799663365, "lat": 47.995011, "lon": 0.1910431}, {"type": "node", "id": 799664567, "lat": 47.9948644, "lon": 0.1915986}, {"type": "node", "id": 799687050, "lat": 47.9951582, "lon": 0.1908933}, {"type": "node", "id": 799687577, "lat": 47.9949313, "lon": 0.1916378}, {"type": "node", "id": 799687863, "lat": 47.9948852, "lon": 0.1915896}, {"type": "node", "id": 799696095, "lat": 47.9948852, "lon": 0.1915881}, {"type": "node", "id": 799698128, "lat": 47.9948883, "lon": 0.1915973}, {"type": "node", "id": 799698385, "lat": 47.9948091, "lon": 0.1913555}, {"type": "node", "id": 799707211, "lat": 47.9949516, "lon": 0.1916382}, {"type": "node", "id": 799709289, "lat": 47.9949379, "lon": 0.191639}, {"type": "node", "id": 813826240, "lat": 47.9953644, "lon": 0.193685}, {"type": "node", "id": 813930117, "lat": 47.9957393, "lon": 0.1914962}, {"type": "node", "id": 814054975, "lat": 48.0109313, "lon": 0.1890686, "tags": {"addr:housenumber": "1", "bench": "yes", "bin": "no", "bus": "yes", "highway": "bus_stop", "name": "Boutti\u00e9", "public_transport": "platform", "shelter": "no", "tactile_paving": "no", "wheelchair": "no"}}, {"type": "node", "id": 1088300259, "lat": 47.8702247, "lon": 0.3331739, "tags": {"highway": "bus_stop", "source": "cadastre-dgi-fr source : Direction G\u00e9n\u00e9rale des Imp\u00f4ts - Cadastre. Mise \u00e0 jour : 2011"}}, {"type": "node", "id": 1102036684, "lat": 47.8712168, "lon": 0.3247937, "tags": {"bench": "yes", "highway": "bus_stop", "name": "\u00c9cole le Patou", "shelter": "yes", "tactile_paving": "no"}}, {"type": "node", "id": 1244412159, "lat": 47.9880694, "lon": 0.2761114, "tags": {"highway": "bus_stop", "name": "Tennis", "public_transport": "stop_position"}}, {"type": "node", "id": 1244412166, "lat": 47.9852022, "lon": 0.2839494, "tags": {"highway": "bus_stop", "name": "Centre Rabelais", "public_transport": "stop_position"}}, {"type": "node", "id": 1244412193, "lat": 47.9920485, "lon": 0.2345171, "tags": {"bus": "yes", "highway": "bus_stop", "name": "Gu\u00e9 Bernisson", "public_transport": "platform"}}, {"type": "node", "id": 1244412217, "lat": 47.9881552, "lon": 0.2761388, "tags": {"highway": "bus_stop", "name": "Tennis", "public_transport": "stop_position"}}, {"type": "node", "id": 1244860718, "lat": 47.9841516, "lon": 0.2712506, "tags": {"highway": "bus_stop", "name": "Courteboule", "public_transport": "stop_position"}}, {"type": "node", "id": 1244860729, "lat": 47.984159, "lon": 0.2710696, "tags": {"highway": "bus_stop", "name": "Courteboule", "public_transport": "stop_position"}}, {"type": "node", "id": 1244860746, "lat": 47.9852831, "lon": 0.22538, "tags": {"bench": "yes", "bin": "yes", "bus": "yes", "check_date:shelter": "2022-12-17", "highway": "bus_stop", "lit": "yes", "name": "Funay", "public_transport": "platform", "shelter": "yes", "tactile_paving": "no", "timeo": "307", "wheelchair": "limited"}}, {"type": "node", "id": 1244860759, "lat": 47.9806431, "lon": 0.2338271, "tags": {"bench": "no", "bus": "yes", "highway": "bus_stop", "name": "Escra", "public_transport": "platform", "shelter": "no", "tactile_paving": "yes", "wheelchair": "yes"}}, {"type": "node", "id": 1244860803, "lat": 47.981021, "lon": 0.2336229, "tags": {"bench": "no", "bus": "yes", "highway": "bus_stop", "name": "Escra", "public_transport": "platform", "shelter": "no", "tactile_paving": "yes", "wheelchair": "yes"}}, {"type": "node", "id": 1244860809, "lat": 47.9847597, "lon": 0.2403157, "tags": {"bench": "yes", "bin": "yes", "bus": "yes", "check_date:shelter": "2024-01-02", "highway": "bus_stop", "name": "Californie", "public_transport": "platform", "shelter": "yes", "tactile_paving": "no", "timeo": "126", "wheelchair": "yes"}}, {"type": "node", "id": 1244860864, "lat": 47.983117, "lon": 0.2334109, "tags": {"bench": "yes", "bin": "yes", "bus": "yes", "check_date:shelter": "2022-12-17", "highway": "bus_stop", "name": "C.F.A.", "public_transport": "platform", "shelter": "yes", "tactile_paving": "no", "timeo": "152", "wheelchair": "limited"}}, {"type": "node", "id": 1244860905, "lat": 47.9824849, "lon": 0.2284825, "tags": {"bench": "yes", "bus": "yes", "highway": "bus_stop", "name": "Lyc\u00e9e Sud", "public_transport": "platform", "shelter": "yes", "tactile_paving": "no", "timeo": "445", "wheelchair": "limited"}}, {"type": "node", "id": 1244860930, "lat": 47.9832645, "lon": 0.2257073, "tags": {"bench": "yes", "bus": "yes", "highway": "bus_stop", "name": "Diesel", "public_transport": "platform", "shelter": "yes", "tactile_paving": "no", "timeo": "242", "wheelchair": "limited"}}, {"type": "node", "id": 1244893156, "lat": 47.9850431, "lon": 0.2837937, "tags": {"highway": "bus_stop", "name": "Maison de Retraite", "public_transport": "stop_position"}}, {"type": "node", "id": 1244893158, "lat": 47.9810957, "lon": 0.3388391, "tags": {"highway": "bus_stop", "name": "Les Commerries"}}, {"type": "node", "id": 1244893163, "lat": 47.9619697, "lon": 0.3393847, "tags": {"highway": "bus_stop", "name": "Les Venelles"}}, {"type": "node", "id": 1244893165, "lat": 47.9851635, "lon": 0.2839919, "tags": {"highway": "bus_stop", "name": "Maison de Retraite", "public_transport": "stop_position"}}, {"type": "node", "id": 1244893169, "lat": 47.9618665, "lon": 0.3393072, "tags": {"highway": "bus_stop", "name": "Les Venelles"}}, {"type": "node", "id": 1249329326, "lat": 48.010275, "lon": 0.1992955, "tags": {"bench": "no", "bin": "no", "bus": "yes", "check_date:shelter": "2022-12-25", "highway": "bus_stop", "lit": "no", "name": "Saint-Vincent", "public_transport": "platform", "ref": "VINCENT2", "shelter": "no", "tactile_paving": "no", "timeo": "702", "wheelchair": "limited"}}, {"type": "node", "id": 1249329332, "lat": 48.0134106, "lon": 0.2006022, "tags": {"bench": "no", "bin": "no", "bus": "yes", "highway": "bus_stop", "name": "Delageni\u00e8re", "public_transport": "platform", "shelter": "no", "timeo": "234"}}, {"type": "node", "id": 1253891150, "lat": 48.0115564, "lon": 0.188292, "tags": {"bench": "yes", "bin": "yes", "bus": "yes", "highway": "bus_stop", "lit": "yes", "name": "Boutti\u00e9", "public_transport": "platform", "shelter": "yes", "tactile_paving": "no", "wheelchair": "limited"}}, {"type": "node", "id": 1253891153, "lat": 48.011917, "lon": 0.1853235, "tags": {"bench": "yes", "bin": "yes", "bus": "yes", "highway": "bus_stop", "lit": "yes", "name": "M\u00fbriers", "public_transport": "platform", "ref": "MURIERS2", "shelter": "no", "tactile_paving": "yes", "timeo": "500", "wheelchair": "yes"}}, {"type": "node", "id": 1253891158, "lat": 48.0090136, "lon": 0.1808781, "tags": {"bench": "no", "bin": "yes", "bus": "yes", "highway": "bus_stop", "name": "Pav\u00e9", "public_transport": "platform", "ref": "PAVE1", "shelter": "no", "tactile_paving": "no", "timeo": "546", "wheelchair": "no"}}, {"type": "node", "id": 1253891159, "lat": 48.0119085, "lon": 0.1819407, "tags": {"bench": "yes", "bin": "yes", "bus": "yes", "check_date:shelter": "2022-06-07", "highway": "bus_stop", "lit": "yes", "name": "Th\u00e9odore Monod", "public_transport": "platform", "ref": "MONOD2", "shelter": "yes", "tactile_paving": "yes", "timeo": "716", "wheelchair": "yes"}}, {"type": "node", "id": 1253919792, "lat": 48.0081095, "lon": 0.1896673, "tags": {"bench": "yes", "bin": "yes", "bus": "yes", "highway": "bus_stop", "name": "Ch\u00eane Vert", "public_transport": "platform", "ref": "CHENE V2", "shelter": "yes", "tactile_paving": "yes", "timeo": "172", "wheelchair": "yes"}}, {"type": "node", "id": 1253950476, "lat": 48.0045439, "lon": 0.1937958, "tags": {"bench": "yes", "bin": "yes", "bus": "yes", "highway": "bus_stop", "lit": "yes", "name": "Les Halles", "public_transport": "platform", "shelter": "yes", "tactile_paving": "yes", "timeo": "349", "wheelchair": "yes"}}, {"type": "node", "id": 1253952092, "lat": 48.0023827, "lon": 0.1927357, "tags": {"bench": "yes", "bin": "yes", "bus": "yes", "check_date:shelter": "2023-07-23", "highway": "bus_stop", "lit": "yes", "name": "M\u00e9diath\u00e8que", "public_transport": "platform", "ref": "MEDIATH2", "shelter": "yes", "tactile_paving": "no", "timeo": "471", "wheelchair": "limited"}}, {"type": "node", "id": 1253952094, "lat": 48.0024012, "lon": 0.1924175, "tags": {"bench": "no", "bus": "yes", "highway": "bus_stop", "name": "M\u00e9diath\u00e8que", "public_transport": "platform", "ref": "MEDIATH1", "shelter": "no", "tactile_paving": "no", "timeo": "470", "wheelchair": "no"}}, {"type": "node", "id": 1253967789, "lat": 48.0074962, "lon": 0.2000426, "tags": {"bench": "yes", "bin": "yes", "bus": "yes", "highway": "bus_stop", "name": "Mend\u00e8s France", "public_transport": "platform", "ref": "MENDES3", "shelter": "yes", "tactile_paving": "yes", "timeo": "476", "wheelchair": "yes"}}, {"type": "node", "id": 1253990630, "lat": 48.0101616, "lon": 0.1949178, "tags": {"bench": "no", "bin": "yes", "bus": "yes", "highway": "bus_stop", "lit": "yes", "name": "Ledru-Rollin", "public_transport": "platform", "ref": "CHRISTO2", "shelter": "no", "tactile_paving": "no", "timeo": "661", "wheelchair": "no"}}, {"type": "node", "id": 1253990631, "lat": 48.0101883, "lon": 0.1948656, "tags": {"bench": "yes", "bus": "yes", "highway": "bus_stop", "name": "Ledru-Rollin", "public_transport": "platform", "ref": "CHRISTO1", "shelter": "no", "tactile_paving": "no", "timeo": "662", "wheelchair": "limited"}}, {"type": "node", "id": 1253990632, "lat": 48.0125823, "lon": 0.1880258, "tags": {"bench": "yes", "bin": "yes", "bus": "yes", "highway": "bus_stop", "lit": "yes", "name": "Cochereaux", "public_transport": "platform", "ref": "COCHERE1", "shelter": "yes", "tactile_paving": "no", "timeo": "191", "wheelchair": "no"}}, {"type": "node", "id": 1254041818, "lat": 48.0152755, "lon": 0.1863455, "tags": {"bench": "no", "bus": "yes", "highway": "bus_stop", "name": "Chasse Royale", "public_transport": "platform", "ref": "ROYALE1", "shelter": "no", "tactile_paving": "no", "timeo": "161", "wheelchair": "no"}}, {"type": "node", "id": 1254041826, "lat": 48.014585, "lon": 0.1868446, "tags": {"bench": "yes", "bus": "yes", "highway": "bus_stop", "name": "Chasse Royale", "public_transport": "platform", "ref": "ROYALE2", "shelter": "yes", "tactile_paving": "no", "timeo": "162", "wheelchair": "no"}}, {"type": "node", "id": 1254342777, "lat": 48.0462719, "lon": 0.1732617, "tags": {"bus": "yes", "highway": "bus_stop", "name": "Bourdonni\u00e8re", "public_transport": "platform", "timeo": "779"}}, {"type": "node", "id": 1254342784, "lat": 48.0482024, "lon": 0.1727697, "tags": {"bench": "yes", "bin": "yes", "bus": "yes", "highway": "bus_stop", "lit": "yes", "name": "Cin\u00e9mas CGR", "public_transport": "platform", "shelter": "no", "tactile_paving": "no", "timeo": "197", "wheelchair": "no"}}, {"type": "node", "id": 1254342789, "lat": 48.0483887, "lon": 0.1726611, "tags": {"bench": "no", "bin": "no", "bus": "yes", "highway": "bus_stop", "lit": "yes", "name": "Cin\u00e9mas CGR", "public_transport": "platform", "shelter": "no", "tactile_paving": "no", "timeo": "198", "wheelchair": "no"}}, {"type": "node", "id": 1254353680, "lat": 48.0550318, "lon": 0.1676701, "tags": {"bench": "no", "bus": "yes", "highway": "bus_stop", "name": "Grues Rouges", "public_transport": "platform", "shelter": "no", "tactile_paving": "no", "timeo": "211", "wheelchair": "no"}}, {"type": "node", "id": 1254353681, "lat": 48.054983, "lon": 0.1674237, "tags": {"bench": "no", "bus": "yes", "highway": "bus_stop", "name": "Grues Rouges", "public_transport": "platform", "shelter": "no", "tactile_paving": "no", "timeo": "210", "wheelchair": "no"}}, {"type": "node", "id": 1254390988, "lat": 48.0603315, "lon": 0.1651447, "tags": {"bench": "no", "bus": "yes", "highway": "bus_stop", "name": "L'Arche", "public_transport": "platform", "shelter": "no", "tactile_paving": "no", "timeo": "939", "wheelchair": "no"}}, {"type": "node", "id": 1254390989, "lat": 48.059826, "lon": 0.1651316, "tags": {"bench": "no", "bus": "yes", "highway": "bus_stop", "name": "L'Arche", "public_transport": "platform", "shelter": "no", "tactile_paving": "no", "timeo": "938", "wheelchair": "no"}}, {"type": "node", "id": 1254391011, "lat": 48.0616633, "lon": 0.1626657, "tags": {"bus": "yes", "highway": "bus_stop", "name": "Antonni\u00e8re", "public_transport": "platform", "timeo": "140"}}, {"type": "node", "id": 1254391037, "lat": 48.0618363, "lon": 0.1626608, "tags": {"bus": "yes", "highway": "bus_stop", "name": "Antonni\u00e8re", "public_transport": "platform", "timeo": "141"}}, {"type": "node", "id": 1254693714, "lat": 48.0613392, "lon": 0.1546836, "tags": {"bench": "no", "bus": "yes", "highway": "bus_stop", "name": "Val de Vray", "public_transport": "platform", "shelter": "no", "tactile_paving": "no", "timeo": "452", "wheelchair": "no"}}, {"type": "node", "id": 1254693718, "lat": 48.0361527, "lon": 0.1590053, "tags": {"bench": "no", "bus": "yes", "highway": "bus_stop", "name": "Trang\u00e9", "public_transport": "platform", "ref": "TRANGE2", "shelter": "no", "tactile_paving": "yes", "timeo": "865", "wheelchair": "yes"}}, {"type": "node", "id": 1254693719, "lat": 48.0593699, "lon": 0.1525554, "tags": {"bench": "no", "bus": "yes", "highway": "bus_stop", "name": "\u00c9glise de Saint-Saturnin", "public_transport": "platform", "shelter": "no", "tactile_paving": "no", "timeo": "198", "wheelchair": "no"}}, {"type": "node", "id": 1254693728, "lat": 48.0615886, "lon": 0.1550515, "tags": {"bench": "no", "bus": "yes", "highway": "bus_stop", "name": "Val de Vray", "public_transport": "platform", "shelter": "no", "tactile_paving": "no", "timeo": "434", "wheelchair": "no"}}, {"type": "node", "id": 1254693730, "lat": 48.0344242, "lon": 0.1612739, "tags": {"bench": "yes", "bus": "yes", "highway": "bus_stop", "name": "\u00c9glise Saint-Aubin", "public_transport": "platform", "ref": "EGAUBIN1", "shelter": "yes", "tactile_paving": "yes", "timeo": "249", "wheelchair": "yes"}}, {"type": "node", "id": 1254693735, "lat": 48.0344366, "lon": 0.1614222, "tags": {"bench": "no", "bus": "yes", "highway": "bus_stop", "name": "\u00c9glise Saint-Aubin", "public_transport": "platform", "ref": "EGAUBIN2", "shelter": "no", "tactile_paving": "yes", "timeo": "250", "wheelchair": "yes"}}, {"type": "node", "id": 1254693742, "lat": 48.0584225, "lon": 0.1518413, "tags": {"bench": "no", "bus": "yes", "highway": "bus_stop", "name": "\u00c9glise de Saint-Saturnin", "public_transport": "platform", "shelter": "no", "tactile_paving": "no", "timeo": "197", "wheelchair": "no"}}, {"type": "node", "id": 1254693743, "lat": 48.0359256, "lon": 0.1592891, "tags": {"bench": "yes", "bus": "yes", "highway": "bus_stop", "name": "Trang\u00e9", "public_transport": "platform", "ref": "TRANGE1", "shelter": "no", "tactile_paving": "yes", "timeo": "864", "wheelchair": "yes"}}, {"type": "node", "id": 1254693744, "lat": 48.0371999, "lon": 0.1566437, "tags": {"bench": "yes", "bus": "yes", "highway": "bus_stop", "name": "La Chapelle Saint-Aubin", "public_transport": "platform", "ref": "AUBIN", "shelter": "yes", "tactile_paving": "yes", "timeo": "680", "wheelchair": "yes"}}, {"type": "node", "id": 1254734416, "lat": 48.0644941, "lon": 0.1188375, "tags": {"bench": "yes", "bin": "no", "bus": "yes", "highway": "bus_stop", "name": "Aign\u00e9", "public_transport": "platform", "shelter": "yes", "tactile_paving": "yes"}}, {"type": "node", "id": 1254734458, "lat": 48.0596879, "lon": 0.1430327, "tags": {"bench": "no", "bin": "yes", "bus": "yes", "highway": "bus_stop", "lit": "no", "name": "Gymnase", "public_transport": "platform", "shelter": "no", "tactile_paving": "no", "wheelchair": "no"}}, {"type": "node", "id": 1254734503, "lat": 48.0613933, "lon": 0.1402409, "tags": {"bench": "no", "bus": "yes", "highway": "bus_stop", "name": "Terroirie", "public_transport": "platform", "shelter": "no", "tactile_paving": "no", "timeo": "394", "wheelchair": "no"}}, {"type": "node", "id": 1254734578, "lat": 48.0596513, "lon": 0.143315, "tags": {"bench": "no", "bin": "yes", "bus": "yes", "highway": "bus_stop", "lit": "no", "name": "Gymnase", "public_transport": "platform", "shelter": "no", "tactile_paving": "no", "timeo": "320", "wheelchair": "no"}}, {"type": "node", "id": 1254734731, "lat": 48.0613638, "lon": 0.1401288, "tags": {"bench": "no", "bus": "yes", "highway": "bus_stop", "name": "Terroirie", "public_transport": "platform", "shelter": "no", "tactile_paving": "no", "timeo": "393", "wheelchair": "no"}}, {"type": "node", "id": 1254743106, "lat": 48.0709103, "lon": 0.1183686, "tags": {"bench": "no", "bus": "yes", "highway": "bus_stop", "name": "Bucheti\u00e8re", "public_transport": "platform", "shelter": "no", "tactile_paving": "no", "wheelchair": "no"}}, {"type": "node", "id": 1254743107, "lat": 48.0718882, "lon": 0.1310808, "tags": {"bench": "no", "bus": "yes", "highway": "bus_stop", "name": "La Mare", "public_transport": "platform", "shelter": "no", "tactile_paving": "no", "wheelchair": "no"}}, {"type": "node", "id": 1254743108, "lat": 48.0640266, "lon": 0.1317704, "tags": {"bench": "no", "bus": "yes", "highway": "bus_stop", "name": "Val Morand", "public_transport": "platform", "shelter": "no", "tactile_paving": "no", "timeo": "419", "wheelchair": "no"}}, {"type": "node", "id": 1254743109, "lat": 48.063671, "lon": 0.1364691, "tags": {"bench": "no", "bus": "yes", "highway": "bus_stop", "name": "La Milesse", "public_transport": "platform", "shelter": "no", "tactile_paving": "no", "timeo": "212", "wheelchair": "no"}}, {"type": "node", "id": 1254743110, "lat": 48.0640226, "lon": 0.1361823, "tags": {"bench": "no", "bus": "yes", "highway": "bus_stop", "name": "La Milesse", "public_transport": "platform", "shelter": "no", "tactile_paving": "no", "timeo": "215", "wheelchair": "no"}}, {"type": "node", "id": 1254743111, "lat": 48.0640918, "lon": 0.1316806, "tags": {"bench": "no", "bus": "yes", "highway": "bus_stop", "name": "Val Morand", "public_transport": "platform", "shelter": "no", "tactile_paving": "no", "timeo": "420", "wheelchair": "no"}}, {"type": "node", "id": 1254743112, "lat": 48.0780216, "lon": 0.1153958, "tags": {"bench": "no", "bus": "yes", "highway": "bus_stop", "name": "Maqu\u00e8re", "public_transport": "platform", "shelter": "no", "tactile_paving": "no", "wheelchair": "no"}}, {"type": "node", "id": 1254743113, "lat": 48.070905, "lon": 0.1184462, "tags": {"bench": "no", "bus": "yes", "highway": "bus_stop", "name": "Bucheti\u00e8re", "public_transport": "platform", "shelter": "no", "tactile_paving": "no", "wheelchair": "no"}}, {"type": "node", "id": 1254743114, "lat": 48.0721694, "lon": 0.1310258, "tags": {"bench": "no", "bus": "yes", "highway": "bus_stop", "name": "La Mare", "public_transport": "platform", "shelter": "no", "tactile_paving": "no", "wheelchair": "no"}}, {"type": "node", "id": 1254743115, "lat": 48.0780662, "lon": 0.1153176, "tags": {"bench": "no", "bus": "yes", "highway": "bus_stop", "name": "Maqu\u00e8re", "public_transport": "platform", "shelter": "no", "tactile_paving": "no", "wheelchair": "no"}}, {"type": "node", "id": 1259331691, "lat": 48.02461, "lon": 0.1845579, "tags": {"bench": "yes", "bin": "no", "bus": "yes", "highway": "bus_stop", "lit": "yes", "name": "Richet", "public_transport": "platform", "ref": "RICHET1", "shelter": "no", "tactile_paving": "no", "timeo": "626", "wheelchair": "no"}}, {"type": "node", "id": 1259331692, "lat": 48.0243266, "lon": 0.1872918, "tags": {"bench": "yes", "bin": "yes", "bus": "yes", "highway": "bus_stop", "name": "Moulin l'\u00c9v\u00eaque", "public_transport": "platform", "ref": "MOULIN1", "shelter": "yes", "tactile_paving": "no", "timeo": "496", "wheelchair": "limited"}}, {"type": "node", "id": 1259356315, "lat": 48.0251688, "lon": 0.1827145, "tags": {"bench": "no", "bin": "yes", "bus": "yes", "highway": "bus_stop", "name": "Florey", "public_transport": "platform", "ref": "FLOREY1", "shelter": "no", "tactile_paving": "no", "timeo": "291", "wheelchair": "no"}}, {"type": "node", "id": 1259618351, "lat": 48.0312917, "lon": 0.2100273, "tags": {"bench": "yes", "bin": "yes", "bus": "yes", "highway": "bus_stop", "name": "Closerie", "public_transport": "platform", "shelter": "yes", "timeo": "190"}}, {"type": "node", "id": 1259641698, "lat": 48.0434263, "lon": 0.2202896, "tags": {"bus": "yes", "highway": "bus_stop", "name": "Les Croisettes", "public_transport": "platform"}}, {"type": "node", "id": 1259774590, "lat": 48.0206445, "lon": 0.1719941, "tags": {"bench": "yes", "bus": "yes", "highway": "bus_stop", "name": "Le Cadran", "public_transport": "platform", "ref": "CADRAN", "shelter": "yes", "tactile_paving": "no", "timeo": "401", "wheelchair": "yes"}}, {"type": "node", "id": 1287835868, "lat": 47.9935195, "lon": 0.1064627, "tags": {"highway": "bus_stop", "name": "Pruill\u00e9-le-Ch\u00e9tif", "public_transport": "stop_position", "shelter": "yes", "source": "cadastre-dgi-fr source : Direction G\u00e9n\u00e9rale des Imp\u00f4ts - Cadastre. Mise \u00e0 jour : 2011"}}, {"type": "node", "id": 1329742446, "lat": 48.031402, "lon": 0.2050399, "tags": {"bus": "yes", "highway": "bus_stop", "name": "Le Verger", "public_transport": "platform", "timeo": "425"}}, {"type": "node", "id": 1329742447, "lat": 48.0314455, "lon": 0.204885, "tags": {"bus": "yes", "highway": "bus_stop", "name": "Le Verger", "public_transport": "platform", "timeo": "426"}}, {"type": "node", "id": 1329744374, "lat": 48.0281523, "lon": 0.2105391, "tags": {"bus": "yes", "highway": "bus_stop", "name": "Vignes", "public_transport": "platform"}}, {"type": "node", "id": 1329744376, "lat": 48.0277101, "lon": 0.2107482, "tags": {"bus": "yes", "highway": "bus_stop", "name": "Vignes", "public_transport": "platform"}}, {"type": "node", "id": 1329744388, "lat": 48.0243185, "lon": 0.2109115, "tags": {"bench": "yes", "bin": "yes", "highway": "bus_stop", "name": "EHPAD 3 Vall\u00e9es", "public_transport": "platform", "shelter": "no"}}, {"type": "node", "id": 1329746914, "lat": 48.0280343, "lon": 0.2073117, "tags": {"bench": "yes", "bin": "yes", "bus": "yes", "highway": "bus_stop", "name": "Closeau", "public_transport": "platform", "shelter": "no"}}, {"type": "node", "id": 1329746919, "lat": 48.0267464, "lon": 0.2062554, "tags": {"bench": "no", "bin": "no", "bus": "yes", "highway": "bus_stop", "name": "Plessis", "public_transport": "platform", "shelter": "no"}}, {"type": "node", "id": 1329746920, "lat": 48.0267953, "lon": 0.2061215, "tags": {"bench": "yes", "bin": "yes", "bus": "yes", "highway": "bus_stop", "name": "Plessis", "public_transport": "platform", "shelter": "no"}}, {"type": "node", "id": 1329751966, "lat": 48.0285161, "lon": 0.2029302, "tags": {"bench": "yes", "bin": "yes", "bus": "yes", "highway": "bus_stop", "name": "Jean Cocteau", "public_transport": "platform", "shelter": "yes", "timeo": "370"}}, {"type": "node", "id": 1329751967, "lat": 48.0281546, "lon": 0.2027539, "tags": {"bench": "yes", "bin": "yes", "bus": "yes", "highway": "bus_stop", "name": "Jean Cocteau", "public_transport": "platform", "shelter": "no", "timeo": "369"}}, {"type": "node", "id": 1329764975, "lat": 48.0237745, "lon": 0.2015363, "tags": {"bus": "yes", "highway": "bus_stop", "name": "Sables", "public_transport": "platform"}}, {"type": "node", "id": 1329764976, "lat": 48.0234945, "lon": 0.2018178, "tags": {"bus": "yes", "highway": "bus_stop", "name": "Sables", "public_transport": "platform"}}, {"type": "node", "id": 1329772113, "lat": 48.0241131, "lon": 0.2012878, "tags": {"bench": "no", "bin": "no", "bus": "yes", "highway": "bus_stop", "name": "La Baule", "public_transport": "platform", "shelter": "no", "timeo": "773", "wheelchair": "no"}}, {"type": "node", "id": 1329772115, "lat": 48.0242111, "lon": 0.2010882, "tags": {"bench": "no", "bin": "yes", "bus": "yes", "highway": "bus_stop", "name": "La Baule", "public_transport": "platform", "shelter": "no", "timeo": "774", "wheelchair": "no"}}, {"type": "node", "id": 1329774044, "lat": 48.0240979, "lon": 0.1970726, "tags": {"bench": "yes", "bin": "yes", "bus": "yes", "highway": "bus_stop", "name": "Hendaye", "public_transport": "platform", "shelter": "yes", "tactile_paving": "no", "timeo": "351", "wheelchair": "no"}}, {"type": "node", "id": 1329774045, "lat": 48.0241819, "lon": 0.1973569, "tags": {"bench": "yes", "bin": "yes", "bus": "yes", "highway": "bus_stop", "name": "Hendaye", "public_transport": "platform", "tactile_paving": "no", "timeo": "352", "wheelchair": "no"}}, {"type": "node", "id": 1329777224, "lat": 48.0220048, "lon": 0.196574, "tags": {"bench": "yes", "bin": "no", "bus": "yes", "highway": "bus_stop", "name": "Nice", "public_transport": "platform", "shelter": "no", "timeo": "512"}}, {"type": "node", "id": 1329777232, "lat": 48.0222444, "lon": 0.1964383, "tags": {"bench": "yes", "bin": "yes", "bus": "yes", "highway": "bus_stop", "name": "Nice", "public_transport": "platform", "shelter": "no", "timeo": "511"}}, {"type": "node", "id": 1329784746, "lat": 48.0190733, "lon": 0.1984628, "tags": {"bench": "no", "bin": "yes", "bus": "yes", "highway": "bus_stop", "name": "Corneille", "public_transport": "platform", "shelter": "no", "timeo": "36"}}, {"type": "node", "id": 1329813401, "lat": 48.0161235, "lon": 0.2020708, "tags": {"bench": "yes", "bin": "yes", "bus": "yes", "highway": "bus_stop", "name": "Banjan", "public_transport": "platform", "shelter": "no", "timeo": "50"}}, {"type": "node", "id": 1329813404, "lat": 48.018831, "lon": 0.2016409, "tags": {"bench": "yes", "bin": "yes", "bus": "yes", "highway": "bus_stop", "name": "Palmiers", "public_transport": "platform", "shelter": "no", "timeo": "530"}}, {"type": "node", "id": 1329813415, "lat": 48.0157824, "lon": 0.2031581, "tags": {"bench": "yes", "bin": "yes", "bus": "yes", "highway": "bus_stop", "name": "Coll\u00e8ge Psalette", "public_transport": "platform", "shelter": "yes", "timeo": "48"}}, {"type": "node", "id": 1329813416, "lat": 48.0162149, "lon": 0.2022452, "tags": {"bench": "yes", "bin": "no", "bus": "yes", "highway": "bus_stop", "name": "Banjan", "public_transport": "platform", "shelter": "no", "timeo": "49"}}, {"type": "node", "id": 1329813417, "lat": 48.0187506, "lon": 0.2014384, "tags": {"bench": "yes", "bin": "yes", "bus": "yes", "highway": "bus_stop", "name": "Palmiers", "public_transport": "platform", "shelter": "no", "timeo": "531"}}, {"type": "node", "id": 1329816590, "lat": 48.020324, "lon": 0.2110546, "tags": {"bus": "yes", "highway": "bus_stop", "name": "Bellevue - Hauts de Coulaines", "public_transport": "platform", "timeo": "72"}}, {"type": "node", "id": 1330274145, "lat": 47.9952611, "lon": 0.1931131}, {"type": "node", "id": 1330945097, "lat": 47.9997257, "lon": 0.1922223, "tags": {"bench": "no", "bus": "yes", "highway": "bus_stop", "name": "Palais des Congr\u00e8s", "public_transport": "platform", "ref": "PCONGRE1", "shelter": "no", "tactile_paving": "yes", "timeo": "528", "wheelchair": "yes"}}, {"type": "node", "id": 1330945133, "lat": 48.0060683, "lon": 0.2021016, "tags": {"bench": "yes", "bin": "yes", "bus": "yes", "highway": "bus_stop", "lit": "yes", "name": "\u00c9toile", "public_transport": "platform", "ref": "ETOILE2", "shelter": "no", "tactile_paving": "no", "timeo": "275"}}, {"type": "node", "id": 1330945144, "lat": 47.9979632, "lon": 0.1936383, "tags": {"bench": "no", "bus": "yes", "check_date:shelter": "2024-12-31", "highway": "bus_stop", "name": "Pelouse", "public_transport": "platform", "ref": "PELOUSE2", "shelter": "no", "tactile_paving": "no", "timeo": "550", "wheelchair": "limited"}}, {"type": "node", "id": 1330945168, "lat": 48.007315, "lon": 0.2005685, "tags": {"bench": "no", "bin": "yes", "bus": "yes", "highway": "bus_stop", "lit": "yes", "name": "Quinconces", "public_transport": "platform", "ref": "THEATRE1", "shelter": "no", "tactile_paving": "no", "timeo": "713"}}, {"type": "node", "id": 1331026615, "lat": 48.0214162, "lon": 0.2017523, "tags": {"bench": "no", "bin": "yes", "bus": "yes", "highway": "bus_stop", "name": "Saint-Michel", "public_transport": "platform", "shelter": "no", "timeo": "700"}}, {"type": "node", "id": 1331141480, "lat": 48.0205729, "lon": 0.2259277, "tags": {"bench": "yes", "bin": "yes", "bus": "yes", "highway": "bus_stop", "name": "Fontenelles", "public_transport": "platform", "shelter": "yes", "tactile_paving": "no", "timeo": "248", "wheelchair": "limited"}}, {"type": "node", "id": 1331141503, "lat": 48.0200525, "lon": 0.2138418, "tags": {"bus": "yes", "highway": "bus_stop", "name": "Sacha Guitry", "public_transport": "platform", "timeo": "675"}}, {"type": "node", "id": 1331141562, "lat": 48.0202307, "lon": 0.2119946, "tags": {"bench": "yes", "bin": "yes", "bus": "yes", "highway": "bus_stop", "name": "Bellevue - Hauts de Coulaines", "public_transport": "platform", "shelter": "yes", "timeo": "74"}}, {"type": "node", "id": 1331141563, "lat": 48.0189959, "lon": 0.2237608, "tags": {"bench": "no", "bus": "yes", "highway": "bus_stop", "name": "Kaboul", "public_transport": "platform", "shelter": "no", "tactile_paving": "no", "wheelchair": "no"}}, {"type": "node", "id": 1331141564, "lat": 48.020705, "lon": 0.2258402, "tags": {"bench": "yes", "bin": "yes", "bus": "yes", "highway": "bus_stop", "name": "Fontenelles", "public_transport": "platform", "shelter": "yes", "tactile_paving": "yes", "timeo": "247", "wheelchair": "yes"}}, {"type": "node", "id": 1331141579, "lat": 48.0196652, "lon": 0.2157989, "tags": {"bus": "yes", "highway": "bus_stop", "name": "Colette", "public_transport": "platform", "shelter": "yes", "timeo": "193"}},