{"version": 0.6, "generator": "Overpass API 0.7.62.5 1bd436f1", "osm3s": {"timestamp_osm_base": "2025-04-09T14:34:15Z", "copyright": "The data included in this document is from www.openstreetmap.org. The data is made available under ODbL."}, "elements": [{"type": "node", "id": 1413912349, "lat": 43.1037342, "lon": 0.9598973, "tags": {"alt_name": "Salies-du-Salat - Office du Tourisme", "bench": "yes", "bus": "yes", "highway": "bus_stop", "name": "Office du Tourisme", "name:liO": "Office tourisme - Salies du Salat", "old_name": "Bus SNCF Salies Centre", "public_transport": "platform", "ref": "11", "shelter": "yes"}}, {"type": "node", "id": 2313637528, "lat": 43.1689687, "lon": 0.880596, "tags": {"highway": "bus_stop", "local_ref": "Bus scolaire et navette", "public_transport": "platform"}}, {"type": "node", "id": 2806793228, "lat": 43.0391991, "lon": 0.994072, "tags": {"bus": "yes", "highway": "bus_stop", "name": "Bus SNCF Lacave", "name:liO": "RD117/RD434 - Lacave", "public_transport": "platform", "ref": "21"}}, {"type": "node", "id": 2806793605, "lat": 43.1002297, "lon": 0.9575641, "tags": {"alt_name": "Salies-du-Salat - Casino", "bus": "yes", "highway": "bus_stop", "name": "Casino", "public_transport": "platform", "ref": "14", "shelter": "yes"}}, {"type": "node", "id": 2806795211, "lat": 43.0654159, "lon": 0.9694954, "tags": {"alt_name": "His - Village", "bus": "yes", "highway": "bus_stop", "name": "Village", "pole": "no", "public_transport": "platform", "shelter": "no"}}, {"type": "node", "id": 2809356377, "lat": 43.0816052, "lon": 0.9519333, "tags": {"bus": "yes", "highway": "bus_stop", "name": "Bus SNCF Mane", "name:liO": "Mairie - Mane", "public_transport": "platform", "ref": "15", "shelter": "yes"}}, {"type": "node", "id": 2809547377, "lat": 43.0551872, "lon": 0.9790895, "tags": {"bus": "yes", "highway": "bus_stop", "name": "Bus SNCF Castagn\u00e8de", "name:liO": "D117/D60F - Castagnede", "public_transport": "platform", "ref": "19", "shelter": "yes"}}, {"type": "node", "id": 2816125627, "lat": 43.1035902, "lon": 0.9600187, "tags": {"alt_name": "Salies-du-Salat - Office du Tourisme", "bench": "yes", "bus": "yes", "highway": "bus_stop", "name": "Office du Tourisme", "public_transport": "platform", "ref": "12", "shelter": "yes"}}, {"type": "node", "id": 2816132523, "lat": 43.100268, "lon": 0.9573987, "tags": {"alt_name": "Salies-du-Salat - Casino", "bus": "yes", "highway": "bus_stop", "name": "Casino", "name:liO": "Casino - Salies Du Salat", "old_name": "Bus SNCF Salies Thermes", "public_transport": "platform", "ref": "13", "shelter": "yes"}}, {"type": "node", "id": 2816134080, "lat": 43.0815853, "lon": 0.9521356, "tags": {"bus": "yes", "highway": "bus_stop", "name": "Bus SNCF Mane", "name:liO": "Mairie retour - Mane", "public_transport": "platform", "ref": "16"}}, {"type": "node", "id": 2816201346, "lat": 43.0653367, "lon": 0.9697458, "tags": {"alt_name": "His - Village", "bus": "yes", "highway": "bus_stop", "name": "Village", "pole": "no", "public_transport": "platform", "shelter": "no"}}, {"type": "node", "id": 2816207492, "lat": 43.0553291, "lon": 0.9791423, "tags": {"bus": "yes", "highway": "bus_stop", "name": "Bus SNCF Castagn\u00e8de", "name:liO": "D117/D60F Retour - Castagnede", "public_transport": "platform", "ref": "20"}}, {"type": "node", "id": 2816223457, "lat": 43.0400666, "lon": 0.9935977, "tags": {"bus": "yes", "highway": "bus_stop", "name": "Bus SNCF Lacave", "name:liO": "RD117/RD434 Retour - Lacave", "public_transport": "platform", "ref": "22"}}, {"type": "node", "id": 5882927779, "lat": 43.0872364, "lon": 0.9513048, "tags": {"alt_name": "Mane - Avenue de Toulouse", "bench": "yes", "bus": "yes", "highway": "bus_stop", "name": "Avenue Tolosane", "old_name": "Avenue de Toulouse", "public_transport": "platform", "shelter": "yes"}}, {"type": "node", "id": 5882927780, "lat": 43.0872483, "lon": 0.9511678, "tags": {"alt_name": "Mane - Avenue de Toulouse", "bus": "yes", "highway": "bus_stop", "name": "Avenue Tolosane", "old_name": "Avenue de Toulouse", "pole": "yes", "public_transport": "platform", "shelter": "no"}}, {"type": "node", "id": 5898848709, "lat": 43.0476604, "lon": 0.9863805, "tags": {"bus": "yes", "highway": "bus_stop", "name": "Bus SNCF Espone", "public_transport": "platform"}}, {"type": "node", "id": 5899140331, "lat": 43.0559172, "lon": 0.9862945, "tags": {"bus": "yes", "highway": "bus_stop", "public_transport": "platform"}}, {"type": "node", "id": 5899219237, "lat": 43.0785453, "lon": 0.977108, "tags": {"bus": "yes", "highway": "bus_stop", "network": "scolaire", "public_transport": "platform"}}, {"type": "node", "id": 5905860202, "lat": 43.1070336, "lon": 0.9624747, "tags": {"bus": "yes", "highway": "bus_stop", "name": "Bus SNCF Salies Pont", "public_transport": "platform"}}, {"type": "node", "id": 5905860203, "lat": 43.106968, "lon": 0.9626074, "tags": {"bus": "yes", "highway": "bus_stop", "name": "Bus SNCF Salies Pont", "public_transport": "platform"}}, {"type": "node", "id": 5936305750, "lat": 43.065099, "lon": 0.9693874, "tags": {"bus": "yes", "highway": "bus_stop", "public_transport": "platform"}}, {"type": "node", "id": 6059978993, "lat": 43.1421038, "lon": 0.9287143, "tags": {"bench": "yes", "bus": "yes", "departures_board": "timetable", "highway": "bus_stop", "lit": "yes", "name": "Syndicat d'Initiative - Saint-Martory", "public_transport": "platform", "ref": "50303", "ref:FR:aec31": "50303", "shelter": "separate", "source:ref:aec31": "Conseil D\u00e9partemental de Haute-Garonne", "source:ref:aec31:date": "2021-08-19"}}, {"type": "node", "id": 6060283509, "lat": 43.140994, "lon": 0.9305777, "tags": {"bench": "yes", "bin": "yes", "bus": "yes", "highway": "bus_stop", "lit": "yes", "name": "Poste", "public_transport": "platform", "shelter": "yes"}}, {"type": "node", "id": 7002920134, "lat": 43.2212683, "lon": 0.8957462, "tags": {"bus": "yes", "highway": "bus_stop", "public_transport": "platform"}}, {"type": "node", "id": 7002920135, "lat": 43.2211769, "lon": 0.8957793, "tags": {"bus": "yes", "highway": "bus_stop", "public_transport": "platform"}}, {"type": "node", "id": 7643031468, "lat": 43.0840671, "lon": 0.8969793, "tags": {"bus": "yes", "highway": "bus_stop", "public_transport": "platform"}}, {"type": "node", "id": 7643031535, "lat": 43.08464, "lon": 0.89802, "tags": {"bus": "yes", "highway": "bus_stop", "public_transport": "platform"}}, {"type": "node", "id": 7849513453, "lat": 43.0502833, "lon": 0.9349541, "tags": {"amenity": "shelter", "bus": "yes", "highway": "bus_stop", "public_transport": "platform", "shelter": "yes", "shelter_type": "public_transport"}}, {"type": "node", "id": 8749386648, "lat": 43.1457661, "lon": 0.9269648, "tags": {"bus": "yes", "highway": "bus_stop", "public_transport": "platform", "shelter": "yes"}}, {"type": "node", "id": 9022874776, "lat": 43.0904199, "lon": 0.950506, "tags": {"alt_name": "Mane - Scierie", "bench": "yes", "bus": "yes", "departures_board": "timetable", "highway": "bus_stop", "lit": "yes", "name": "Scierie", "public_transport": "platform", "shelter": "yes"}}, {"type": "node", "id": 9022874807, "lat": 43.0898156, "lon": 0.9503251, "tags": {"bus": "yes", "departures_board": "timetable", "highway": "bus_stop", "name": "Scierie", "public_transport": "platform"}}, {"type": "node", "id": 9193209643, "lat": 43.1422251, "lon": 0.9287061, "tags": {"bus": "yes", "departures_board": "timetable", "highway": "bus_stop", "name": "Syndicat d'Initiative - Saint-Martory", "pole": "yes", "public_transport": "platform", "ref": "50302", "ref:FR:aec31": "50302", "shelter": "no", "source:ref:aec31": "Conseil D\u00e9partemental de Haute-Garonne", "source:ref:aec31:date": "2021-08-19"}}, {"type": "node", "id": 9292728889, "lat": 43.0158653, "lon": 0.9047479, "tags": {"bus": "yes", "highway": "bus_stop", "name": "Ribereuille - Chein-Dessus", "public_transport": "platform", "shelter": "yes"}}, {"type": "node", "id": 9910093087, "lat": 43.1216512, "lon": 0.910909, "tags": {"bench": "yes", "bus": "yes", "highway": "bus_stop", "name": "Village - Lestelle-De-Saint-Martory", "public_transport": "platform", "ref": "29603", "ref:FR:aec31": "29603", "shelter": "yes", "source:ref:aec31": "Conseil D\u00e9partemental de Haute-Garonne", "source:ref:aec31:date": "2021-08-19"}}, {"type": "node", "id": 9910093095, "lat": 43.1228668, "lon": 0.9149538, "tags": {"bus": "yes", "highway": "bus_stop", "name": "Place - Lestelle-De-Saint-Martory", "pole": "yes", "public_transport": "platform", "ref": "29601", "ref:FR:aec31": "29601", "shelter": "no", "source:ref:aec31": "Conseil D\u00e9partemental de Haute-Garonne", "source:ref:aec31:date": "2021-08-19", "stop_sequence": "18"}}, {"type": "node", "id": 9910093097, "lat": 43.1305655, "lon": 0.9185756, "tags": {"bus": "yes", "highway": "bus_stop", "name": "Apas - Castillon-De-Saint-Martory", "pole": "yes", "public_transport": "platform", "ref": "12401", "ref:FR:aec31": "12401", "shelter": "no", "source:ref:aec31": "Conseil D\u00e9partemental de Haute-Garonne", "source:ref:aec31:date": "2021-08-19"}}, {"type": "node", "id": 9910093099, "lat": 43.1353199, "lon": 0.9191474, "tags": {"bus": "yes", "highway": "bus_stop", "name": "L'Escal\u00e8re - Arnaud-Guilhem", "pole": "no", "public_transport": "platform", "ref": "1801", "ref:FR:aec31": "1801", "shelter": "no", "source:ref:aec31": "Conseil D\u00e9partemental de Haute-Garonne", "source:ref:aec31:date": "2021-08-19", "stop_sequence": "16"}}, {"type": "node", "id": 9922174851, "lat": 43.1354452, "lon": 0.919303, "tags": {"bus": "yes", "highway": "bus_stop", "name": "L'Escal\u00e8re - Arnaud-Guilhem", "pole": "no", "public_transport": "platform", "ref": "1802", "ref:FR:aec31": "1802", "shelter": "no", "source:ref:aec31": "Conseil D\u00e9partemental de Haute-Garonne", "source:ref:aec31:date": "2021-08-19"}}, {"type": "node", "id": 9922174852, "lat": 43.1305356, "lon": 0.9187706, "tags": {"bus": "yes", "highway": "bus_stop", "name": "Apas - Castillon-De-Saint-Martory", "pole": "yes", "public_transport": "platform", "ref": "12402", "ref:FR:aec31": "12402", "source:ref:aec31": "Conseil D\u00e9partemental de Haute-Garonne", "source:ref:aec31:date": "2021-08-19"}}, {"type": "node", "id": 9922174853, "lat": 43.1228745, "lon": 0.9151838, "tags": {"bus": "yes", "highway": "bus_stop", "name": "Place - Lestelle-De-Saint-Martory", "pole": "yes", "public_transport": "platform", "ref": "29602", "ref:FR:aec31": "29602", "source:ref:aec31": "Conseil D\u00e9partemental de Haute-Garonne", "source:ref:aec31:date": "2021-08-19"}}, {"type": "node", "id": 9922174854, "lat": 43.1215149, "lon": 0.9109727, "tags": {"bus": "yes", "highway": "bus_stop", "name": "Village - Lestelle-De-Saint-Martory", "pole": "yes", "public_transport": "platform", "ref": "29604", "ref:FR:aec31": "29604", "shelter": "no", "source:ref:aec31": "Conseil D\u00e9partemental de Haute-Garonne", "source:ref:aec31:date": "2021-08-19"}}, {"type": "node", "id": 10047009386, "lat": 43.143557, "lon": 0.8956481, "tags": {"alt_name": "Arnaud-Guilhem - \u00c9glise", "bench": "yes", "bus": "yes", "highway": "bus_stop", "name": "\u00c9glise", "public_transport": "platform", "ref:name": "ARNAUD-GUILHEM - \u00c9glise", "shelter": "yes"}}, {"type": "node", "id": 10209423329, "lat": 43.1350535, "lon": 0.9322855, "tags": {"bench": "yes", "bus": "yes", "highway": "bus_stop", "lit": "yes", "name": "Stade", "public_transport": "platform", "shelter": "yes"}}, {"type": "node", "id": 10733060888, "lat": 43.2161482, "lon": 0.8831638, "tags": {"amenity": "shelter", "highway": "bus_stop", "name": "Poste - Aurignac", "public_transport": "platform", "shelter_type": "public_transport"}}, {"type": "node", "id": 10781849091, "lat": 43.1118664, "lon": 0.9335649, "tags": {"bench": "yes", "bus": "yes", "highway": "bus_stop", "public_transport": "platform", "shelter": "yes"}}, {"type": "node", "id": 12006118682, "lat": 43.1118854, "lon": 0.9373807, "tags": {"bench": "yes", "bus": "yes", "highway": "bus_stop", "lit": "yes", "public_transport": "platform", "shelter": "yes"}}, {"type": "node", "id": 12549558417, "lat": 43.080546, "lon": 0.9534179, "tags": {"alt_name": "Mane - Avenue du Couserans", "bus": "yes", "highway": "bus_stop", "name": "Avenue du Couserans", "pole": "no", "public_transport": "platform", "shelter": "no"}}, {"type": "node", "id": 12549558418, "lat": 43.0803383, "lon": 0.9535128, "tags": {"alt_name": "Mane - Avenue du Couserans", "bus": "yes", "highway": "bus_stop", "name": "Avenue du Couserans", "pole": "yes", "public_transport": "platform", "shelter": "no"}}, {"type": "node", "id": 12549558476, "lat": 43.0542266, "lon": 0.9799867, "tags": {"bus": "yes", "highway": "bus_stop", "name": "Poste", "pole": "no", "public_transport": "platform", "shelter": "no"}}, {"type": "node", "id": 12549558477, "lat": 43.0541504, "lon": 0.9802297, "tags": {"alt_name": "Castagn\u00e8de - Poste", "bus": "yes", "highway": "bus_stop", "name": "Poste", "pole": "no", "public_transport": "platform", "shelter": "no"}}, {"type": "node", "id": 12590480469, "lat": 43.1436336, "lon": 0.8956648, "tags": {"alt_name": "Arnaud-Guilhem - \u00c9glise", "bus": "yes", "highway": "bus_stop", "name": "\u00c9glise", "pole": "no", "public_transport": "platform", "ref:name": "ARNAUD-GUILHEM - \u00c9glise", "shelter": "no"}}, {"type": "node", "id": 12612369885, "lat": 43.244425, "lon": 0.8885165, "tags": {"alt_name": "Boussan - Salle Polyvalente", "bus": "yes", "highway": "bus_stop", "name": "Salle Polyvalente", "pole": "no", "public_transport": "platform", "ref_name": "BOUSSAN - Salle Polyvalente", "shelter": "no"}}, {"type": "node", "id": 12612389425, "lat": 43.2445243, "lon": 0.8884341, "tags": {"alt_name": "Boussan - Mairie", "bus": "yes", "highway": "bus_stop", "name": "Mairie", "pole": "no", "public_transport": "platform", "ref_name": "BOUSSAN - Salle Polyvalente", "shelter": "no"}}]}