{"version": 0.6, "generator": "Overpass API 0.7.62.5 1bd436f1", "osm3s": {"timestamp_osm_base": "2025-04-09T14:45:30Z", "copyright": "The data included in this document is from www.openstreetmap.org. The data is made available under ODbL."}, "elements": [{"type": "node", "id": 32674033, "lat": 42.6108827, "lon": 2.4118032, "tags": {"bus": "yes", "highway": "bus_stop", "name": "Codalet : La Riberette", "public_transport": "stop_position"}}, {"type": "node", "id": 32916604, "lat": 42.6246144, "lon": 2.4186019, "tags": {"bus": "yes", "highway": "bus_stop", "name": "Prades : H\u00f4pital", "public_transport": "stop_position"}}, {"type": "node", "id": 32916612, "lat": 42.6250818, "lon": 2.4189241, "tags": {"bus": "yes", "highway": "bus_stop", "name": "Prades : H\u00f4pital", "public_transport": "stop_position"}}, {"type": "node", "id": 35462028, "lat": 42.8104273, "lon": 2.5044849, "tags": {"bench": "yes", "highway": "bus_stop", "name": "Place-Saint-Pierre", "public_transport": "platform", "shelter": "yes"}}, {"type": "node", "id": 38247017, "lat": 42.6223608, "lon": 2.4384327, "tags": {"bench": "no", "bin": "no", "bus": "yes", "highway": "bus_stop", "name": "Prades : Maison des Entreprises", "public_transport": "platform", "shelter": "no"}}, {"type": "node", "id": 38447524, "lat": 42.5490715, "lon": 2.7496024, "tags": {"highway": "bus_stop", "public_transport": "stop_position"}}, {"type": "node", "id": 206327422, "lat": 42.6044249, "lon": 2.4028529, "tags": {"bus": "yes", "highway": "bus_stop", "name": "Ria-Sirach : Foyer", "public_transport": "stop_position"}}, {"type": "node", "id": 271612830, "lat": 42.6732361, "lon": 2.8842206, "tags": {"bus": "yes", "highway": "bus_stop", "name": "Donnezan", "network": "Sank\u00e9o", "network:wikidata": "Q2989888", "operator": "Vectalia Perpignan M\u00e9diterran\u00e9e", "public_transport": "platform", "ref": "9"}}, {"type": "node", "id": 278439583, "lat": 42.6814074, "lon": 2.7851557, "tags": {"bus": "yes", "highway": "bus_stop", "name": "Ch\u00eanes Verts", "public_transport": "platform", "source": "cadastre-dgi-fr source : Direction G\u00e9n\u00e9rale des Imp\u00f4ts - Cadastre. Mise \u00e0 jour : 14-07-2008"}}, {"type": "node", "id": 279180237, "lat": 42.7604346, "lon": 2.5163105, "tags": {"highway": "bus_stop", "name": "Ansignan : Place", "public_transport": "stop_position"}}, {"type": "node", "id": 279993287, "lat": 42.5248776, "lon": 2.8276245, "tags": {"name": "Le Boulou-Le Perthus", "not:network:wikidata": "Q30754613", "operator": "SNCF", "public_transport": "station", "railway": "station", "source": "cadastre-dgi-fr source : Direction G\u00e9n\u00e9rale des Imp\u00f4ts - Cadastre;mise \u00e0 jour : 2009", "train": "yes", "uic_ref": "8778433", "wikidata": "Q82540977", "wikipedia": "fr:Gare du Boulou - Perthus"}}, {"type": "node", "id": 280756908, "lat": 42.8093479, "lon": 2.587384, "tags": {"name": "Maury", "railway": "station"}}, {"type": "node", "id": 280949677, "lat": 42.8106973, "lon": 2.3725574, "tags": {"name": "Caudi\u00e8s-de-Fenouill\u00e8des", "operator": "SA TPCF", "public_transport": "platform", "railway": "station", "train": "yes"}}, {"type": "node", "id": 281941860, "lat": 42.4775265, "lon": 2.6750157, "tags": {"highway": "bus_stop"}}, {"type": "node", "id": 282571875, "lat": 42.7532664, "lon": 2.8173897, "tags": {"bench": "no", "bin": "no", "bus": "yes", "departures_board": "timetable", "highway": "bus_stop", "name": "Baixas", "network": "Sank\u00e9o", "network:wikidata": "Q2989888", "operator": "Vectalia Perpignan M\u00e9diterran\u00e9e", "public_transport": "platform", "ref_name": "Baixas, Baixas", "route_ref": "10", "shelter": "no", "tactile_paving": "no", "website": "https://www.ctpmperpignan.com/", "wheelchair": "no"}}, {"type": "node", "id": 283613546, "lat": 42.7790421, "lon": 2.7931033, "tags": {"name": "Cases-de-P\u00e8ne", "name:ca": "Cases de Pena", "railway": "station", "source": "cadastre-dgi-fr source : Direction G\u00e9n\u00e9rale des Imp\u00f4ts - Cadastre ; mise \u00e0 jour :2008", "wikidata": "Q28710784", "wikipedia": "ca:Estaci\u00f3 de Cases de Pena"}}, {"type": "node", "id": 283613664, "lat": 42.7722782, "lon": 2.833404, "tags": {"name": "Espira-de-l'Agly", "railway": "station"}}, {"type": "node", "id": 283814857, "lat": 42.5494991, "lon": 2.7452784, "tags": {"highway": "bus_stop", "public_transport": "stop_position"}}, {"type": "node", "id": 284924937, "lat": 42.6305942, "lon": 2.6852167, "tags": {"bus": "yes", "highway": "bus_stop", "name": "Cam\u00e9las : Village", "public_transport": "stop_position", "shelter": "yes", "source": "cadastre-dgi-fr source : Direction G\u00e9n\u00e9rale des Imp\u00f4ts - Cadastre ; mise \u00e0 jour :2008"}}, {"type": "node", "id": 305529863, "lat": 42.7135915, "lon": 2.8326521, "tags": {"bench": "yes", "bin": "yes", "bus": "yes", "departures_board": "timetable", "highway": "bus_stop", "name": "For\u00eat", "public_transport": "platform", "shelter": "yes"}}, {"type": "node", "id": 315531753, "lat": 42.673046, "lon": 2.8270945, "tags": {"bench": "no", "bus": "yes", "highway": "bus_stop", "name": "Mas Puig-Sec", "name:ca": "Mas Puig-Sec", "network": "Sank\u00e9o", "network:wikidata": "Q2989888", "operator": "Vectalia Perpignan M\u00e9diterran\u00e9e", "public_transport": "platform", "shelter": "no", "source": "cadastre-dgi-fr source : Direction G\u00e9n\u00e9rale des Imp\u00f4ts - Cadastre. Mise \u00e0 jour : 2009"}}, {"type": "node", "id": 331555189, "lat": 42.7173015, "lon": 2.6066457, "tags": {"bench": "yes", "bin": "no", "highway": "bus_stop", "name": "B\u00e9lesta-de-la-Fronti\u00e8re : Portal d'Amunt", "public_transport": "stop_position", "shelter": "yes", "tactile_paving": "no"}}, {"type": "node", "id": 334645562, "lat": 42.6442459, "lon": 2.5210987, "tags": {"bus": "yes", "highway": "bus_stop", "name": "Vin\u00e7a - Gendarmerie", "public_transport": "stop_position"}}, {"type": "node", "id": 334646784, "lat": 42.6451358, "lon": 2.5252767, "tags": {"bus": "yes", "highway": "bus_stop", "name": "Vin\u00e7a - La Croix", "public_transport": "stop_position"}}, {"type": "node", "id": 334720296, "lat": 42.628469, "lon": 2.5327434, "tags": {"bus": "yes", "highway": "bus_stop", "name": "Rigarda : Mairie", "public_transport": "stop_position", "shelter": "yes"}}, {"type": "node", "id": 335568785, "lat": 42.7101606, "lon": 2.4584718, "tags": {"bus": "yes", "highway": "bus_stop", "name": "Campoussy", "public_transport": "stop_position"}}, {"type": "node", "id": 336225877, "lat": 42.6154761, "lon": 2.4177311, "tags": {"bus": "yes", "highway": "bus_stop", "name": "Prades : Valroc", "public_transport": "platform"}}, {"type": "node", "id": 336231257, "lat": 42.6170246, "lon": 2.4291194}, {"type": "node", "id": 336231258, "lat": 42.6171969, "lon": 2.4294751}, {"type": "node", "id": 336231259, "lat": 42.6170941, "lon": 2.4290577}, {"type": "node", "id": 336231260, "lat": 42.6172664, "lon": 2.4294134}, {"type": "node", "id": 336231582, "lat": 42.6104286, "lon": 2.4161958, "tags": {"bus": "yes", "highway": "bus_stop", "name": "Codalet", "name:ca": "Codalet", "public_transport": "stop_position"}}, {"type": "node", "id": 336465840, "lat": 42.6640225, "lon": 2.4853825, "tags": {"bus": "yes", "highway": "bus_stop", "name": "Arboussols : Cave Coop\u00e9rative", "public_transport": "platform"}}, {"type": "node", "id": 337725160, "lat": 42.6518744, "lon": 2.3886008, "tags": {"bus": "yes", "highway": "bus_stop", "name": "Molitg Village", "public_transport": "platform"}}, {"type": "node", "id": 340115874, "lat": 42.6228791, "lon": 2.5234652, "tags": {"bus": "yes", "highway": "bus_stop", "name": "Joch : Mas Rouby", "public_transport": "stop_position"}}, {"type": "node", "id": 340166247, "lat": 42.6254789, "lon": 2.5323782, "tags": {"bus": "yes", "highway": "bus_stop", "name": "Rigarda : Cim de la Costa", "public_transport": "stop_position"}}, {"type": "node", "id": 340167381, "lat": 42.6245612, "lon": 2.5336043, "tags": {"highway": "bus_stop", "name": "Rigarda : Place", "public_transport": "stop_position"}}, {"type": "node", "id": 340183499, "lat": 42.6172092, "lon": 2.5232098, "tags": {"bus": "yes", "highway": "bus_stop", "name": "Joch : Parking", "public_transport": "stop_position", "shelter": "yes"}}, {"type": "node", "id": 340245386, "lat": 42.6183771, "lon": 2.5130029, "tags": {"bus": "yes", "highway": "bus_stop", "name": "Finestret : Hauts", "public_transport": "stop_position"}}, {"type": "node", "id": 340246344, "lat": 42.6156735, "lon": 2.5114496, "tags": {"bus": "yes", "highway": "bus_stop", "name": "Finestret : Eglise", "public_transport": "stop_position"}}, {"type": "node", "id": 340249156, "lat": 42.6147215, "lon": 2.4971264, "tags": {"bus": "yes", "highway": "bus_stop", "name": "Espira du Conflent : Chemin de l'Oratory", "public_transport": "stop_position"}}, {"type": "node", "id": 340274426, "lat": 42.6126469, "lon": 2.4973108, "tags": {"highway": "bus_stop", "name": "Espira du Conflent : Lavall", "public_transport": "stop_position"}}, {"type": "node", "id": 340279191, "lat": 42.6170231, "lon": 2.4977435, "tags": {"bus": "yes", "highway": "bus_stop", "name": "Espira du Conflent : Place", "public_transport": "stop_position"}}, {"type": "node", "id": 340428705, "lat": 42.6016742, "lon": 2.4857407, "tags": {"highway": "bus_stop", "name": "Estoher : Place", "public_transport": "stop_position"}}, {"type": "node", "id": 341199821, "lat": 42.6555182, "lon": 2.5600762, "tags": {"bus": "yes", "highway": "bus_stop", "name": "Rod\u00e8s : Place de l'Oliveda", "public_transport": "platform"}}, {"type": "node", "id": 341293352, "lat": 42.6566336, "lon": 2.5606785, "tags": {"bus": "yes", "highway": "bus_stop", "name": "Rod\u00e8s : Point de Rencontre", "public_transport": "stop_position"}}, {"type": "node", "id": 345200295, "lat": 42.6311155, "lon": 2.4252091, "tags": {"bus": "yes", "highway": "bus_stop", "name": "Catllar : Mas Riquer", "public_transport": "stop_position", "shelter": "yes"}}, {"type": "node", "id": 345219898, "lat": 42.6340313, "lon": 2.4207107, "tags": {"bus": "yes", "highway": "bus_stop", "name": "Catllar : \u00c9cole", "public_transport": "stop_position"}}, {"type": "node", "id": 348006211, "lat": 42.643655, "lon": 2.4559625, "tags": {"bus": "yes", "highway": "bus_stop", "name": "Eus-Comes : Cabine", "public_transport": "stop_position", "shelter": "yes"}}, {"type": "node", "id": 348006212, "lat": 42.6447441, "lon": 2.4560226, "tags": {"bus": "yes", "highway": "bus_stop", "name": "Eus-Comes : Parking", "public_transport": "stop_position"}}, {"type": "node", "id": 348007044, "lat": 42.6411098, "lon": 2.4549017, "tags": {"bus": "yes", "highway": "bus_stop", "name": "Eus-Comes : Carrefour", "public_transport": "stop_position"}}, {"type": "node", "id": 427591753, "lat": 42.584935, "lon": 2.4427459, "tags": {"highway": "bus_stop", "name": "Place de la R\u00e9publique", "public_transport": "platform", "shelter": "yes"}}, {"type": "node", "id": 448465221, "lat": 42.6962438, "lon": 2.8796929, "tags": {"name": "Perpignan", "name:ca": "Perpiny\u00e0", "network": "TER Occitanie", "network:wikidata": "Q37941081", "official_name": "Perpignan", "operator": "SNCF", "operator:wikidata": "Q13646", "public_transport": "station", "railway": "station", "train": "yes", "uic_ref": "8778400", "wheelchair": "yes", "wikidata": "Q2283118", "wikipedia": "fr:Gare de Perpignan"}}, {"type": "node", "id": 497549622, "lat": 42.8103582, "lon": 2.5844726, "tags": {"bus": "yes", "highway": "bus_stop", "public_transport": "stop_position"}}, {"type": "node", "id": 497549623, "lat": 42.8104516, "lon": 2.5839139, "tags": {"bus": "yes", "highway": "bus_stop", "public_transport": "stop_position"}}, {"type": "node", "id": 519720853, "lat": 42.5684304, "lon": 2.4148452, "tags": {"bus": "yes", "highway": "bus_stop", "name": "Fillols : Col de Mill\u00e8res", "public_transport": "stop_position"}}, {"type": "node", "id": 595411351, "lat": 42.696826, "lon": 2.7310547, "tags": {"highway": "bus_stop", "name": "Clave Verte", "public_transport": "platform", "shelter": "yes", "tactile_paving": "yes"}}, {"type": "node", "id": 612226867, "lat": 42.6199555, "lon": 2.4261706, "tags": {"bus": "yes", "highway": "bus_stop", "name": "Prades : Chant des Oiseaux", "public_transport": "stop_position"}}, {"type": "node", "id": 616998937, "lat": 42.6157142, "lon": 2.419112, "tags": {"bus": "yes", "highway": "bus_stop", "name": "Prades : Cit\u00e9 Universitaire", "public_transport": "stop_position"}}, {"type": "node", "id": 620790740, "lat": 42.5768249, "lon": 2.4265995, "tags": {"bus": "yes", "highway": "bus_stop", "name": "Taurinya : Haut", "public_transport": "stop_position", "shelter": "yes"}}, {"type": "node", "id": 620790790, "lat": 42.5801711, "lon": 2.4258002, "tags": {"bus": "yes", "highway": "bus_stop", "name": "Taurinya : Bas", "public_transport": "stop_position", "shelter": "yes"}}, {"type": "node", "id": 630603666, "lat": 42.4964681, "lon": 2.7212311, "tags": {"highway": "bus_stop"}}, {"type": "node", "id": 634402956, "lat": 42.4808853, "lon": 2.722001, "tags": {"highway": "bus_stop"}}, {"type": "node", "id": 703457455, "lat": 42.6900856, "lon": 2.5015247, "tags": {"bus": "yes", "highway": "bus_stop", "name": "Tarerach : Rue de la Mairie", "public_transport": "stop_position"}}, {"type": "node", "id": 729832340, "lat": 42.6129846, "lon": 2.4476454, "tags": {"bus": "yes", "highway": "bus_stop", "name": "Los Masos : La Sacristie", "public_transport": "stop_position", "shelter": "yes"}}, {"type": "node", "id": 743288950, "lat": 42.6283363, "lon": 2.8453482, "tags": {"bus": "yes", "highway": "bus_stop", "name": "Nyls", "network": "Sank\u00e9o", "network:wikidata": "Q2989888", "operator": "Vectalia Perpignan M\u00e9diterran\u00e9e", "public_transport": "platform", "ref": "NYnyls1"}}, {"type": "node", "id": 764516905, "lat": 42.6060099, "lon": 2.3983835, "tags": {"bench": "yes", "bin": "yes", "highway": "bus_stop", "shelter": "yes"}}, {"type": "node", "id": 812381970, "lat": 42.6932065, "lon": 2.9246684, "tags": {"highway": "bus_stop", "name": "Sabardeil", "public_transport": "platform", "shelter": "yes", "tactile_paving": "no", "wheelchair": "no"}}, {"type": "node", "id": 812381973, "lat": 42.6936954, "lon": 2.9229666, "tags": {"highway": "bus_stop", "name": "Percier", "public_transport": "platform", "shelter": "yes", "tactile_paving": "no", "wheelchair": "no"}}, {"type": "node", "id": 822242226, "lat": 42.6942181, "lon": 2.9359118, "tags": {"bench": "yes", "bin": "yes", "bus": "yes", "departures_board": "timetable", "highway": "bus_stop", "lit": "yes", "name": "Mas Vermeil", "network": "Sank\u00e9o", "network:wikidata": "Q2989888", "operator": "Vectalia Perpignan M\u00e9diterran\u00e9e", "public_transport": "platform", "ref": "PEmasv1", "shelter": "yes", "tactile_paving": "no"}}, {"type": "node", "id": 890432664, "lat": 42.5754519, "lon": 2.963491, "tags": {"highway": "bus_stop"}}, {"type": "node", "id": 893221883, "lat": 42.596935, "lon": 2.9635879}, {"type": "node", "id": 893224207, "lat": 42.5972777, "lon": 2.963685}, {"type": "node", "id": 893229591, "lat": 42.5972926, "lon": 2.9635832}, {"type": "node", "id": 893245304, "lat": 42.596951, "lon": 2.9634852}, {"type": "node", "id": 941409711, "lat": 42.8119312, "lon": 2.5072017, "tags": {"name": "Saint-Paul-de-Fenouillet", "public_transport": "station", "railway": "station", "train": "yes"}}, {"type": "node", "id": 992585101, "lat": 42.6876644, "lon": 2.8995673, "tags": {"bench": "no", "bus": "yes", "highway": "bus_stop", "name": "Ardennes", "public_transport": "stop_position", "ref": "8", "shelter": "no", "wheelchair": "limited"}}, {"type": "node", "id": 992585129, "lat": 42.6847933, "lon": 2.9052004, "tags": {"bench": "yes", "bus": "yes", "highway": "bus_stop", "name": "Bat\u00e8re", "network": "Sank\u00e9o", "network:wikidata": "Q2989888", "operator": "Vectalia Perpignan M\u00e9diterran\u00e9e", "public_transport": "platform", "shelter": "yes"}}, {"type": "node", "id": 992585146, "lat": 42.6904518, "lon": 2.893969, "tags": {"bench": "yes", "bin": "no", "bus": "yes", "highway": "bus_stop", "name": "Guillaut", "network": "Sank\u00e9o", "network:wikidata": "Q2989888", "operator": "Vectalia Perpignan M\u00e9diterran\u00e9e", "public_transport": "platform", "ref": "Perpignan - Guillaut", "shelter": "no", "wheelchair": "no"}}, {"type": "node", "id": 992585198, "lat": 42.6881674, "lon": 2.8970319, "tags": {"bench": "yes", "bus": "yes", "highway": "bus_stop", "name": "Juin", "public_transport": "stop_position", "ref": "8", "shelter": "yes", "wheelchair": "no"}}, {"type": "node", "id": 992585209, "lat": 42.6905361, "lon": 2.9017006, "tags": {"bench": "yes", "bin": "yes", "bus": "yes", "highway": "bus_stop", "name": "Kennedy", "name:ca": "Kennedy", "public_transport": "platform", "shelter": "yes", "tactile_paving": "no"}}, {"type": "node", "id": 1002066003, "lat": 42.6316173, "lon": 2.4580705, "tags": {"bus": "yes", "highway": "bus_stop", "name": "Auberge d'Eus", "public_transport": "platform"}}, {"type": "node", "id": 1082002917, "lat": 42.7767387, "lon": 2.6988642, "tags": {"name": "Estagel", "railway": "station"}}, {"type": "node", "id": 1334603465, "lat": 42.6587369, "lon": 2.6781475, "tags": {"bus": "yes", "highway": "bus_stop", "name": "M\u00e9diath\u00e8que", "public_transport": "platform"}}, {"type": "node", "id": 1342524462, "lat": 42.6872478, "lon": 2.9061319, "tags": {"bin": "yes", "bus": "yes", "highway": "bus_stop", "name": "Broadway", "name:ca": "Broadway", "public_transport": "platform", "shelter": "yes", "wheelchair": "no"}}, {"type": "node", "id": 1342524482, "lat": 42.543218, "lon": 3.0276206, "tags": {"highway": "bus_stop", "name": "Mas Botte", "public_transport": "platform"}}, {"type": "node", "id": 1342524493, "lat": 42.6019751, "lon": 2.9689341, "tags": {"highway": "bus_stop", "public_transport": "platform"}}, {"type": "node", "id": 1342524497, "lat": 42.544899, "lon": 3.0235528, "tags": {"bench": "yes", "bin": "yes", "bus": "yes", "highway": "bus_stop", "lit": "yes", "name": "Route Nationale", "public_transport": "platform", "shelter": "yes", "tactile_paving": "no"}}, {"type": "node", "id": 1342524520, "lat": 42.559766, "lon": 3.0095905, "tags": {"bench": "yes", "bus": "yes", "highway": "bus_stop", "name": "Parc d'Activit\u00e9s", "network": "liO", "network:wikidata": "Q55597931", "operator": "lio", "public_transport": "platform", "shelter": "yes", "toilets:wheelchair": "no", "wheelchair": "limited"}}, {"type": "node", "id": 1342524526, "lat": 42.6010707, "lon": 2.9727166, "tags": {"bench": "yes", "bin": "yes", "bus": "yes", "highway": "bus_stop", "lit": "no", "name": "Mairie", "public_transport": "platform", "shelter": "yes", "tactile_paving": "no"}}, {"type": "node", "id": 1342524536, "lat": 42.5505102, "lon": 3.0179134, "tags": {"bench": "yes", "bin": "yes", "bus": "yes", "check_date:shelter": "2024-11-02", "highway": "bus_stop", "name": "Le Christ", "network": "liO", "network:wikidata": "Q55597931", "public_transport": "platform", "shelter": "yes"}}, {"type": "node", "id": 1342524537, "lat": 42.6029691, "lon": 2.9684126, "tags": {"alt_name": "Ancienne Gendarmerie", "bench": "yes", "bus": "yes", "highway": "bus_stop", "name": "Route de Perpignan", "network": "liO", "network:wikidata": "Q55597931", "public_transport": "platform", "shelter": "yes"}}, {"type": "node", "id": 1342524564, "lat": 42.5977938, "lon": 2.9714218, "tags": {"bench": "no", "bus": "yes", "highway": "bus_stop", "name": "Agence IFAC", "network": "liO", "network:wikidata": "Q55597931", "public_transport": "platform", "shelter": "no"}}, {"type": "node", "id": 1342524566, "lat": 42.5506435, "lon": 3.0179578, "tags": {"bench": "yes", "bus": "yes", "check_date:shelter": "2024-11-02", "highway": "bus_stop", "name": "Le Christ", "network": "liO", "network:wikidata": "Q55597931", "public_transport": "platform", "shelter": "yes"}}, {"type": "node", "id": 1342524575, "lat": 42.6944147, "lon": 2.8896708, "tags": {"bench": "yes", "bin": "yes", "bus": "yes", "highway": "bus_stop", "lit": "yes", "name": "Mercader", "name:ca": "Mercader", "public_transport": "platform", "ref": "Perpignan - Mercader", "shelter": "yes", "tactile_paving": "no", "wheelchair": "limited"}}, {"type": "node", "id": 1342524586, "lat": 42.5991405, "lon": 2.9694174, "tags": {"bench": "no", "bus": "yes", "highway": "bus_stop", "name": "Four \u00e0 Chaux", "network": "liO", "network:wikidata": "Q55597931", "public_transport": "platform", "shelter": "no"}}, {"type": "node", "id": 1342524598, "lat": 42.6942114, "lon": 2.8896438, "tags": {"bench": "yes", "bin": "yes", "bus": "yes", "highway": "bus_stop", "name": "Mercader", "name:ca": "Mercader", "public_transport": "platform", "ref": "Perpignan - Mercader", "shelter": "yes", "wheelchair": "limited"}}, {"type": "node", "id": 1342524616, "lat": 42.5493299, "lon": 3.0220926, "tags": {"bench": "yes", "bus": "yes", "highway": "bus_stop", "name": "Mairie", "network": "liO", "network:wikidata": "Q55597931", "public_transport": "platform", "shelter": "yes"}}, {"type": "node", "id": 1342524618, "lat": 42.5973539, "lon": 2.9744776, "tags": {"bench": "yes", "bin": "yes", "bus": "yes", "highway": "bus_stop", "name": "Tennis", "network": "liO", "network:wikidata": "Q55597931", "public_transport": "platform", "shelter": "yes"}}, {"type": "node", "id": 1518489905, "lat": 42.5230103, "lon": 2.9347181, "tags": {"highway": "bus_stop", "name": "Laroque des Alberes", "public_transport": "platform"}}, {"type": "node", "id": 1563674582, "lat": 42.6410827, "lon": 2.8740432, "tags": {"bench": "no", "bus": "yes", "highway": "bus_stop", "name": "Avenue du Roussillon", "network": "Sank\u00e9o", "network:wikidata": "Q2989888", "operator": "Vectalia Perpignan M\u00e9diterran\u00e9e", "public_transport": "platform", "ref": "POaven1", "route_ref": "9:27", "shelter": "no"}}, {"type": "node", "id": 1565411906, "lat": 42.6393317, "lon": 2.8713639, "tags": {"bench": "no", "bus": "yes", "highway": "bus_stop", "name": "Europe", "network": "Sank\u00e9o", "network:wikidata": "Q2989888", "operator": "Vectalia Perpignan M\u00e9diterran\u00e9e", "public_transport": "platform", "ref": "POeuro1", "route_ref": "9:27", "shelter": "no", "tactile_paving": "yes"}}, {"type": "node", "id": 1565431664, "lat": 42.6456694, "lon": 2.870195, "tags": {"bench": "no", "bus": "yes", "highway": "bus_stop", "name": "Arbousiers", "network": "Sank\u00e9o", "network:wikidata": "Q2989888", "operator": "Vectalia Perpignan M\u00e9diterran\u00e9e", "public_transport": "platform", "ref": "POarbo1", "route_ref": "14", "shelter": "no", "tactile_paving": "no"}}, {"type": "node", "id": 1565431904, "lat": 42.6411955, "lon": 2.8746886, "tags": {"bench": "yes", "bus": "yes", "highway": "bus_stop", "name": "Avenue du Roussillon", "network": "Sank\u00e9o", "network:wikidata": "Q2989888", "operator": "Vectalia Perpignan M\u00e9diterran\u00e9e", "public_transport": "platform", "ref": "POaven2", "shelter": "yes", "tactile_paving": "no"}}, {"type": "node", "id": 1565432125, "lat": 42.643685, "lon": 2.8696621, "tags": {"bench": "yes", "bus": "yes", "highway": "bus_stop", "name": "D'Oriola", "name:ca": "D'Oriola", "public_transport": "platform", "ref": "POd'or1", "route_ref": "14", "shelter": "yes", "tactile_paving": "no"}}, {"type": "node", "id": 1565432160, "lat": 42.6456561, "lon": 2.8730564, "tags": {"bench": "no", "bin": "yes", "bus": "yes", "highway": "bus_stop", "name": "Libert\u00e9s", "network": "Sank\u00e9o", "network:wikidata": "Q2989888", "operator": "Vectalia Perpignan M\u00e9diterran\u00e9e", "public_transport": "platform", "shelter": "yes"}}, {"type": "node", "id": 1573385829, "lat": 42.6353819, "lon": 2.8723197, "tags": {"bench": "no", "bus": "yes", "highway": "bus_stop", "name": "Pou del Gel", "name:ca": "Pou del Gel", "network": "Sank\u00e9o", "network:wikidata": "Q2989888", "operator": "Vectalia Perpignan M\u00e9diterran\u00e9e", "public_transport": "platform", "ref": "POpoud2", "route_ref": "9", "shelter": "no", "tactile_paving": "yes"}}, {"type": "node", "id": 1573385833, "lat": 42.6354866, "lon": 2.8723051, "tags": {"bench": "no", "bus": "yes", "highway": "bus_stop", "name": "Pou del Gel", "name:ca": "Pou del Gel", "network": "Sank\u00e9o", "network:wikidata": "Q2989888", "operator": "Vectalia Perpignan M\u00e9diterran\u00e9e", "public_transport": "platform", "ref": "POpoud1", "route_ref": "9", "shelter": "no", "tactile_paving": "yes"}}, {"type": "node", "id": 1594855375, "lat": 42.595025, "lon": 2.415821, "tags": {"bus": "yes", "highway": "bus_stop", "name": "Codalet : Saint-Michel-de-Cuxa", "public_transport": "stop_position"}}, {"type": "node", "id": 1606223273, "lat": 42.6969259, "lon": 2.7346529, "tags": {"highway": "bus_stop", "name": "Cimeti\u00e8re", "public_transport": "platform"}}, {"type": "node", "id": 1668597218, "lat": 42.698508, "lon": 2.8912978, "tags": {"bench": "yes", "bin": "yes", "bus": "yes", "departures_board": "timetable", "highway": "bus_stop", "name": "Place P\u00e9ri", "public_transport": "platform", "ref": "Perpignan - Place P\u00e9ri", "shelter": "yes", "short_name": "P\u00e9ri", "tactile_paving": "no", "wheelchair": "limited"}}, {"type": "node", "id": 1668597222, "lat": 42.7008494, "lon": 2.8938921, "tags": {"bench": "yes", "bin": "yes", "bus": "yes", "departures_board": "timetable", "highway": "bus_stop", "lit": "yes", "name": "Castillet 1", "public_transport": "platform", "ref": "Perpignan - Castillet 1", "shelter": "yes", "tactile_paving": "no"}}, {"type": "node", "id": 1668597226, "lat": 42.702016, "lon": 2.894404, "tags": {"bus": "yes", "highway": "bus_stop", "name": "Passerelle", "network": "Sank\u00e9o", "network:wikidata": "Q2989888", "operator": "Vectalia Perpignan M\u00e9diterran\u00e9e", "public_transport": "platform", "shelter": "no", "tactile_paving": "no", "wheelchair": "limited"}}, {"type": "node", "id": 1668597230, "lat": 42.7019435, "lon": 2.8961012, "tags": {"bench": "yes", "bus": "yes", "departures_board": "timetable", "highway": "bus_stop", "local_ref": "2-3-6-7-9-20", "name": "Wilson", "name:ca": "Wilson", "network": "Sank\u00e9o", "network:wikidata": "Q2989888", "operator": "Vectalia Perpignan M\u00e9diterran\u00e9e", "public_transport": "platform", "route_ref": "3", "shelter": "yes"}}, {"type": "node", "id": 1668597235, "lat": 42.7009159, "lon": 2.8918341, "tags": {"bench": "yes", "bus": "yes", "departures_board": "timetable", "highway": "bus_stop", "name": "Vauban 2", "network": "Sank\u00e9o", "network:wikidata": "Q2989888", "operator": "Vectalia Perpignan M\u00e9diterran\u00e9e", "public_transport": "platform", "ref": "Perpignan - Vauban 2", "shelter": "yes", "tactile_paving": "yes"}}, {"type": "node", "id": 1668597246, "lat": 42.7008349, "lon": 2.8876557}, {"type": "node", "id": 1668597250, "lat": 42.6981002, "lon": 2.8881181, "tags": {"bench": "yes", "bin": "no", "bus": "yes", "departures_board": "timetable", "highway": "bus_stop", "lit": "no", "name": "Catalogne (Jeantet-Violet)", "network": "Sank\u00e9o", "network:wikidata": "Q2989888", "operator": "Vectalia Perpignan M\u00e9diterran\u00e9e", "public_transport": "platform", "ref": "12,27,28", "ref_name": "Catalogne, Perpignan", "route_ref": "12;27;28", "shelter": "no", "tactile_paving": "no", "website": "https://www.ctpmperpignan.com/", "wheelchair": "limited"}}, {"type": "node", "id": 1668597254, "lat": 42.6981767, "lon": 2.8886952, "tags": {"bench": "yes", "bin": "yes", "bus": "yes", "departures_board": "timetable", "highway": "bus_stop", "lit": "yes", "name": "Catalogne (Point Chaud)", "network": "Sank\u00e9o", "network:wikidata": "Q2989888", "operator": "Vectalia Perpignan M\u00e9diterran\u00e9e", "public_transport": "platform", "ref": "Perpignan - Catalogne (Point Chaud)", "shelter": "yes", "tactile_paving": "yes", "wheelchair": "yes"}}, {"type": "node", "id": 1668597260, "lat": 42.6985881, "lon": 2.8922261, "tags": {"bench": "yes", "bin": "yes", "bus": "yes", "highway": "bus_stop", "name": "Arago", "public_transport": "platform", "shelter": "yes", "wheelchair": "yes"}}, {"type": "node", "id": 1668597274, "lat": 42.7021454, "lon": 2.896164, "tags": {"bench": "yes", "bus": "yes", "departures_board": "timetable", "highway": "bus_stop", "local_ref": "2-3-6-7-9-20", "name": "Wilson", "name:ca": "Wilson", "network": "Sank\u00e9o", "network:wikidata": "Q2989888", "operator": "Vectalia Perpignan M\u00e9diterran\u00e9e", "public_transport": "platform", "route_ref": "3", "shelter": "yes", "tactile_paving": "no"}}, {"type": "node", "id": 1668597278, "lat": 42.700372, "lon": 2.8897692, "tags": {"bench": "yes", "bin": "yes", "bus": "yes", "departures_board": "timetable", "highway": "bus_stop", "name": "Clemenceau", "network": "Sank\u00e9o", "network:wikidata": "Q2989888", "operator": "Vectalia Perpignan M\u00e9diterran\u00e9e", "public_transport": "platform", "ref": "Perpignan - Clemenceau", "route_ref": "3", "shelter": "yes", "tactile_paving": "yes"}}, {"type": "node", "id": 1668597282, "lat": 42.701106, "lon": 2.8925479, "tags": {"bench": "yes", "bin": "yes", "bus": "yes", "departures_board": "timetable", "highway": "bus_stop", "lit": "yes", "name": "Vauban 1", "network": "Sank\u00e9o", "network:wikidata": "Q2989888", "operator": "Vectalia Perpignan M\u00e9diterran\u00e9e", "public_transport": "platform", "ref": "Perpignan - Vauban 1", "route_ref": "3", "shelter": "yes", "tactile_paving": "yes"}}, {"type": "node", "id": 1668597285, "lat": 42.6994562, "lon": 2.8887032, "tags": {"bench": "yes", "bin": "yes", "bus": "yes", "departures_board": "timetable", "highway": "bus_stop", "lit": "yes", "name": "Catalogne (Brasserie) 1", "network": "Sank\u00e9o", "network:wikidata": "Q2989888", "operator": "Vectalia Perpignan M\u00e9diterran\u00e9e", "public_transport": "platform", "ref": "Perpignan - Catalogne (Brasserie) 1", "route_ref": "3", "shelter": "yes", "tactile_paving": "yes"}}, {"type": "node", "id": 1668597299, "lat": 42.7022644, "lon": 2.8950343, "tags": {"bus": "yes", "highway": "bus_stop", "name": "Passerelle", "network": "Sank\u00e9o", "network:wikidata": "Q2989888", "operator": "Vectalia Perpignan M\u00e9diterran\u00e9e", "public_transport": "platform", "shelter": "yes", "tactile_paving": "no", "wheelchair": "limited"}}, {"type": "node", "id": 1668597302, "lat": 42.7011081, "lon": 2.8939743, "tags": {"bench": "yes", "bin": "yes", "bus": "yes", "departures_board": "timetable", "highway": "bus_stop", "lit": "yes", "name": "Castillet 2", "public_transport": "platform", "ref": "Perpignan - Castillet 2", "shelter": "yes", "tactile_paving": "yes", "wheelchair": "yes"}}, {"type": "node", "id": 1668597305, "lat": 42.702483, "lon": 2.8941253, "tags": {"bench": "yes", "bin": "yes", "bus": "yes", "departures_board": "timetable", "highway": "bus_stop", "name": "Vari\u00e9t\u00e9s", "network": "Sank\u00e9o", "network:wikidata": "Q2989888", "operator": "Vectalia Perpignan M\u00e9diterran\u00e9e", "public_transport": "platform", "ref": "Perpignan - Vari\u00e9t\u00e9s", "ref_name": "Vari\u00e9t\u00e9s, Perpignan", "route_ref": "12", "shelter": "yes", "tactile_paving": "yes", "website": "https://www.ctpmperpignan.com/", "wheelchair": "limited"}}, {"type": "node", "id": 1708220030, "lat": 42.622486, "lon": 2.751349, "tags": {"bench": "yes", "highway": "bus_stop", "name": "Domaine des Vignes", "public_transport": "platform", "shelter": "yes"}}, {"type": "node", "id": 1710183973, "lat": 42.6243957, "lon": 2.750798, "tags": {"bench": "no", "bus": "yes", "highway": "bus_stop", "name": "Balcon de l'Aspre", "public_transport": "platform", "shelter": "no"}}, {"type": "node", "id": 1710183985, "lat": 42.6257304, "lon": 2.7509538, "tags": {"highway": "bus_stop", "name": "Les Acacias", "public_transport": "platform"}}, {"type": "node", "id": 1714194304, "lat": 42.5792444, "lon": 2.7787264, "tags": {"bus": "yes", "highway": "bus_stop", "name": "Aire de Loisirs", "public_transport": "platform"}}, {"type": "node", "id": 1714194305, "lat": 42.5822615, "lon": 2.7796555, "tags": {"bin": "yes", "covered": "yes", "highway": "bus_stop", "name": "Foyer Rural", "passenger_information_display": "yes", "public_transport": "platform", "shelter": "yes"}}, {"type": "node", "id": 1714194306, "lat": 42.6083095, "lon": 2.7724761, "tags": {"bench": "yes", "bin": "yes", "highway": "bus_stop", "name": "Mairie", "public_transport": "platform", "shelter": "yes"}}, {"type": "node", "id": 1714194307, "lat": 42.6107589, "lon": 2.7556231, "tags": {"highway": "bus_stop", "name": "Ve\u00efnat de l\u2019Espinass\u00e8re", "public_transport": "platform"}}, {"type": "node", "id": 1714194308, "lat": 42.6146892, "lon": 2.7483693, "tags": {"highway": "bus_stop", "name": "Village", "public_transport": "platform"}}, {"type": "node", "id": 1717755778, "lat": 42.6369627, "lon": 2.7619082, "tags": {"bench": "yes", "highway": "bus_stop", "name": "Piscine", "public_transport": "platform", "shelter": "yes"}}, {"type": "node", "id": 1717755791, "lat": 42.6278766, "lon": 2.7446343, "tags": {"bus": "yes", "highway": "bus_stop", "name": "H\u00f4pital", "public_transport": "platform"}}, {"type": "node", "id": 1717755793, "lat": 42.6296045, "lon": 2.7529469, "tags": {"bench": "no", "highway": "bus_stop", "name": "La Canterrane", "public_transport": "platform", "shelter": "no"}}, {"type": "node", "id": 1717755801, "lat": 42.6297199, "lon": 2.7528261, "tags": {"bench": "no", "highway": "bus_stop", "name": "La Canterrane", "public_transport": "platform", "shelter": "no"}}, {"type": "node", "id": 1717755808, "lat": 42.6319986, "lon": 2.7593022, "tags": {"bench": "yes", "highway": "bus_stop", "name": "La Poste", "public_transport": "platform", "shelter": "yes"}}, {"type": "node", "id": 1717755819, "lat": 42.6420006, "lon": 2.76827, "tags": {"bench": "no", "highway": "bus_stop", "name": "Les Espassoles", "public_transport": "platform", "shelter": "yes"}}, {"type": "node", "id": 1717755825, "lat": 42.6421839, "lon": 2.7684266, "tags": {"bench": "no", "check_date:shelter": "2023-06-10", "highway": "bus_stop", "name": "Les Espassoles", "public_transport": "platform", "shelter": "no"}}, {"type": "node", "id": 1717755830, "lat": 42.6452484, "lon": 2.7769138, "tags": {"bench": "no", "highway": "bus_stop", "name": "Les Rosiers-Domaine de Sa\u00fc", "public_transport": "platform", "shelter": "no"}}, {"type": "node", "id": 1717755839, "lat": 42.628355, "lon": 2.7563277, "tags": {"bench": "no", "highway": "bus_stop", "name": "Rond-Point des Aspres", "public_transport": "platform", "shelter": "no"}}, {"type": "node", "id": 1717755841, "lat": 42.6283952, "lon": 2.7564473, "tags": {"bench": "no", "highway": "bus_stop", "name": "Rond-Point des Aspres", "public_transport": "platform", "shelter": "no"}}, {"type": "node", "id": 1726272609, "lat": 42.670328, "lon": 2.8309361, "tags": {"bench": "yes", "bus": "yes", "highway": "bus_stop", "name": "Mairie", "public_transport": "platform", "shelter": "no", "wheelchair": "no"}}, {"type": "node", "id": 1735345685, "lat": 42.6465569, "lon": 2.387508, "tags": {"highway": "bus_stop", "name": "Molitg Thermes", "public_transport": "platform"}}, {"type": "node", "id": 1805052016, "lat": 42.6961167, "lon": 2.8781514, "tags": {"bench": "yes", "bin": "yes", "bus": "yes", "highway": "bus_stop", "lit": "yes", "name": "Gare TGV", "public_transport": "platform", "route_ref": "3", "shelter": "yes", "tactile_paving": "no", "wheelchair": "limited"}}, {"type": "node", "id": 1805052272, "lat": 42.6962291, "lon": 2.8783298, "tags": {"bench": "yes", "bin": "yes", "bus": "yes", "highway": "bus_stop", "lit": "yes", "name": "Gare TGV", "public_transport": "platform", "route_ref": "3", "shelter": "yes", "tactile_paving": "no", "wheelchair": "limited"}}, {"type": "node", "id": 1822969724, "lat": 42.6518946, "lon": 2.6233786, "tags": {"highway": "bus_stop"}}, {"type": "node", "id": 1832858166, "lat": 42.6729536, "lon": 2.8270832, "tags": {"bench": "no", "bus": "yes", "highway": "bus_stop", "name": "Mas Puig-Sec", "name:ca": "Mas Puig-Sec", "network": "Sank\u00e9o", "network:wikidata": "Q2989888", "operator": "Vectalia Perpignan M\u00e9diterran\u00e9e", "public_transport": "platform", "shelter": "no"}}, {"type": "node", "id": 1937762421, "lat": 42.6454365, "lon": 2.7769684, "tags": {"bench": "no", "highway": "bus_stop", "name": "Les Rosiers-Domaine de Sa\u00fc", "public_transport": "platform", "shelter": "no"}}, {"type": "node", "id": 1937771824, "lat": 42.5305755, "lon": 2.9524593, "tags": {"highway": "bus_stop", "operator": "liO", "public_transport": "platform", "shelter": "no"}}, {"type": "node", "id": 1953210863, "lat": 42.6666181, "lon": 2.9056606, "tags": {"bench": "no", "bus": "yes", "highway": "bus_stop", "name": "Technosud 1", "network": "Sank\u00e9o", "network:wikidata": "Q2989888", "operator": "Vectalia Perpignan M\u00e9diterran\u00e9e", "public_transport": "platform", "shelter": "no"}}, {"type": "node", "id": 1995263944, "lat": 42.5372738, "lon": 2.5327427, "tags": {"bus": "yes", "highway": "bus_stop", "name": "Valmanya : Village", "public_transport": "stop_position"}}, {"type": "node", "id": 1998697538, "lat": 42.8145279, "lon": 2.7450557, "tags": {"bench": "no", "bin": "yes", "bus": "yes", "highway": "bus_stop", "lit": "no", "name": "Palais des Congr\u00e8s", "network": "Sank\u00e9o", "network:wikidata": "Q2989888", "operator": "Vectalia Perpignan M\u00e9diterran\u00e9e", "public_transport": "platform", "ref": "Tautavel - Palais des Congr\u00e8s", "route_ref": "12", "shelter": "no", "tactile_paving": "no", "website": "https://www.ctpmperpignan.com/", "wheelchair": "no"}}, {"type": "node", "id": 1998697546, "lat": 42.8161098, "lon": 2.7491467, "tags": {"bench": "no", "bin": "no", "bus": "yes", "highway": "bus_stop", "lit": "no", "name": "Tautavel", "network": "Sank\u00e9o", "network:wikidata": "Q2989888", "operator": "Vectalia Perpignan M\u00e9diterran\u00e9e", "public_transport": "platform", "ref": "Tautavel - Tautavel", "shelter": "no", "tactile_paving": "no", "wheelchair": "no"}}, {"type": "node", "id": 2001350388, "lat": 42.668307, "lon": 2.624312}, {"type": "node", "id": 2001350390, "lat": 42.668367, "lon": 2.624245}, {"type": "node", "id": 2001350391, "lat": 42.66839, "lon": 2.624453}, {"type": "node", "id": 2001350392, "lat": 42.668451, "lon": 2.624385}, {"type": "node", "id": 2001711679, "lat": 42.6578953, "lon": 2.6680399, "tags": {"bench": "no", "bin": "no", "bus": "yes", "highway": "bus_stop", "name": "Rue du Riberal", "public_transport": "platform", "shelter": "no", "tactile_paving": "no"}}, {"type": "node", "id": 2001711684, "lat": 42.6530224, "lon": 2.6625636, "tags": {"bench": "no", "bin": "no", "bus": "yes", "highway": "bus_stop", "lit": "no", "name": "Mairie", "public_transport": "platform", "shelter": "no", "tactile_paving": "no"}}, {"type": "node", "id": 2001761661, "lat": 42.6684792, "lon": 2.6243904, "tags": {"bench": "no", "bus": "yes", "highway": "bus_stop", "name": "Ille-sur-T\u00eat - Gare SNCF", "public_transport": "platform", "shelter": "no"}}, {"type": "node", "id": 2004757786, "lat": 42.4887093, "lon": 2.7527316, "tags": {"bench": "yes", "bin": "yes", "bus": "yes", "departures_board": "yes", "highway": "bus_stop", "lit": "no", "name": "Rond-Point du Torr\u00e9ador", "public_transport": "platform", "shelter": "yes", "tactile_paving": "no"}}, {"type": "node", "id": 2004802225, "lat": 42.4929045, "lon": 2.7425248, "tags": {"bench": "yes", "bin": "yes", "highway": "bus_stop", "lit": "no", "name": "Rond Point des Croix de Guerre", "public_transport": "platform", "shelter": "yes", "tactile_paving": "no"}}, {"type": "node", "id": 2005034978, "lat": 42.4974085, "lon": 2.7481236, "tags": {"bus": "yes", "highway": "bus_stop", "public_transport": "platform"}}, {"type": "node", "id": 2018175248, "lat": 42.4942287, "lon": 2.7418231, "tags": {"bench": "yes", "bin": "yes", "highway": "bus_stop", "lit": "yes", "name": "Rue du 19 Mars", "public_transport": "platform", "shelter": "yes", "tactile_paving": "no"}}, {"type": "node", "id": 2019666628, "lat": 42.7751927, "lon": 2.9158743, "tags": {"bus": "yes", "highway": "bus_stop", "name": "Centre Commercial (Claira)", "network": "Sank\u00e9o", "network:wikidata": "Q2989888", "operator": "Vectalia Perpignan M\u00e9diterran\u00e9e", "public_transport": "platform", "ref_name": "Centre Commercial, Claira", "route_ref": "13;14;21", "shelter": "yes", "tactile_paving": "no", "website": "https://www.ctpmperpignan.com/", "wheelchair": "no"}}, {"type": "node", "id": 2036479803, "lat": 42.7775774, "lon": 2.8314585, "tags": {"bus": "yes", "highway": "bus_stop", "name": "Bicentenaire (Espira)", "public_transport": "platform", "route_ref": "12", "shelter": "yes", "tactile_paving": "no", "website": "https://www.ctpmperpignan.com/", "wheelchair": "no"}}, {"type": "node", "id": 2036479804, "lat": 42.7793251, "lon": 2.790597, "tags": {"bench": "yes", "bin": "no", "bus": "yes", "highway": "bus_stop", "name": "Cases-de-P\u00e8ne", "network": "Sank\u00e9o", "network:wikidata": "Q2989888", "operator": "Vectalia Perpignan M\u00e9diterran\u00e9e", "public_transport": "platform", "ref": "Cases-de-P\u00e8ne - Cases-de-P\u00e8ne", "shelter": "yes", "tactile_paving": "no", "wheelchair": "no"}}, {"type": "node", "id": 2036479805, "lat": 42.7750986, "lon": 2.8366318, "tags": {"bench": "yes", "bus": "yes", "departures_board": "timetable", "highway": "bus_stop", "name": "Chemin d'Estagel", "network": "Sank\u00e9o", "network:wikidata": "Q2989888", "operator": "Vectalia Perpignan M\u00e9diterran\u00e9e", "public_transport": "platform", "ref": "Espira-de-l'Agly - Chemin d'Estagel", "shelter": "yes", "tactile_paving": "yes", "wheelchair": "yes"}}, {"type": "node", "id": 2036479806, "lat": 42.7782088, "lon": 2.8348743, "tags": {"bus": "yes", "highway": "bus_stop", "name": "Espira de l'Agly", "public_transport": "platform", "route_ref": "12", "shelter": "yes", "tactile_paving": "no", "website": "https://www.ctpmperpignan.com/", "wheelchair": "no"}}, {"type": "node", "id": 2045175731, "lat": 42.7697499, "lon": 2.8701863, "tags": {"bus": "yes", "fixme": "V\u00e9rifier qu'il existe bien un arr\u00eat ici", "highway": "bus_stop", "lastcheck": "2012-12-15", "name": "Rivesaltes", "network": "Sank\u00e9o", "network:wikidata": "Q2989888", "operator": "Vectalia Perpignan M\u00e9diterran\u00e9e", "public_transport": "platform", "shelter": "no", "tactile_paving": "no", "wheelchair": "no"}}, {"type": "node", "id": 2045175760, "lat": 42.7700449, "lon": 2.8697404, "tags": {"bus": "yes", "highway": "bus_stop", "name": "Rivesaltes", "network": "Sank\u00e9o", "network:wikidata": "Q2989888", "operator": "Vectalia Perpignan M\u00e9diterran\u00e9e", "public_transport": "platform", "shelter": "yes", "tactile_paving": "no", "wheelchair": "no"}}, {"type": "node", "id": 2087353302, "lat": 42.8143648, "lon": 2.7383188, "tags": {"bench": "no", "bus": "yes", "highway": "bus_stop", "name": "Byrrh", "network": "Sank\u00e9o", "network:wikidata": "Q2989888", "operator": "Vectalia Perpignan M\u00e9diterran\u00e9e", "public_transport": "platform", "ref": "Tautavel - Byrrh", "route_ref": "12", "shelter": "no", "tactile_paving": "no", "website": "https://www.ctpmperpignan.com/", "wheelchair": "no"}}, {"type": "node", "id": 2087353318, "lat": 42.7725274, "lon": 2.6993133, "tags": {"bench": "yes", "bin": "yes", "bus": "yes", "highway": "bus_stop", "lit": "no", "name": "Estagel", "network": "Sank\u00e9o", "network:wikidata": "Q2989888", "operator": "Vectalia Perpignan M\u00e9diterran\u00e9e", "public_transport": "platform", "ref": "Estagel - Estagel", "shelter": "yes", "tactile_paving": "no", "wheelchair": "no"}}, {"type": "node", "id": 2087353325, "lat": 42.8146113, "lon": 2.7453182, "tags": {"bus": "yes", "highway": "bus_stop", "name": "Palais des Congr\u00e8s", "network": "Sank\u00e9o", "network:wikidata": "Q2989888", "operator": "Vectalia Perpignan M\u00e9diterran\u00e9e", "public_transport": "platform", "ref": "Tautavel - Palais des Congr\u00e8s", "route_ref": "12", "shelter": "no", "tactile_paving": "no", "website": "https://www.ctpmperpignan.com/", "wheelchair": "no"}}, {"type": "node", "id": 2087469222, "lat": 42.7776098, "lon": 2.831366, "tags": {"bus": "yes", "highway": "bus_stop", "name": "Bicentenaire (Espira)", "public_transport": "platform", "route_ref": "12", "shelter": "yes", "tactile_paving": "no", "website": "https://www.ctpmperpignan.com/", "wheelchair": "no"}}, {"type": "node", "id": 2087469223, "lat": 42.7789852, "lon": 2.7900153, "tags": {"bus": "yes", "highway": "bus_stop", "name": "Cases-de-P\u00e8ne", "network": "Sank\u00e9o", "network:wikidata": "Q2989888", "operator": "Vectalia Perpignan M\u00e9diterran\u00e9e", "public_transport": "platform", "ref": "Cases-de-P\u00e8ne - Cases-de-P\u00e8ne", "shelter": "no", "tactile_paving": "no", "wheelchair": "no"}}, {"type": "node", "id": 2087469225, "lat": 42.765783, "lon": 2.8692207, "tags": {"bus": "yes", "highway": "bus_stop", "name": "Lyc\u00e9e Agricole", "network": "Sank\u00e9o", "network:wikidata": "Q2989888", "operator": "Vectalia Perpignan M\u00e9diterran\u00e9e", "public_transport": "platform", "ref": "Rivesaltes - Lyc\u00e9e Agricole", "tactile_paving": "yes"}}, {"type": "node", "id": 2090305971, "lat": 42.7685242, "lon": 2.8766476, "tags": {"bus": "yes", "highway": "bus_stop", "name": "Arnaud de Villeneuve", "network": "Sank\u00e9o", "network:wikidata": "Q2989888", "operator": "Vectalia Perpignan M\u00e9diterran\u00e9e", "public_transport": "platform", "ref": "Rivesaltes - Arnaud de Villeneuve", "tactile_paving": "no", "wheelchair": "no"}}, {"type": "node", "id": 2090305992, "lat": 42.7109245, "lon": 2.8901413, "tags": {"bus": "yes", "highway": "bus_stop", "name": "Barande", "network": "Sank\u00e9o", "network:wikidata": "Q2989888", "operator": "Vectalia Perpignan M\u00e9diterran\u00e9e", "public_transport": "platform", "ref": "Perpignan - Barande", "shelter": "yes", "tactile_paving": "no", "wheelchair": "no"}}, {"type": "node", "id": 2090306049, "lat": 42.7153547, "lon": 2.8883868, "tags": {"bus": "yes", "highway": "bus_stop", "name": "Giral", "network": "Sank\u00e9o", "network:wikidata": "Q2989888", "operator": "Vectalia Perpignan M\u00e9diterran\u00e9e", "public_transport": "platform", "ref": "Perpignan - Giral", "shelter": "yes", "tactile_paving": "no", "wheelchair": "no"}}, {"type": "node", "id": 2090306067, "lat": 42.7059321, "lon": 2.8921183, "tags": {"bus": "yes", "highway": "bus_stop", "name": "HLM Saint-Louis", "network": "Sank\u00e9o", "network:wikidata": "Q2989888", "operator": "Vectalia Perpignan M\u00e9diterran\u00e9e", "public_transport": "platform", "ref": "Perpignan - HLM Saint-Louis", "ref_name": "HLM Saint-Louis, Perpignan", "route_ref": "12", "shelter": "yes", "tactile_paving": "no", "website": "https://www.ctpmperpignan.com/", "wheelchair": "no"}}, {"type": "node", "id": 2090306076, "lat": 42.728537, "lon": 2.8884403, "tags": {"bench": "yes", "bus": "yes", "highway": "bus_stop", "name": "Haut-Vernet", "network": "Sank\u00e9o", "network:wikidata": "Q2989888", "operator": "Vectalia Perpignan M\u00e9diterran\u00e9e", "public_transport": "platform", "ref": "PEhaut2", "shelter": "yes"}}, {"type": "node", "id": 2090306102, "lat": 42.7132296, "lon": 2.8892364, "tags": {"bus": "yes", "highway": "bus_stop", "name": "Les Oiseaux", "network": "Sank\u00e9o", "network:wikidata": "Q2989888", "operator": "Vectalia Perpignan M\u00e9diterran\u00e9e", "public_transport": "platform", "ref": "Perpignan - Les Oiseaux", "shelter": "yes", "tactile_paving": "no", "wheelchair": "no"}}, {"type": "node", "id": 2090306110, "lat": 42.7122993, "lon": 2.8894406, "tags": {"bus": "yes", "highway": "bus_stop", "name": "Les Oiseaux", "network": "Sank\u00e9o", "network:wikidata": "Q2989888", "operator": "Vectalia Perpignan M\u00e9diterran\u00e9e", "public_transport": "platform", "ref": "Perpignan - Les Oiseaux", "wheelchair": "no"}}, {"type": "node", "id": 2090306117, "lat": 42.7182189, "lon": 2.8873103}, {"type": "node", "id": 2090306127, "lat": 42.7325182, "lon": 2.8896139, "tags": {"bench": "yes", "bus": "yes", "highway": "bus_stop", "name": "Monticelli", "network": "Sank\u00e9o", "network:wikidata": "Q2989888", "operator": "Vectalia Perpignan M\u00e9diterran\u00e9e", "public_transport": "platform", "ref": "PEmont2", "shelter": "yes", "tactile_paving": "no", "wheelchair": "no"}}, {"type": "node", "id": 2090306136, "lat": 42.7654337, "lon": 2.8758391, "tags": {"bus": "yes", "highway": "bus_stop", "name": "Mour\u00e8re", "network": "Sank\u00e9o", "network:wikidata": "Q2989888", "operator": "Vectalia Perpignan M\u00e9diterran\u00e9e", "public_transport": "platform", "ref": "Rivesaltes - Mour\u00e8re", "shelter": "no", "tactile_paving": "no", "wheelchair": "no"}}, {"type": "node", "id": 2090306152, "lat": 42.7703633, "lon": 2.8834716, "tags": {"bus": "yes", "highway": "bus_stop", "name": "Pressoir", "network": "Sank\u00e9o", "network:wikidata": "Q2989888", "operator": "Vectalia Perpignan M\u00e9diterran\u00e9e", "public_transport": "platform", "ref": "Rivesaltes - Pressoir", "shelter": "no", "tactile_paving": "no", "wheelchair": "no"}}, {"type": "node", "id": 2090306162, "lat": 42.7203641, "lon": 2.8864222, "tags": {"bus": "yes", "highway": "bus_stop", "name": "Roussillonaise", "network": "Sank\u00e9o", "network:wikidata": "Q2989888", "operator": "Vectalia Perpignan M\u00e9diterran\u00e9e", "public_transport": "platform", "ref_name": "Perpignan - Roussillonaise", "shelter": "yes", "tactile_paving": "no", "wheelchair": "yes"}}, {"type": "node", "id": 2090306171, "lat": 42.760913, "lon": 2.8709051, "tags": {"bus": "yes", "highway": "bus_stop", "name": "Salanque", "network": "Sank\u00e9o", "network:wikidata": "Q2989888", "operator": "Vectalia Perpignan M\u00e9diterran\u00e9e", "public_transport": "platform", "ref": "Rivesaltes - Salanque", "ref_name": "Rivesaltes - Salanque", "shelter": "no", "tactile_paving": "no", "wheelchair": "no"}}, {"type": "node", "id": 2090306180, "lat": 42.7613576, "lon": 2.8759153, "tags": {"bus": "yes", "highway": "bus_stop", "name": "Sardane", "network": "Sank\u00e9o", "network:wikidata": "Q2989888", "operator": "Vectalia Perpignan M\u00e9diterran\u00e9e", "public_transport": "platform", "ref": "Rivesaltes - Sardane", "shelter": "no", "tactile_paving": "no", "wheelchair": "no"}}, {"type": "node", "id": 2126097642, "lat": 42.6980246, "lon": 2.8892406, "tags": {"bus": "yes", "highway": "bus_stop", "name": "Catalogne 5 (Rue Sully)", "network": "Sank\u00e9o", "network:wikidata": "Q2989888", "operator": "Vectalia Perpignan M\u00e9diterran\u00e9e", "public_transport": "platform", "shelter": "no", "tactile_paving": "no", "wheelchair": "limited"}}, {"type": "node", "id": 2126097643, "lat": 42.6981997, "lon": 2.8892735, "tags": {"bus": "yes", "highway": "bus_stop", "name": "Catalogne 5 (Rue Sully)", "network": "Sank\u00e9o", "network:wikidata": "Q2989888", "operator": "Vectalia Perpignan M\u00e9diterran\u00e9e", "public_transport": "platform", "shelter": "no", "tactile_paving": "no", "wheelchair": "limited"}}, {"type": "node", "id": 2172233441, "lat": 42.7578337, "lon": 2.7560489, "tags": {"bus": "yes", "highway": "bus_stop", "name": "Faratjal", "network": "Sank\u00e9o", "network:wikidata": "Q2989888", "operator": "Vectalia Perpignan M\u00e9diterran\u00e9e", "public_transport": "platform", "ref_name": "Faratjal, Calce", "route_ref": "24", "tactile_paving": "no", "website": "https://www.ctpmperpignan.com/", "wheelchair": "no"}}, {"type": "node", "id": 2172271768, "lat": 42.7578067, "lon": 2.7561411, "tags": {"bus": "yes", "highway": "bus_stop", "name": "Faratjal", "network": "Sank\u00e9o", "network:wikidata": "Q2989888", "operator": "Vectalia Perpignan M\u00e9diterran\u00e9e", "public_transport": "platform", "route_ref": "24", "website": "https://www.ctpmperpignan.com/", "wheelchair": "no"}}, {"type": "node", "id": 2175295550, "lat": 42.7733509, "lon": 2.8317643, "tags": {"bus": "yes", "fixme": "position, abri ?", "highway": "bus_stop", "name": "Cave (Espira)", "public_transport": "platform", "ref_name": "Cave, Espira de l'Agly", "route_ref": "12", "tactile_paving": "no", "website": "https://www.ctpmperpignan.com/", "wheelchair": "no"}}, {"type": "node", "id": 2175295558, "lat": 42.7517276, "lon": 2.8115001, "tags": {"bench": "no", "bin": "no", "bus": "yes", "departures_board": "timetable", "highway": "bus_stop", "name": "Cayrol", "network": "Sank\u00e9o", "network:wikidata": "Q2989888", "operator": "Vectalia Perpignan M\u00e9diterran\u00e9e", "public_transport": "platform", "ref": "10", "ref_name": "Cayrol, Baixas", "shelter": "no", "source": "pmca, Bing", "tactile_paving": "no", "website": "https://www.ctpmperpignan.com/", "wheelchair": "no"}}, {"type": "node", "id": 2175295588, "lat": 42.7514512, "lon": 2.8113873, "tags": {"bench": "no", "bin": "no", "bus": "yes", "departures_board": "timetable", "highway": "bus_stop", "name": "Cayrol", "network": "Sank\u00e9o", "network:wikidata": "Q2989888", "operator": "Vectalia Perpignan M\u00e9diterran\u00e9e", "public_transport": "platform", "ref": "10, 24", "ref_name": "Cayrol, Baixas", "shelter": "no", "source": "pmca, Bing", "tactile_paving": "no", "website": "https://www.ctpmperpignan.com/", "wheelchair": "no"}}, {"type": "node", "id": 2175295603, "lat": 42.7752149, "lon": 2.8367158, "tags": {"bench": "no", "bus": "yes", "highway": "bus_stop", "name": "Chemin d'Estagel", "network": "Sank\u00e9o", "network:wikidata": "Q2989888", "operator": "Vectalia Perpignan M\u00e9diterran\u00e9e", "public_transport": "platform", "ref": "Espira-de-l'Agly - Chemin d'Estagel", "ref_name": "Chemin d'Estagel, Espira de l'Agly", "shelter": "no", "tactile_paving": "yes", "website": "https://www.ctpmperpignan.com/", "wheelchair": "yes"}}, {"type": "node", "id": 2175295621, "lat": 42.7548732, "lon": 2.848618, "tags": {"bus": "yes", "highway": "bus_stop", "name": "La P\u00e9pini\u00e8re", "network": "Sank\u00e9o", "network:wikidata": "Q2989888", "operator": "Vectalia Perpignan M\u00e9diterran\u00e9e", "public_transport": "platform", "ref_name": "La P\u00e9pini\u00e8re, Peyrestortes", "route_ref": "7", "tactile_paving": "no", "website": "https://www.ctpmperpignan.com/", "wheelchair": "no"}}, {"type": "node", "id": 2175295637, "lat": 42.7549845, "lon": 2.8484577, "tags": {"bench": "no", "bus": "yes", "highway": "bus_stop", "name": "La P\u00e9pini\u00e8re", "network": "Sank\u00e9o", "network:wikidata": "Q2989888", "operator": "Vectalia Perpignan M\u00e9diterran\u00e9e", "public_transport": "platform", "ref_name": "La P\u00e9pini\u00e8re, Peyrestortes", "shelter": "no", "tactile_paving": "no", "website": "https://www.ctpmperpignan.com/", "wheelchair": "no"}}, {"type": "node", "id": 2175295639, "lat": 42.7550635, "lon": 2.8522295, "tags": {"bench": "no", "bus": "yes", "highway": "bus_stop", "name": "Les Avens", "network": "Sank\u00e9o", "network:wikidata": "Q2989888", "operator": "Vectalia Perpignan M\u00e9diterran\u00e9e", "public_transport": "platform", "ref": "7", "ref_name": "Les Avens, Peyrestortes", "shelter": "no", "source": "pmca", "tactile_paving": "no", "website": "https://www.ctpmperpignan.com/", "wheelchair": "no"}}, {"type": "node", "id": 2175295664, "lat": 42.7551671, "lon": 2.8522449, "tags": {"bench": "yes", "bus": "yes", "highway": "bus_stop", "name": "Les Avens", "network": "Sank\u00e9o", "network:wikidata": "Q2989888", "operator": "Vectalia Perpignan M\u00e9diterran\u00e9e", "public_transport": "platform", "ref": "7", "ref_name": "Les Avens, Peyrestortes", "shelter": "yes", "source": "pmca", "tactile_paving": "no", "website": "https://www.ctpmperpignan.com/", "wheelchair": "no"}}, {"type": "node", "id": 2175295727, "lat": 42.7554273, "lon": 2.8449338, "tags": {"bench": "yes", "bus": "yes", "highway": "bus_stop", "name": "Peyrestortes", "network": "Sank\u00e9o", "network:wikidata": "Q2989888", "operator": "Vectalia Perpignan M\u00e9diterran\u00e9e", "public_transport": "platform", "ref_name": "Peyrestortes, Peyrestortes", "route_ref": "7", "shelter": "yes", "tactile_paving": "no", "website": "https://www.ctpmperpignan.com/", "wheelchair": "no"}}, {"type": "node", "id": 2175295746, "lat": 42.7555837, "lon": 2.8444766, "tags": {"bench": "no", "bus": "yes", "highway": "bus_stop", "name": "Peyrestortes", "network": "Sank\u00e9o", "network:wikidata": "Q2989888", "operator": "Vectalia Perpignan M\u00e9diterran\u00e9e", "public_transport": "platform", "ref_name": "Peyrestortes, Peyrestortes", "route_ref": "7", "shelter": "no", "tactile_paving": "no", "website": "https://www.ctpmperpignan.com/", "wheelchair": "no"}}, {"type": "node", "id": 2175295760, "lat": 42.8697378, "lon": 2.8734826, "tags": {"bench": "yes", "bus": "yes", "highway": "bus_stop", "name": "Place (Opoul-P\u00e9rillos)", "network": "Sank\u00e9o", "network:wikidata": "Q2989888", "operator": "Vectalia Perpignan M\u00e9diterran\u00e9e", "public_transport": "platform", "ref": "25", "ref_name": "Opoul - Place", "shelter": "yes", "source": "pmca", "tactile_paving": "no", "wheelchair": "no"}}, {"type": "node", "id": 2175295854, "lat": 42.7459468, "lon": 2.8124818, "tags": {"bench": "no", "bin": "no", "bus": "yes", "highway": "bus_stop", "name": "Templiers", "network": "Sank\u00e9o", "network:wikidata": "Q2989888", "operator": "Vectalia Perpignan M\u00e9diterran\u00e9e", "public_transport": "platform", "ref_name": "Templiers, Baixas", "shelter": "no", "source": "pmca", "tactile_paving": "no", "website": "https://www.ctpmperpignan.com/", "wheelchair": "no"}}, {"type": "node", "id": 2175295872, "lat": 42.746959, "lon": 2.8119439, "tags": {"bench": "no", "bin": "no", "bus": "yes", "departures_board": "timetable", "highway": "bus_stop", "name": "Templiers", "network": "Sank\u00e9o", "network:wikidata": "Q2989888", "operator": "Vectalia Perpignan M\u00e9diterran\u00e9e", "public_transport": "platform", "ref_name": "Templiers, Baixas", "shelter": "no", "source": "Bing, pmca", "tactile_paving": "no", "website": "https://www.ctpmperpignan.com/", "wheelchair": "no"}}, {"type": "node", "id": 2177340622, "lat": 42.7392287, "lon": 2.6114999, "tags": {"bench": "yes", "bus": "yes", "highway": "bus_stop", "name": "Cassagnes", "network": "Sank\u00e9o", "network:wikidata": "Q2989888", "operator": "Vectalia Perpignan M\u00e9diterran\u00e9e", "public_transport": "platform", "ref": "23", "shelter": "yes", "source": "Bing, pmca", "tactile_paving": "no", "website": "https://www.ctpmperpignan.com/", "wheelchair": "no"}}, {"type": "node", "id": 2177340623, "lat": 42.7723532, "lon": 2.6995085, "tags": {"bench": "yes", "bin": "yes", "bus": "yes", "highway": "bus_stop", "lit": "no", "name": "Estagel", "network": "Sank\u00e9o", "network:wikidata": "Q2989888", "operator": "Vectalia Perpignan M\u00e9diterran\u00e9e", "public_transport": "platform", "ref_name": "Estagel - Estagel", "shelter": "yes", "tactile_paving": "no", "wheelchair": "no"}}, {"type": "node", "id": 2177340625, "lat": 42.7496985, "lon": 2.6777945, "tags": {"bench": "yes", "bus": "yes", "highway": "bus_stop", "name": "Montner", "name:ca": "Montner", "network": "Sank\u00e9o", "network:wikidata": "Q2989888", "operator": "Vectalia Perpignan M\u00e9diterran\u00e9e", "public_transport": "platform", "shelter": "yes", "tactile_paving": "no", "wheelchair": "no"}}, {"type": "node", "id": 2178890681, "lat": 42.774287, "lon": 2.915589, "tags": {"bus": "yes", "highway": "bus_stop", "name": "Centre Commercial (Claira)", "network": "Sank\u00e9o", "network:wikidata": "Q2989888", "operator": "Vectalia Perpignan M\u00e9diterran\u00e9e", "public_transport": "platform", "ref_name": "Centre Commercial, Claira", "shelter": "yes", "tactile_paving": "no", "website": "https://www.ctpmperpignan.com/", "wheelchair": "no"}}, {"type": "node", "id": 2178935258, "lat": 42.7755953, "lon": 2.9089269, "tags": {"advertising": "poster_box", "bench": "yes", "bus": "yes", "highway": "bus_stop", "name": "Cap Roussillon", "network": "Sank\u00e9o", "network:wikidata": "Q2989888", "operator": "Vectalia Perpignan M\u00e9diterran\u00e9e", "public_transport": "platform", "ref": "21", "ref_name": "Cap Roussillon, Rivesaltes", "shelter": "yes", "source": "pmca", "tactile_paving": "no", "website": "https://www.ctpmperpignan.com/", "wheelchair": "no"}}, {"type": "node", "id": 2178935275, "lat": 42.7751483, "lon": 2.9087715, "tags": {"bus": "yes", "highway": "bus_stop", "name": "Cap Roussillon", "network": "Sank\u00e9o", "network:wikidata": "Q2989888", "operator": "Vectalia Perpignan M\u00e9diterran\u00e9e", "public_transport": "platform", "ref": "21", "ref_name": "Cap Roussillon, Rivesaltes", "shelter": "yes", "source": "pmca", "tactile_paving": "no", "website": "https://www.ctpmperpignan.com/", "wheelchair": "no"}}, {"type": "node", "id": 2178935298, "lat": 42.7744222, "lon": 2.9098382, "tags": {"bench": "yes", "bin": "no", "bus": "yes", "departures_board": "timetable", "highway": "bus_stop", "name": "Chr\u00e9tien", "network": "Sank\u00e9o", "network:wikidata": "Q2989888", "operator": "Vectalia Perpignan M\u00e9diterran\u00e9e", "public_transport": "platform", "ref": "21;10;11;16", "ref_name": "Chr\u00e9tien, Rivesaltes", "shelter": "yes", "source": "pmca", "tactile_paving": "no", "website": "https://www.ctpmperpignan.com/", "wheelchair": "no"}}, {"type": "node", "id": 2178935319, "lat": 42.7745223, "lon": 2.9101408, "tags": {"bench": "yes", "bin": "no", "bus": "yes", "departures_board": "timetable", "highway": "bus_stop", "name": "Chr\u00e9tien", "network": "Sank\u00e9o", "network:wikidata": "Q2989888", "operator": "Vectalia Perpignan M\u00e9diterran\u00e9e", "public_transport": "platform", "ref": "21;10;11;16", "ref_name": "Chr\u00e9tien, Rivesaltes", "shelter": "yes", "source": "pmca", "tactile_paving": "no", "website": "https://www.ctpmperpignan.com/", "wheelchair": "no"}}, {"type": "node", "id": 2340893207, "lat": 42.6889436, "lon": 2.8851517, "tags": {"bus": "yes", "highway": "bus_stop", "name": "Oiseau Blanc", "network": "Sank\u00e9o", "network:wikidata": "Q2989888", "operator": "Vectalia Perpignan M\u00e9diterran\u00e9e", "public_transport": "platform", "wheelchair": "limited"}}, {"type": "node", "id": 2343997182, "lat": 42.6832137, "lon": 2.8952877, "tags": {"bench": "yes", "bin": "yes", "bus": "yes", "highway": "bus_stop", "name": "IUT", "network": "Sank\u00e9o", "network:wikidata": "Q2989888", "operator": "Vectalia Perpignan M\u00e9diterran\u00e9e", "public_transport": "platform", "shelter": "yes", "tactile_paving": "yes", "wheelchair": "limited"}}, {"type": "node", "id": 2343997188, "lat": 42.6834765, "lon": 2.8956813, "tags": {"bench": "yes", "bin": "yes", "bus": "yes", "highway": "bus_stop", "name": "IUT", "network": "Sank\u00e9o", "network:wikidata": "Q2989888", "operator": "Vectalia Perpignan M\u00e9diterran\u00e9e", "public_transport": "platform", "shelter": "yes", "wheelchair": "limited"}}, {"type": "node", "id": 2348597669, "lat": 42.6787965, "lon": 2.8812173, "tags": {"bench": "no", "bin": "no", "bus": "yes", "highway": "bus_stop", "lit": "no", "name": "Arcades", "name:ca": "Arcades", "network": "Sank\u00e9o", "network:wikidata": "Q2989888", "operator": "Vectalia Perpignan M\u00e9diterran\u00e9e", "public_transport": "platform", "shelter": "no", "tactile_paving": "no", "wheelchair": "no"}}, {"type": "node", "id": 2348597670, "lat": 42.6788022, "lon": 2.8814027, "tags": {"bench": "yes", "bin": "yes", "bus": "yes", "highway": "bus_stop", "lit": "yes", "name": "Arcades", "name:ca": "Arcades", "network": "Sank\u00e9o", "network:wikidata": "Q2989888", "operator": "Vectalia Perpignan M\u00e9diterran\u00e9e", "public_transport": "platform", "shelter": "yes", "tactile_paving": "no", "wheelchair": "limited"}}, {"type": "node", "id": 2348597671, "lat": 42.6870655, "lon": 2.8873379, "tags": {"bus": "yes", "highway": "bus_stop", "name": "Bacchus", "network": "Sank\u00e9o", "network:wikidata": "Q2989888", "operator": "Vectalia Perpignan M\u00e9diterran\u00e9e", "public_transport": "platform", "wheelchair": "no"}}, {"type": "node", "id": 2348597672, "lat": 42.6875982, "lon": 2.8870435, "tags": {"bus": "yes", "highway": "bus_stop", "name": "Bacchus", "network": "Sank\u00e9o", "network:wikidata": "Q2989888", "operator": "Vectalia Perpignan M\u00e9diterran\u00e9e", "public_transport": "platform", "wheelchair": "no"}}, {"type": "node", "id": 2348597673, "lat": 42.6847971, "lon": 2.8891259, "tags": {"bench": "no", "bus": "yes", "highway": "bus_stop", "lit": "no", "name": "Aviateurs", "network": "Sank\u00e9o", "network:wikidata": "Q2989888", "operator": "Vectalia Perpignan M\u00e9diterran\u00e9e", "public_transport": "platform", "shelter": "no", "wheelchair": "limited"}}, {"type": "node", "id": 2431889388, "lat": 42.6917426, "lon": 2.6975874, "tags": {"bench": "yes", "bus": "yes", "highway": "bus_stop", "name": "Le Foirail", "public_transport": "platform", "shelter": "yes"}}, {"type": "node", "id": 2431889389, "lat": 42.6923885, "lon": 2.6892342, "tags": {"bench": "yes", "bus": "yes", "highway": "bus_stop", "name": "Intermarch\u00e9", "public_transport": "platform", "shelter": "yes"}}, {"type": "node", "id": 2683657111, "lat": 42.6841953, "lon": 2.8183041, "tags": {"bus": "yes", "highway": "bus_stop", "name": "Route de Toulouges", "public_transport": "platform"}}, {"type": "node", "id": 2683657112, "lat": 42.6862746, "lon": 2.8170369, "tags": {"bench": "yes", "bus": "yes", "highway": "bus_stop", "name": "Sainte-Eug\u00e9nie", "public_transport": "platform", "shelter": "yes"}}, {"type": "node", "id": 2683657114, "lat": 42.6865649, "lon": 2.8176881, "tags": {"bench": "no", "bus": "yes", "highway": "bus_stop", "name": "Sainte-Eug\u00e9nie", "public_transport": "platform", "shelter": "no"}}, {"type": "node", "id": 2879019714, "lat": 42.6649154, "lon": 2.8660611, "tags": {"bus": "yes", "highway": "bus_stop", "name": "Cimeti\u00e8re du Sud", "public_transport": "platform", "wheelchair": "no"}}, {"type": "node", "id": 2879019715, "lat": 42.6671185, "lon": 2.8633484, "tags": {"bus": "yes", "highway": "bus_stop", "name": "Suro", "name:ca": "Suro", "public_transport": "platform", "wheelchair": "no"}}, {"type": "node", "id": 3006958676, "lat": 42.6653602, "lon": 2.8863116, "tags": {"bench": "yes", "bin": "yes", "bus": "yes", "highway": "bus_stop", "name": "Bretonneau", "network": "Sank\u00e9o", "network:wikidata": "Q2989888", "operator": "Vectalia Perpignan M\u00e9diterran\u00e9e", "public_transport": "platform", "shelter": "yes", "tactile_paving": "yes", "wheelchair": "no"}}, {"type": "node", "id": 3006958677, "lat": 42.6656579, "lon": 2.8869472, "tags": {"bench": "yes", "bin": "yes", "bus": "yes", "highway": "bus_stop", "name": "Bretonneau", "network": "Sank\u00e9o", "network:wikidata": "Q2989888", "operator": "Vectalia Perpignan M\u00e9diterran\u00e9e", "public_transport": "platform", "shelter": "yes", "wheelchair": "no"}}, {"type": "node", "id": 3007203961, "lat": 42.6911519, "lon": 2.9079241, "tags": {"bench": "yes", "bin": "yes", "bus": "yes", "highway": "bus_stop", "name": "Lur\u00e7at", "network": "Sank\u00e9o", "network:wikidata": "Q2989888", "operator": "Vectalia Perpignan M\u00e9diterran\u00e9e", "public_transport": "platform", "shelter": "yes", "tactile_paving": "yes", "wheelchair": "no"}}, {"type": "node", "id": 3016615465, "lat": 42.6974726, "lon": 2.9260012, "tags": {"alt_name": "Lyc\u00e9e Picasso", "bench": "yes", "bin": "yes", "bus": "yes", "highway": "bus_stop", "lit": "yes", "name": "Lyc\u00e9e Pablo Picasso", "network": "Sank\u00e9o", "network:wikidata": "Q2989888", "operator": "Vectalia Perpignan M\u00e9diterran\u00e9e", "public_transport": "platform", "shelter": "yes", "tactile_paving": "no", "wheelchair": "no"}}, {"type": "node", "id": 3016615466, "lat": 42.6976106, "lon": 2.9260414, "tags": {"bench": "yes", "bin": "yes", "bus": "yes", "highway": "bus_stop", "lit": "yes", "name": "Lyc\u00e9e Pablo Picasso", "network": "Sank\u00e9o", "network:wikidata": "Q2989888", "operator": "Vectalia Perpignan M\u00e9diterran\u00e9e", "public_transport": "platform", "shelter": "yes", "tactile_paving": "yes", "wheelchair": "no"}}, {"type": "node", "id": 3017935265, "lat": 42.5249026, "lon": 2.9268525, "tags": {"highway": "bus_stop", "name": "Les Oliviers", "public_transport": "platform"}}, {"type": "node", "id": 3017935266, "lat": 42.5248188, "lon": 2.9266856, "tags": {"highway": "bus_stop", "name": "Les Oliviers", "public_transport": "platform"}}, {"type": "node", "id": 3017935267, "lat": 42.5633551, "lon": 3.0061185, "tags": {"bench": "yes", "bin": "yes", "bus": "yes", "highway": "bus_stop", "lit": "yes", "name": "Lyc\u00e9e R\u00e9so 66 Aire Multimodale", "network": "liO", "network:wikidata": "Q55597931", "public_transport": "platform", "shelter": "no", "tactile_paving": "no"}}, {"type": "node", "id": 3052121015, "lat": 42.6937471, "lon": 2.8879289, "tags": {"bus": "yes", "highway": "bus_stop", "name": "Saint-Martin", "network": "Sank\u00e9o", "network:wikidata": "Q2989888", "operator": "Vectalia Perpignan M\u00e9diterran\u00e9e", "public_transport": "platform", "ref": "St-Martin", "shelter": "no", "tactile_paving": "no"}}, {"type": "node", "id": 3052141834, "lat": 42.689663, "lon": 2.8927072, "tags": {"bus": "yes", "highway": "bus_stop", "name": "Ar\u00e8ne", "network": "Sank\u00e9o", "network:wikidata": "Q2989888", "operator": "Vectalia Perpignan M\u00e9diterran\u00e9e", "public_transport": "platform"}}, {"type": "node", "id": 3052141835, "lat": 42.668895, "lon": 2.8784003, "tags": {"bench": "yes", "bin": "yes", "bus": "yes", "highway": "bus_stop", "lit": "yes", "name": "Centre Commercial Porte d'Espagne", "network": "Sank\u00e9o", "network:wikidata": "Q2989888", "operator": "Vectalia Perpignan M\u00e9diterran\u00e9e", "public_transport": "platform", "ref": "C. Ccial Porte d'Espagne", "route_ref": "9;11;20;27", "shelter": "yes", "tactile_paving": "yes"}}, {"type": "node", "id": 3052141836, "lat": 42.6907715, "lon": 2.8936152, "tags": {"bench": "yes", "bin": "no", "bus": "yes", "highway": "bus_stop", "name": "Guillaut", "network": "Sank\u00e9o", "network:wikidata": "Q2989888", "operator": "Vectalia Perpignan M\u00e9diterran\u00e9e", "public_transport": "platform", "ref": "Perpignan - Guillaut", "shelter": "yes", "tactile_paving": "yes", "wheelchair": "no"}}, {"type": "node", "id": 3055438238, "lat": 42.6789812, "lon": 2.9004955, "tags": {"bench": "no", "bus": "yes", "highway": "bus_stop", "name": "Cit\u00e9 Universitaire", "network": "Sank\u00e9o", "network:wikidata": "Q2989888", "operator": "Vectalia Perpignan M\u00e9diterran\u00e9e", "public_transport": "platform", "ref": "8", "shelter": "no", "wheelchair": "limited"}}, {"type": "node", "id": 3055438239, "lat": 42.6791696, "lon": 2.8999632, "tags": {"bench": "yes", "bin": "yes", "bus": "yes", "highway": "bus_stop", "name": "Cit\u00e9 Universitaire", "network": "Sank\u00e9o", "network:wikidata": "Q2989888", "operator": "Vectalia Perpignan M\u00e9diterran\u00e9e", "public_transport": "platform", "ref": "8", "shelter": "yes", "wheelchair": "limited"}}, {"type": "node", "id": 3073651142, "lat": 42.6421836, "lon": 2.4842618, "tags": {"bench": "yes", "bus": "yes", "highway": "bus_stop", "name": "Marquixanes : Parking 1", "public_transport": "platform", "shelter": "yes"}}, {"type": "node", "id": 3073651143, "lat": 42.6421973, "lon": 2.4847473, "tags": {"bus": "yes", "highway": "bus_stop", "name": "Marquixanes : Route Nationale", "public_transport": "platform"}}, {"type": "node", "id": 3073651230, "lat": 42.6465761, "lon": 2.5588452, "tags": {"bench": "yes", "bus": "yes", "highway": "bus_stop", "name": "Rod\u00e8s : RN 116", "public_transport": "platform", "shelter": "yes"}}, {"type": "node", "id": 3073651231, "lat": 42.6470229, "lon": 2.5586882, "tags": {"bus": "yes", "highway": "bus_stop", "name": "Rod\u00e8s : RN 116", "public_transport": "platform"}}, {"type": "node", "id": 3073834345, "lat": 42.6710404, "lon": 2.6220974, "tags": {"bench": "yes", "bin": "yes", "bus": "yes", "check_date:shelter": "2021-07-24", "highway": "bus_stop", "lit": "yes", "name": "Foiral, Avenue Pasteur", "public_transport": "platform", "shelter": "yes", "tactile_paving": "no"}}, {"type": "node", "id": 3073834346, "lat": 42.6710592, "lon": 2.6220489, "tags": {"bus": "yes", "highway": "bus_stop", "name": "Foiral, Avenue Pasteur", "public_transport": "stop_position"}}, {"type": "node", "id": 3073834348, "lat": 42.67109, "lon": 2.6219907, "tags": {"bench": "no", "bin": "no", "bus": "yes", "check_date:shelter": "2021-07-24", "highway": "bus_stop", "lit": "yes", "name": "Foiral, Avenue Pasteur", "public_transport": "platform", "shelter": "no", "tactile_paving": "no"}}, {"type": "node", "id": 3075939986, "lat": 42.6728496, "lon": 2.9048409, "tags": {"bench": "yes", "bin": "yes", "bus": "yes", "highway": "bus_stop", "lit": "yes", "name": "Jugan", "network": "Sank\u00e9o", "network:wikidata": "Q2989888", "operator": "Vectalia Perpignan M\u00e9diterran\u00e9e", "public_transport": "platform", "shelter": "yes", "tactile_paving": "yes", "wheelchair": "yes"}}, {"type": "node", "id": 3075939987, "lat": 42.6731826, "lon": 2.904644, "tags": {"bench": "no", "bin": "no", "bus": "yes", "highway": "bus_stop", "lit": "no", "name": "Jugan", "network": "Sank\u00e9o", "network:wikidata": "Q2989888", "operator": "Vectalia Perpignan M\u00e9diterran\u00e9e", "public_transport": "platform", "shelter": "no", "tactile_paving": "yes", "wheelchair": "yes"}}, {"type": "node", "id": 3106515829, "lat": 42.685361, "lon": 2.9018467, "tags": {"bin": "yes", "bus": "yes", "highway": "bus_stop", "name": "Villeneuve", "network": "Sank\u00e9o", "network:wikidata": "Q2989888", "operator": "Vectalia Perpignan M\u00e9diterran\u00e9e", "public_transport": "platform", "shelter": "yes"}}, {"type": "node", "id": 3106515830, "lat": 42.685961, "lon": 2.9020154, "tags": {"bus": "yes", "highway": "bus_stop", "name": "Villeneuve", "network": "Sank\u00e9o", "network:wikidata": "Q2989888", "operator": "Vectalia Perpignan M\u00e9diterran\u00e9e", "public_transport": "platform", "shelter": "yes"}}, {"type": "node", "id": 3106521283, "lat": 42.6830714, "lon": 2.9017989, "tags": {"bus": "yes", "highway": "bus_stop", "name": "Campus", "name:ca": "Campus", "network": "Sank\u00e9o", "network:wikidata": "Q2989888", "operator": "Vectalia Perpignan M\u00e9diterran\u00e9e", "public_transport": "platform", "shelter": "yes"}}, {"type": "node", "id": 3106521284, "lat": 42.6832076, "lon": 2.9020084, "tags": {"bench": "yes", "bus": "yes", "highway": "bus_stop", "name": "Campus", "name:ca": "Campus", "network": "Sank\u00e9o", "network:wikidata": "Q2989888", "operator": "Vectalia Perpignan M\u00e9diterran\u00e9e", "public_transport": "platform", "shelter": "yes"}}, {"type": "node", "id": 3106522924, "lat": 42.6817298, "lon": 2.9020671, "tags": {"bus": "yes", "highway": "bus_stop", "name": "Taulis", "name:ca": "Taulis", "public_transport": "platform", "shelter": "yes"}}, {"type": "node", "id": 3106938612, "lat": 42.6812868, "lon": 2.8949279, "tags": {"bus": "yes", "highway": "bus_stop", "name": "Cassin", "name:ca": "Cassin", "network": "Sank\u00e9o", "network:wikidata": "Q2989888", "operator": "Vectalia Perpignan M\u00e9diterran\u00e9e", "public_transport": "platform"}}, {"type": "node", "id": 3106938613, "lat": 42.6811897, "lon": 2.8951709, "tags": {"bus": "yes", "highway": "bus_stop", "name": "Cassin", "name:ca": "Cassin", "network": "Sank\u00e9o", "network:wikidata": "Q2989888", "operator": "Vectalia Perpignan M\u00e9diterran\u00e9e", "public_transport": "platform", "shelter": "no"}}, {"type": "node", "id": 3135277829, "lat": 42.6875937, "lon": 2.8228813, "tags": {"bench": "no", "bus": "yes", "covered": "no", "highway": "bus_stop", "name": "Les Sources", "public_transport": "platform", "shelter": "no", "wheelchair": "no"}}, {"type": "node", "id": 3135277830, "lat": 42.6876676, "lon": 2.8228462, "tags": {"bench": "no", "bus": "yes", "covered": "no", "highway": "bus_stop", "name": "Les Sources", "public_transport": "platform", "shelter": "no", "wheelchair": "no"}}, {"type": "node", "id": 3178068121, "lat": 42.5328046, "lon": 2.9553945, "tags": {"highway": "bus_stop", "operator": "liO", "public_transport": "platform", "shelter": "yes", "toilets:wheelchair": "no", "wheelchair": "no"}}, {"type": "node", "id": 3178068122, "lat": 42.5328058, "lon": 2.9552504, "tags": {"highway": "bus_stop", "operator": "liO", "public_transport": "platform", "toilets:wheelchair": "no", "wheelchair": "no"}}, {"type": "node", "id": 3205998078, "lat": 42.5773375, "lon": 2.9245383, "tags": {"bench": "yes", "bin": "no", "highway": "bus_stop", "lit": "no", "name": "Pic N\u00e9oulous", "public_transport": "platform", "ref": "6603553", "shelter": "no", "tactile_paving": "no", "wheelchair": "no"}}, {"type": "node", "id": 3205998091, "lat": 42.578825, "lon": 2.9260087, "tags": {"bench": "no", "bin": "no", "highway": "bus_stop", "lit": "yes", "name": "Place Jean Moulin", "public_transport": "platform", "ref": "6601304", "shelter": "no", "tactile_paving": "no", "wheelchair": "no"}}, {"type": "node", "id": 3205998145, "lat": 42.5808879, "lon": 2.9221503, "tags": {"bench": "yes", "covered": "yes", "highway": "bus_stop", "name": "Ancien Chemin Laroque", "public_transport": "platform", "ref": "6601302", "shelter": "yes", "wheelchair": "no"}}, {"type": "node", "id": 3360144870, "lat": 42.810555, "lon": 2.312127}, {"type": "node", "id": 3360144889, "lat": 42.81063, "lon": 2.31242}, {"type": "node", "id": 3360144890, "lat": 42.810642, "lon": 2.312085}, {"type": "node", "id": 3360145013, "lat": 42.810718, "lon": 2.312378}, {"type": "node", "id": 3400747066, "lat": 42.7172793, "lon": 2.8873267, "tags": {"bus": "yes", "highway": "bus_stop", "name": "Lyc\u00e9e Maillol", "network": "Sank\u00e9o", "network:wikidata": "Q2989888", "operator": "Vectalia Perpignan M\u00e9diterran\u00e9e", "public_transport": "platform"}}, {"type": "node", "id": 3553800379, "lat": 42.7565646, "lon": 2.8908133, "tags": {"bench": "no", "bus": "yes", "highway": "bus_stop", "name": "Pont Autoroute", "network": "Sank\u00e9o", "network:wikidata": "Q2989888", "operator": "Vectalia Perpignan M\u00e9diterran\u00e9e", "public_transport": "platform", "shelter": "yes", "waste_basket": "no"}}, {"type": "node", "id": 3553800380, "lat": 42.7567185, "lon": 2.8909316, "tags": {"bench": "no", "bus": "yes", "highway": "bus_stop", "name": "Pont Autoroute", "network": "Sank\u00e9o", "network:wikidata": "Q2989888", "operator": "Vectalia Perpignan M\u00e9diterran\u00e9e", "public_transport": "platform", "shelter": "no", "waste_basket": "no"}}, {"type": "node", "id": 3659463016, "lat": 42.7001063, "lon": 2.9349118, "tags": {"bench": "yes", "bus": "yes", "highway": "bus_stop", "name": "Massilia 2", "owner": "Perpignan M\u00e9diterran\u00e9e M\u00e9tropole", "public_transport": "platform", "route_ref": "3", "shelter": "yes", "wheelchair": "no"}}, {"type": "node", "id": 3717735377, "lat": 42.9387332, "lon": 2.8123681, "tags": {"highway": "bus_stop", "public_transport": "platform", "shelter": "yes", "source": "survey"}}, {"type": "node", "id": 3720433650, "lat": 42.5512428, "lon": 2.9711356, "tags": {"highway": "bus_stop"}}, {"type": "node", "id": 3733261312, "lat": 42.7258707, "lon": 2.8874558, "tags": {"bench": "yes", "bus": "yes", "highway": "bus_stop", "name": "H\u00f4pital", "network": "Sank\u00e9o", "network:wikidata": "Q2989888", "operator": "Vectalia Perpignan M\u00e9diterran\u00e9e", "public_transport": "platform", "ref": "PEh\u00f4pi1", "shelter": "yes", "tactile_paving": "yes"}}, {"type": "node", "id": 3733261314, "lat": 42.743349, "lon": 2.9174064, "tags": {"highway": "bus_stop", "public_transport": "platform"}}, {"type": "node", "id": 4030098906, "lat": 42.776539, "lon": 2.69883}, {"type": "node", "id": 4030098908, "lat": 42.776624, "lon": 2.698882}, {"type": "node", "id": 4030098917, "lat": 42.776687, "lon": 2.698377}, {"type": "node", "id": 4030098925, "lat": 42.776772, "lon": 2.698428}, {"type": "node", "id": 4268420008, "lat": 42.6163561, "lon": 2.4231472, "tags": {"bus": "yes", "highway": "bus_stop", "name": "Prades : Aymerich", "public_transport": "stop_position"}}, {"type": "node", "id": 4340833290, "lat": 42.6966016, "lon": 2.8801317, "tags": {"bench": "yes", "bin": "yes", "bus": "yes", "departures_board": "timetable", "highway": "bus_stop", "lit": "yes", "name": "Gare SNCF", "network": "Sank\u00e9o", "network:wikidata": "Q2989888", "operator": "Vectalia Perpignan M\u00e9diterran\u00e9e", "public_transport": "platform", "route_ref": "3", "shelter": "yes", "tactile_paving": "yes"}}, {"type": "node", "id": 4493036407, "lat": 42.4744529, "lon": 2.6703869, "tags": {"bench": "yes", "bin": "yes", "highway": "bus_stop", "name": "Am\u00e9lia Pont Casino", "public_transport": "platform", "shelter": "no", "source": "GPS", "website": "https://www.asperi.fr"}}, {"type": "node", "id": 4500607615, "lat": 42.7127955, "lon": 2.84332, "tags": {"bench": "yes", "bin": "yes", "bus": "yes", "departures_board": "no", "highway": "bus_stop", "name": "Ch\u00e2teau d'Eau", "note": "Seulement arr\u00eat scolaire", "public_transport": "platform", "shelter": "yes"}}, {"type": "node", "id": 4573917684, "lat": 42.4760567, "lon": 2.6658062, "tags": {"bench": "no", "highway": "bus_stop", "name": "Am\u00e9lia Petite Provence", "public_transport": "platform", "shelter": "no", "source": "GPS", "website": "https://www.asperi.fr"}}, {"type": "node", "id": 4573919565, "lat": 42.4765772, "lon": 2.6659659, "tags": {"bench": "no", "highway": "bus_stop", "name": "Am\u00e9lia Riviera Provence", "public_transport": "platform", "shelter": "no", "source": "GPS", "website": "https://www.asperi.fr"}}, {"type": "node", "id": 4573923102, "lat": 42.4770336, "lon": 2.6625822, "tags": {"bench": "no", "highway": "bus_stop", "name": "Am\u00e9lia C\u00e8dres Gen\u00eats", "public_transport": "platform", "shelter": "no", "source": "GPS", "website": "https://www.asperi.fr"}}, {"type": "node", "id": 4573925062, "lat": 42.4771258, "lon": 2.6659095, "tags": {"bench": "no", "highway": "bus_stop", "name": "Am\u00e9lia C\u00e8dres El Soula", "public_transport": "platform", "shelter": "no", "source": "GPS", "website": "https://www.asperi.fr"}}, {"type": "node", "id": 4573926915, "lat": 42.4760611, "lon": 2.6627544, "tags": {"bench": "no", "highway": "bus_stop", "name": "Am\u00e9lia Gen\u00eats Floride A", "public_transport": "platform", "shelter": "no", "source": "GPS", "website": "https://www.asperi.fr"}}, {"type": "node", "id": 4573927074, "lat": 42.4754604, "lon": 2.6638587, "tags": {"bench": "no", "highway": "bus_stop", "name": "Am\u00e9lia Gymnase", "public_transport": "platform", "shelter": "no", "source": "GPS", "website": "https://www.asperi.fr"}}, {"type": "node", "id": 4573930478, "lat": 42.4742137, "lon": 2.6649925, "tags": {"highway": "bus_stop", "name": "Am\u00e9lia Avenue Vallespir", "public_transport": "platform", "shelter": "no", "source": "GPS", "website": "https://www.asperi.fr"}}, {"type": "node", "id": 4573932605, "lat": 42.4729399, "lon": 2.6691388, "tags": {"highway": "bus_stop", "name": "Am\u00e9lia Mairie", "public_transport": "platform", "source": "GPS", "website": "https://www.asperi.fr"}}, {"type": "node", "id": 4573933142, "lat": 42.4726695, "lon": 2.6697768, "tags": {"bench": "no", "bin": "no", "check_date:shelter": "2022-11-01", "highway": "bus_stop", "lit": "yes", "name": "Am\u00e9lia Place R\u00e9publique", "public_transport": "platform", "shelter": "no", "source": "GPS", "tactile_paving": "no", "website": "https://www.asperi.fr"}}, {"type": "node", "id": 4573933440, "lat": 42.4703966, "lon": 2.66829, "tags": {"bench": "yes", "bin": "no", "highway": "bus_stop", "name": "Am\u00e9lia Thermes", "public_transport": "platform", "shelter": "no", "source": "GPS", "tactile_paving": "no", "website": "https://www.asperi.fr"}}, {"type": "node", "id": 4573935769, "lat": 42.4726335, "lon": 2.6710137, "tags": {"bench": "no", "bin": "yes", "bus": "yes", "highway": "bus_stop", "name": "Am\u00e9lia Park. De Gaulle", "public_transport": "platform", "shelter": "no", "source": "GPS", "website": "https://www.asperi.fr"}}, {"type": "node", "id": 4573944360, "lat": 42.4756625, "lon": 2.672626, "tags": {"highway": "bus_stop", "name": "Am\u00e9lia Sapeurs-Pompiers", "public_transport": "platform", "shelter": "no", "source": "GPS", "website": "https://www.asperi.fr"}}, {"type": "node", "id": 4573945618, "lat": 42.4788509, "lon": 2.6742513, "tags": {"bench": "yes", "highway": "bus_stop", "name": "Camping", "public_transport": "platform", "shelter": "yes"}}, {"type": "node", "id": 4573983508, "lat": 42.473234, "lon": 2.6711229, "tags": {"bench": "yes", "bin": "no", "bus": "yes", "highway": "bus_stop", "lit": "yes", "name": "Am\u00e9lia Gare Routi\u00e8re", "public_transport": "platform", "shelter": "yes", "source": "GPS", "tactile_paving": "no", "website": "https://www.asperi.fr"}}, {"type": "node", "id": 4713197844, "lat": 42.4906551, "lon": 2.8019913, "tags": {"highway": "bus_stop", "shelter": "yes"}}, {"type": "node", "id": 4781650922, "lat": 42.6992079, "lon": 2.7767763, "tags": {"bench": "no", "bin": "no", "bus": "yes", "departures_board": "timetable", "highway": "bus_stop", "name": "Centrale d'Achat", "public_transport": "platform", "shelter": "no"}}, {"type": "node", "id": 4781650923, "lat": 42.6994129, "lon": 2.777233, "tags": {"bench": "yes", "bin": "no", "bus": "yes", "departures_board": "timetable", "highway": "bus_stop", "name": "Centrale d'Achat", "public_transport": "platform", "shelter": "yes"}}, {"type": "node", "id": 4922336524, "lat": 42.7011156, "lon": 2.9010854, "tags": {"bench": "yes", "bus": "yes", "departures_board": "timetable", "highway": "bus_stop", "name": "Bourrat", "network": "Sank\u00e9o", "network:wikidata": "Q2989888", "operator": "Vectalia Perpignan M\u00e9diterran\u00e9e", "public_transport": "platform", "route_ref": "3", "shelter": "yes", "tactile_paving": "yes"}}, {"type": "node", "id": 4922336525, "lat": 42.701225, "lon": 2.9011486, "tags": {"bench": "yes", "bus": "yes", "departures_board": "timetable", "highway": "bus_stop", "name": "Bourrat", "network": "Sank\u00e9o", "network:wikidata": "Q2989888", "operator": "Vectalia Perpignan M\u00e9diterran\u00e9e", "public_transport": "platform", "route_ref": "3", "shelter": "yes", "tactile_paving": "yes"}}, {"type": "node", "id": 4922369921, "lat": 42.6977359, "lon": 2.9043131, "tags": {"bench": "yes", "bus": "yes", "highway": "bus_stop", "name": "Cassanyes", "name:ca": "Cassanyes", "network": "Sank\u00e9o", "network:wikidata": "Q2989888", "operator": "Vectalia Perpignan M\u00e9diterran\u00e9e", "public_transport": "platform", "shelter": "yes"}}, {"type": "node", "id": 4922370121, "lat": 42.6976195, "lon": 2.9039469, "tags": {"bench": "yes", "bus": "yes", "highway": "bus_stop", "name": "Cassanyes", "name:ca": "Cassanyes", "network": "Sank\u00e9o", "network:wikidata": "Q2989888", "operator": "Vectalia Perpignan M\u00e9diterran\u00e9e", "public_transport": "platform", "shelter": "yes"}}, {"type": "node", "id": 4936985593, "lat": 42.6896014, "lon": 2.8597392, "tags": {"bench": "no", "bus": "yes", "highway": "bus_stop", "name": "Milan", "public_transport": "platform", "shelter": "no"}}, {"type": "node", "id": 4936985594, "lat": 42.6896543, "lon": 2.8599204, "tags": {"bench": "no", "bus": "yes", "highway": "bus_stop", "name": "Milan", "public_transport": "platform", "shelter": "no"}}, {"type": "node", "id": 5160634755, "lat": 42.6931371, "lon": 2.801114, "tags": {"bench": "no", "bin": "no", "bus": "yes", "departures_board": "timetable", "highway": "bus_stop", "name": "Mairie", "public_transport": "platform", "shelter": "no"}}, {"type": "node", "id": 5160701636, "lat": 42.7014488, "lon": 2.8252016, "tags": {"bench": "yes", "bus": "yes", "departures_board": "timetable", "highway": "bus_stop", "name": "Baho", "public_transport": "platform", "shelter": "yes"}}, {"type": "node", "id": 5161392102, "lat": 42.7094613, "lon": 2.8500549, "tags": {"bench": "yes", "bin": "yes", "bus": "yes", "departures_board": "timetable", "highway": "bus_stop", "name": "Cimeti\u00e8re", "public_transport": "platform", "shelter": "yes"}}, {"type": "node", "id": 5161392109, "lat": 42.7088611, "lon": 2.8470442, "tags": {"bench": "yes", "bin": "yes", "bus": "yes", "departures_board": "timetable", "highway": "bus_stop", "name": "Mairie - Saint-Est\u00e8ve", "public_transport": "platform", "shelter": "yes"}}, {"type": "node", "id": 5161394133, "lat": 42.7086246, "lon": 2.8432608, "tags": {"bench": "no", "bin": "no", "bus": "yes", "highway": "bus_stop", "name": "Arago", "public_transport": "platform", "shelter": "no"}}, {"type": "node", "id": 5161394153, "lat": 42.7076657, "lon": 2.841095, "tags": {"bench": "yes", "bin": "yes", "bus": "yes", "departures_board": "timetable", "highway": "bus_stop", "lit": "no", "name": "Coll\u00e8ge", "public_transport": "platform", "shelter": "yes", "tactile_paving": "yes"}}, {"type": "node", "id": 5161394173, "lat": 42.7066374, "lon": 2.8387266, "tags": {"bench": "yes", "bin": "yes", "bus": "yes", "departures_board": "timetable", "highway": "bus_stop", "name": "Saint-Est\u00e8ve", "public_transport": "platform", "shelter": "yes"}}, {"type": "node", "id": 5165672732, "lat": 42.4986302, "lon": 2.7101803, "tags": {"highway": "bus_stop"}}, {"type": "node", "id": 5165886500, "lat": 42.4957651, "lon": 2.7180539, "tags": {"highway": "bus_stop"}}, {"type": "node", "id": 5182034329, "lat": 42.438325, "lon": 2.5670309, "tags": {"highway": "bus_stop"}}, {"type": "node", "id": 5185582392, "lat": 42.4686142, "lon": 2.6598939, "tags": {"highway": "bus_stop"}}, {"type": "node", "id": 5185582393, "lat": 42.4684058, "lon": 2.6591864, "tags": {"highway": "bus_stop"}}, {"type": "node", "id": 5185705983, "lat": 42.4747959, "lon": 2.6644225, "tags": {"highway": "bus_stop"}}, {"type": "node", "id": 5185712821, "lat": 42.4745929, "lon": 2.6643916, "tags": {"highway": "bus_stop"}}, {"type": "node", "id": 5298354750, "lat": 42.688555, "lon": 2.881325, "tags": {"bench": "no", "bin": "no", "bus": "yes", "highway": "bus_stop", "name": "Belfort", "network": "Sank\u00e9o", "network:wikidata": "Q2989888", "operator": "Vectalia Perpignan M\u00e9diterran\u00e9e", "public_transport": "platform", "shelter": "no", "wheelchair": "no"}}, {"type": "node", "id": 5331356863, "lat": 42.8098996, "lon": 2.5058398, "tags": {"bench": "yes", "bus": "yes", "highway": "bus_stop", "name": "Stade", "public_transport": "platform", "shelter": "yes"}}, {"type": "node", "id": 5331362233, "lat": 42.8088284, "lon": 2.4979969, "tags": {"bench": "yes", "bin": "no", "highway": "bus_stop", "name": "Perception", "public_transport": "platform", "shelter": "yes", "tactile_paving": "no"}}, {"type": "node", "id": 5422065007, "lat": 42.6981759, "lon": 2.9356585, "tags": {"bench": "yes", "bin": "no", "bus": "yes", "departures_board": "timetable", "highway": "bus_stop", "lit": "no", "name": "Mas Saint-Joseph", "network": "Sank\u00e9o", "network:wikidata": "Q2989888", "operator": "Vectalia Perpignan M\u00e9diterran\u00e9e", "public_transport": "platform", "route_ref": "1;4;22;24", "shelter": "no", "tactile_paving": "no"}}, {"type": "node", "id": 5422135306, "lat": 42.6867879, "lon": 2.9063955, "tags": {"bench": "yes", "bin": "yes", "bus": "yes", "highway": "bus_stop", "name": "Broadway", "name:ca": "Broadway", "public_transport": "platform", "shelter": "yes", "wheelchair": "yes"}}, {"type": "node", "id": 5486906703, "lat": 42.6659246, "lon": 2.907934, "tags": {"bench": "no", "bin": "yes", "bus": "yes", "departures_board": "no", "highway": "bus_stop", "lit": "no", "name": "Tecnosud", "public_transport": "platform", "shelter": "no"}}, {"type": "node", "id": 5486906704, "lat": 42.6658748, "lon": 2.9082247, "tags": {"bench": "no", "bus": "yes", "departures_board": "no", "highway": "bus_stop", "lit": "no", "name": "Tecnosud", "public_transport": "platform", "shelter": "no"}}, {"type": "node", "id": 5620373774, "lat": 42.6990937, "lon": 2.8883707, "tags": {"bench": "yes", "bin": "yes", "bus": "yes", "departures_board": "timetable", "highway": "bus_stop", "lit": "yes", "name": "Catalogne (Brasserie) 2", "network": "Sank\u00e9o", "network:wikidata": "Q2989888", "operator": "Vectalia Perpignan M\u00e9diterran\u00e9e", "public_transport": "platform", "ref": "Perpignan - Catalogne (Brasserie) 2", "shelter": "yes", "tactile_paving": "yes", "wheelchair": "yes"}}, {"type": "node", "id": 5669434151, "lat": 42.5971213, "lon": 2.9635084, "tags": {"name": "Elne", "railway": "station", "train": "yes"}}, {"type": "node", "id": 5710639895, "lat": 42.810803, "lon": 2.3729821, "tags": {"addr:city": "Caudi\u00e8s-de-Fenouill\u00e8des", "addr:postcode": "66220", "addr:street": "Avenue de la Gare", "description": "Halte du Train Rouge, train touristique du Pays Cathare et du Fenouill\u00e8des, reliant Rivesaltes \u00e0 Axat.", "name": "Halte Train Rouge", "operator": "SA TPCF", "public_transport": "station", "railway": "station", "train": "yes", "website": "https://www.letrainrouge.fr/"}}, {"type": "node", "id": 5712409142, "lat": 42.5334071, "lon": 2.9576256, "tags": {"highway": "bus_stop", "public_transport": "platform"}}, {"type": "node", "id": 5743678709, "lat": 42.6838078, "lon": 2.8050702, "tags": {"bus": "yes", "highway": "bus_stop", "name": "Portes du Soler", "name:ca": "Portes del Soler", "public_transport": "platform"}}, {"type": "node", "id": 5744040547, "lat": 42.7137444, "lon": 2.8321841, "tags": {"bench": "yes", "bin": "yes", "bus": "yes", "departures_board": "timetable", "highway": "bus_stop", "name": "For\u00eat", "public_transport": "platform", "shelter": "yes"}}, {"type": "node", "id": 5819724769, "lat": 42.6579255, "lon": 2.6679885, "tags": {"bench": "no", "bin": "no", "bus": "yes", "highway": "bus_stop", "name": "Rue du Riberal", "public_transport": "platform", "shelter": "no", "tactile_paving": "no"}}, {"type": "node", "id": 5819724770, "lat": 42.6924839, "lon": 2.6891433, "tags": {"bench": "yes", "bus": "yes", "highway": "bus_stop", "name": "Intermarch\u00e9", "public_transport": "platform", "shelter": "yes"}}, {"type": "node", "id": 5819724771, "lat": 42.691588, "lon": 2.698031, "tags": {"bus": "yes", "highway": "bus_stop", "name": "Le Foirail", "public_transport": "platform"}}, {"type": "node", "id": 5819724780, "lat": 42.6530431, "lon": 2.6624976, "tags": {"bench": "no", "bin": "no", "bus": "yes", "highway": "bus_stop", "lit": "no", "name": "Mairie", "public_transport": "platform", "shelter": "no", "tactile_paving": "no"}}, {"type": "node", "id": 5819724842, "lat": 42.7607525, "lon": 2.8708984, "tags": {"bus": "yes", "highway": "bus_stop", "name": "Salanque", "network": "Sank\u00e9o", "network:wikidata": "Q2989888", "operator": "Vectalia Perpignan M\u00e9diterran\u00e9e", "public_transport": "platform", "ref": "Rivesaltes - Salanque", "ref_name": "Rivesaltes - Salanque", "route_ref": "12", "shelter": "no", "tactile_paving": "no", "wheelchair": "no"}}, {"type": "node", "id": 5819724843, "lat": 42.7616529, "lon": 2.8762266, "tags": {"bus": "yes", "highway": "bus_stop", "name": "Sardane", "network": "Sank\u00e9o", "network:wikidata": "Q2989888", "operator": "Vectalia Perpignan M\u00e9diterran\u00e9e", "public_transport": "platform", "ref": "Rivesaltes - Sardane", "shelter": "no", "tactile_paving": "no", "wheelchair": "no"}}, {"type": "node", "id": 5819724844, "lat": 42.7656742, "lon": 2.8760714, "tags": {"bus": "yes", "highway": "bus_stop", "name": "Mour\u00e8re", "network": "Sank\u00e9o", "network:wikidata": "Q2989888", "operator": "Vectalia Perpignan M\u00e9diterran\u00e9e", "public_transport": "platform", "ref": "Rivesaltes - Mour\u00e8re", "shelter": "no", "tactile_paving": "no", "wheelchair": "no"}}, {"type": "node", "id": 5819724845, "lat": 42.768658, "lon": 2.876629, "tags": {"bus": "yes", "highway": "bus_stop", "name": "Arnaud de Villeneuve", "network": "Sank\u00e9o", "network:wikidata": "Q2989888", "operator": "Vectalia Perpignan M\u00e9diterran\u00e9e", "public_transport": "platform", "ref": "Rivesaltes - Arnaud de Villeneuve", "shelter": "no", "tactile_paving": "no", "wheelchair": "no"}}, {"type": "node", "id": 5819724846, "lat": 42.7706681, "lon": 2.8838939, "tags": {"bus": "yes", "highway": "bus_stop", "name": "Pressoir", "network": "Sank\u00e9o", "network:wikidata": "Q2989888", "operator": "Vectalia Perpignan M\u00e9diterran\u00e9e", "public_transport": "platform", "ref": "Rivesaltes - Pressoir", "shelter": "no", "tactile_paving": "no", "wheelchair": "no"}}, {"type": "node", "id": 5819725254, "lat": 42.7324695, "lon": 2.8893949, "tags": {"bench": "yes", "bus": "yes", "highway": "bus_stop", "name": "Monticelli", "network": "Sank\u00e9o", "network:wikidata": "Q2989888", "operator": "Vectalia Perpignan M\u00e9diterran\u00e9e", "public_transport": "platform", "ref": "PEmont1", "shelter": "yes", "tactile_paving": "no", "wheelchair": "no"}}, {"type": "node", "id": 5819725257, "lat": 42.7225869, "lon": 2.8865043, "tags": {"bus": "yes", "highway": "bus_stop", "name": "Brutus", "name:ca": "Brutus", "network": "Sank\u00e9o", "network:wikidata": "Q2989888", "operator": "Vectalia Perpignan M\u00e9diterran\u00e9e", "public_transport": "platform", "ref": "PEbrut1", "ref_name": "Perpignan - Brutus", "shelter": "yes", "tactile_paving": "no", "wheelchair": "no"}}, {"type": "node", "id": 5819725258, "lat": 42.7229186, "lon": 2.8867676, "tags": {"bus": "yes", "highway": "bus_stop", "name": "Brutus", "name:ca": "Brutus", "network": "Sank\u00e9o", "network:wikidata": "Q2989888", "operator": "Vectalia Perpignan M\u00e9diterran\u00e9e", "public_transport": "platform", "ref": "PEbrut2", "ref_name": "Perpignan - Brutus", "shelter": "yes", "tactile_paving": "no", "wheelchair": "no"}}, {"type": "node", "id": 5819725263, "lat": 42.7177553, "lon": 2.8861931, "tags": {"bench": "yes", "bus": "yes", "highway": "bus_stop", "name": "Lyc\u00e9e Maillol", "network": "Sank\u00e9o", "network:wikidata": "Q2989888", "operator": "Vectalia Perpignan M\u00e9diterran\u00e9e", "public_transport": "platform", "ref_name": "Perpignan - Maillol", "shelter": "yes", "wheelchair": "no"}}, {"type": "node", "id": 5819725264, "lat": 42.7202458, "lon": 2.8862789, "tags": {"bus": "yes", "highway": "bus_stop", "name": "Roussillonaise", "network": "Sank\u00e9o", "network:wikidata": "Q2989888", "operator": "Vectalia Perpignan M\u00e9diterran\u00e9e", "public_transport": "platform", "ref_name": "Perpignan - Roussillonaise", "shelter": "yes", "tactile_paving": "no", "wheelchair": "yes"}}, {"type": "node", "id": 5819725265, "lat": 42.7181872, "lon": 2.8873227}, {"type": "node", "id": 5819725267, "lat": 42.7182149, "lon": 2.8872912}, {"type": "node", "id": 5819725268, "lat": 42.7181832, "lon": 2.8873036}, {"type": "node", "id": 5819725269, "lat": 42.8478149, "lon": 2.7798053, "tags": {"bus": "yes", "highway": "bus_stop", "name": "Vingrau", "name:ca": "Vingrau", "network": "Sank\u00e9o", "network:wikidata": "Q2989888", "operator": "Vectalia Perpignan M\u00e9diterran\u00e9e", "public_transport": "platform", "shelter": "yes", "tactile_paving": "no", "wheelchair": "no"}}, {"type": "node", "id": 5819725290, "lat": 42.7536225, "lon": 2.8167827, "tags": {"bench": "no", "bin": "no", "bus": "yes", "departures_board": "timetable", "highway": "bus_stop", "name": "Baixas", "network": "Sank\u00e9o", "network:wikidata": "Q2989888", "operator": "Vectalia Perpignan M\u00e9diterran\u00e9e", "public_transport": "platform", "ref_name": "Baixas, Baixas", "route_ref": "10", "shelter": "no", "tactile_paving": "no", "website": "https://www.ctpmperpignan.com/", "wheelchair": "no"}}, {"type": "node", "id": 5821231581, "lat": 42.6704024, "lon": 2.8312722, "tags": {"bench": "yes", "bus": "yes", "highway": "bus_stop", "name": "Mairie", "public_transport": "platform", "shelter": "no", "wheelchair": "no"}}, {"type": "node", "id": 5821231583, "lat": 42.6372516, "lon": 2.7614499, "tags": {"bench": "yes", "bus": "yes", "highway": "bus_stop", "name": "Piscine", "public_transport": "platform", "shelter": "yes"}},