{"version": 0.6, "generator": "Overpass API 0.7.62.5 1bd436f1", "osm3s": {"timestamp_osm_base": "2025-04-09T14:45:30Z", "copyright": "The data included in this document is from www.openstreetmap.org. The data is made available under ODbL."}, "elements": [{"type": "node", "id": 786749164, "lat": 46.4174147, "lon": 0.8737922}, {"type": "node", "id": 786760078, "lat": 46.4176265, "lon": 0.8735035}, {"type": "node", "id": 786771330, "lat": 46.417619, "lon": 0.8736511}, {"type": "node", "id": 786773626, "lat": 46.4175291, "lon": 0.8736358}, {"type": "node", "id": 786781495, "lat": 46.4173222, "lon": 0.8739189}, {"type": "node", "id": 786786548, "lat": 46.4175531, "lon": 0.8737382}, {"type": "node", "id": 786803868, "lat": 46.4174885, "lon": 0.873846}, {"type": "node", "id": 786809231, "lat": 46.4174819, "lon": 0.8738357}, {"type": "node", "id": 786813900, "lat": 46.4175604, "lon": 0.8737496}, {"type": "node", "id": 786818832, "lat": 46.4173682, "lon": 0.8739881}, {"type": "node", "id": 786828252, "lat": 46.4176737, "lon": 0.873578}, {"type": "node", "id": 814929455, "lat": 46.2109482, "lon": 1.0793971}, {"type": "node", "id": 814929665, "lat": 46.2111214, "lon": 1.0792226}, {"type": "node", "id": 814930472, "lat": 46.210995, "lon": 1.0794939}, {"type": "node", "id": 814939621, "lat": 46.2112397, "lon": 1.0792468}, {"type": "node", "id": 814941727, "lat": 46.2110269, "lon": 1.0793166}, {"type": "node", "id": 814950858, "lat": 46.2111928, "lon": 1.0791499}, {"type": "node", "id": 1362215343, "lat": 46.4001327, "lon": 0.6990165, "tags": {"bench": "yes", "highway": "bus_stop", "name": "Le Pont", "shelter": "yes", "tactile_paving": "no"}}, {"type": "node", "id": 1362215344, "lat": 46.4050676, "lon": 0.7183873, "tags": {"bench": "no", "bin": "yes", "bus": "yes", "check_date:shelter": "2021-02-19", "highway": "bus_stop", "lit": "no", "name": "Lussac les Ch\u00e2teaux - Gare SNCF", "public_transport": "platform", "shelter": "no", "tactile_paving": "no"}}, {"type": "node", "id": 1362215642, "lat": 46.4051414, "lon": 0.7184915}, {"type": "node", "id": 2093218516, "lat": 46.5609775, "lon": 1.0759601, "tags": {"bench": "yes", "highway": "bus_stop", "name": "Saint-Hilaire sur Benaize", "shelter": "yes", "tactile_paving": "no"}}, {"type": "node", "id": 8643797724, "lat": 46.1070718, "lon": 0.9099133, "tags": {"bench": "yes", "bin": "no", "bus": "yes", "covered": "yes", "highway": "bus_stop", "lit": "yes", "name": "Val d'Issoire - Place de la R\u00e9publique", "public_transport": "platform", "route_ref": "LR12", "shelter": "yes", "tactile_paving": "no"}}, {"type": "node", "id": 8728315450, "lat": 46.1676628, "lon": 1.1452259, "tags": {"bus": "yes", "highway": "bus_stop", "name": "Droux - La Brousse", "public_transport": "platform", "route_ref": "LR18"}}, {"type": "node", "id": 8728315452, "lat": 46.1677069, "lon": 1.1453181, "tags": {"bus": "yes", "highway": "bus_stop", "name": "Droux - La Brousse", "public_transport": "platform", "route_ref": "LR18"}}, {"type": "node", "id": 8728315454, "lat": 46.2151298, "lon": 1.1667008, "tags": {"bus": "yes", "highway": "bus_stop", "name": "Magnac-Laval - Mairie", "public_transport": "platform", "route_ref": "LR18"}}, {"type": "node", "id": 8732303469, "lat": 46.2148088, "lon": 1.0788269, "tags": {"bus": "yes", "highway": "bus_stop", "name": "Le Dorat - Avenue des Pyr\u00e9n\u00e9es", "public_transport": "platform", "route_ref": "LR28"}}, {"type": "node", "id": 8755228336, "lat": 46.2097354, "lon": 1.1849343, "tags": {"bus": "yes", "highway": "bus_stop", "name": "Magnac-Laval - LP Agricole", "passenger_information_display": "no", "public_transport": "platform", "route_ref": "LR81"}}, {"type": "node", "id": 10036239620, "lat": 46.2112679, "lon": 1.0796799, "tags": {"bench": "no", "highway": "bus_stop", "shelter": "no", "survey:date": "2022-09-19"}}, {"type": "node", "id": 10729505138, "lat": 46.5526214, "lon": 1.1591929, "tags": {"bus": "yes", "highway": "bus_stop", "name": "B\u00e9l\u00e2bre Gendarmerie", "public_transport": "platform"}}, {"type": "node", "id": 10729505145, "lat": 46.5511797, "lon": 1.1566547, "tags": {"bus": "yes", "highway": "bus_stop", "name": "B\u00e9l\u00e2bre Salle des F\u00eates", "public_transport": "platform"}}, {"type": "node", "id": 10729505156, "lat": 46.5553229, "lon": 1.1586713, "tags": {"bus": "yes", "highway": "bus_stop", "public_transport": "platform"}}, {"type": "node", "id": 10729505162, "lat": 46.5582729, "lon": 1.1600695, "tags": {"bus": "yes", "highway": "bus_stop", "public_transport": "platform"}}, {"type": "node", "id": 10867459725, "lat": 46.4176489, "lon": 0.8736097}, {"type": "node", "id": 11001334493, "lat": 46.4175222, "lon": 0.8738006}, {"type": "node", "id": 11001346308, "lat": 46.4051627, "lon": 0.7185365}, {"type": "node", "id": 11001346309, "lat": 46.4051749, "lon": 0.7184752}, {"type": "node", "id": 11001346310, "lat": 46.4051467, "lon": 0.7184644}, {"type": "node", "id": 11001346311, "lat": 46.4051348, "lon": 0.7185249}, {"type": "node", "id": 11007337669, "lat": 46.4230615, "lon": 0.8700871, "tags": {"bus": "yes", "highway": "bus_stop", "name": "Montmorillon - Centre", "network": "Transports Nouvelle-Aquitaine", "public_transport": "platform", "shelter": "no"}}, {"type": "node", "id": 11007337671, "lat": 46.4333425, "lon": 0.8767071, "tags": {"bus": "yes", "highway": "bus_stop", "name": "Montmorillon - Maison des Services", "network": "Transports Nouvelle-Aquitaine", "public_transport": "platform", "shelter": "no"}}, {"type": "node", "id": 11024971380, "lat": 46.3430823, "lon": 0.7055167, "tags": {"bus": "yes", "highway": "bus_stop", "name": "Persac Centre", "public_transport": "platform"}}, {"type": "node", "id": 11068367237, "lat": 46.338192, "lon": 0.9648689, "tags": {"name": "Lathus", "network": "TER Nouvelle-Aquitaine", "operator": "SNCF", "public_transport": "station", "railway": "station", "source": "SNCF - 08/2017", "train": "yes", "uic_ref": "8757549"}}, {"type": "node", "id": 11082741626, "lat": 46.4177286, "lon": 0.8738273, "tags": {"bus": "yes", "highway": "bus_stop", "name": "Montmorillon - Gare SNCF", "network": "Transports Nouvelle-Aquitaine", "public_transport": "platform"}}, {"type": "node", "id": 11251116390, "lat": 46.5074995, "lon": 0.7754191, "tags": {"bus": "yes", "highway": "bus_stop", "name": "Leignes-sur-Fontaine - Centre", "network": "Transports Nouvelle Aquitaine", "public_transport": "platform"}}, {"type": "node", "id": 11252612473, "lat": 46.489425, "lon": 0.6506604, "tags": {"bus": "yes", "highway": "bus_stop", "name": "Valdivienne - Le Garchard", "network": "Transports Nouvelle Aquitaine", "public_transport": "platform"}}, {"type": "node", "id": 11252701856, "lat": 46.44437, "lon": 0.6658364, "tags": {"bus": "yes", "highway": "bus_stop", "name": "Civaux - Centre", "network": "Transports Nouvelle Aquitaine", "public_transport": "platform"}}, {"type": "node", "id": 11252733531, "lat": 46.4176031, "lon": 0.8519479, "tags": {"bus": "yes", "highway": "bus_stop", "name": "Montmorillon - Saint-Nicolas", "network": "Transports Nouvelle Aquitaine", "public_transport": "platform"}}, {"type": "node", "id": 12067783635, "lat": 46.405313, "lon": 0.6872572, "tags": {"bench": "yes", "bin": "no", "bus": "yes", "highway": "bus_stop", "lit": "no", "name": "Cit\u00e9 La Camus", "public_transport": "platform", "shelter": "yes", "source": "survey", "tactile_paving": "no"}}, {"type": "node", "id": 12488167175, "lat": 46.4485779, "lon": 0.6668322, "tags": {"bench": "no", "bin": "no", "bus": "yes", "highway": "bus_stop", "lit": "no", "name": "Abyss\u00e9a Terre de Dragons - Civaux", "public_transport": "platform", "shelter": "no", "source": "survey", "tactile_paving": "no"}}, {"type": "node", "id": 12488519816, "lat": 46.4022983, "lon": 0.7255837, "tags": {"bench": "no", "bin": "no", "bus": "yes", "highway": "bus_stop", "lit": "no", "name": "Salle des F\u00eates - Lussac-Les-Chateaux", "operator": "R\u00e9gion Nouvelle-Aquitaine", "public_transport": "platform", "shelter": "no", "source": "survey", "tactile_paving": "no", "wheelchair": "no"}}, {"type": "way", "id": 63557602, "nodes": [786786548, 786771330, 10867459725, 786828252, 786760078, 786773626, 786749164, 786781495, 786818832, 786809231, 786803868, 11001334493, 786813900, 786786548], "tags": {"addr:city": "Montmorillon", "addr:postcode": "86500", "addr:street": "Avenue du G\u00e9n\u00e9ral de Gaulle", "building": "yes", "name": "Montmorillon", "network": "TER Nouvelle-Aquitaine", "network:wikidata": "Q47519663", "not:network:wikidata": "Q30754613", "official_name": "Montmorillon", "operator": "SNCF", "operator:wikidata": "Q13646", "public_transport": "station", "railway": "station", "source": "cadastre-dgi-fr source : Direction G\u00e9n\u00e9rale des Imp\u00f4ts - Cadastre. Mise \u00e0 jour : 2010", "train": "yes", "uic_ref": "8757548", "wikidata": "Q2160554", "wikipedia": "fr:Gare de Montmorillon"}}, {"type": "way", "id": 67506991, "nodes": [814930472, 814939621, 814950858, 814929665, 814941727, 814929455, 814930472], "tags": {"addr:city": "Le Dorat", "addr:postcode": "87210", "addr:street": "Avenue de la Gare", "building": "train_station", "description": "Distributeur de titre de transport TER", "name": "Le Dorat", "network": "TER Nouvelle-Aquitaine", "network:wikidata": "Q47519663", "opening_hours": "Fr 08:50-11:30,12:40-16:40", "operator": "SNCF", "operator:wikidata": "Q13646", "public_transport": "station", "railway": "station", "source": "extraction vectorielle v1 cadastre-dgi-fr source : Direction G\u00e9n\u00e9rale des Imp\u00f4ts - Cadas. Mise \u00e0 jour : 2010", "train": "yes", "uic_ref": "8759254", "website": "https://www.ter.sncf.com/nouvelle-aquitaine/se-deplacer/gares/le-dorat-87592543", "wikidata": "Q970213", "wikipedia": "fr:Gare du Dorat"}}, {"type": "way", "id": 1184418466, "nodes": [11001346308, 11001346309, 11001346310, 1362215642, 11001346311, 11001346308], "tags": {"building": "yes", "layer": "1", "name": "Lussac-les-Ch\u00e2teaux", "operator": "SNCF", "public_transport": "station", "railway": "station", "source": "SNCF - 08/2017", "train": "yes", "uic_ref": "8757584", "wheelchair": "yes"}}]}