{"version": 0.6, "generator": "Overpass API 0.7.62.5 1bd436f1", "osm3s": {"timestamp_osm_base": "2025-04-09T14:48:30Z", "copyright": "The data included in this document is from www.openstreetmap.org. The data is made available under ODbL."}, "elements": [{"type": "node", "id": 59985355, "lat": 43.214208, "lon": 2.8607022, "tags": {"bus": "yes", "highway": "bus_stop", "name": "Ligne 49. Villedaigne", "public_transport": "stop_position"}}, {"type": "node", "id": 550396542, "lat": 43.4675801, "lon": 3.2295143, "tags": {"name": "Magalas", "operator": "SNCF", "public_transport": "station", "railway": "station", "train": "yes", "uic_ref": "8778166", "wikidata": "Q3096949", "wikipedia": "fr:Gare de Magalas"}}, {"type": "node", "id": 611031826, "lat": 43.1949475, "lon": 3.010377, "tags": {"bench": "no", "bin": "no", "bus": "yes", "highway": "bus_stop", "lit": "no", "name": "Sainte-Louise", "public_transport": "platform", "shelter": "no", "tactile_paving": "yes"}}, {"type": "node", "id": 640584580, "lat": 43.227522, "lon": 2.878228, "tags": {"bench": "yes", "bin": "no", "bus": "yes", "highway": "bus_stop", "lit": "yes", "name": "Village", "public_transport": "platform", "shelter": "yes", "tactile_paving": "no"}}, {"type": "node", "id": 793900933, "lat": 43.2372216, "lon": 3.2628644, "tags": {"bench": "yes", "bus": "yes", "highway": "bus_stop", "name": "La Yole", "public_transport": "platform", "shelter": "yes"}}, {"type": "node", "id": 858181987, "lat": 43.2379574, "lon": 3.2757205, "tags": {"bench": "yes", "bus": "yes", "highway": "bus_stop", "name": "\u00c9lys\u00e9es", "public_transport": "platform", "shelter": "yes"}}, {"type": "node", "id": 949607914, "lat": 43.3461704, "lon": 2.9640728, "tags": {"bench": "yes", "bin": "no", "bus": "yes", "highway": "bus_stop", "lit": "yes", "name": "Quarante - Bascule", "network": "H\u00e9rault Transport", "network:wikidata": "Q3145008", "public_transport": "platform", "shelter": "yes", "tactile_paving": "no"}}, {"type": "node", "id": 1001113145, "lat": 43.4582922, "lon": 3.2374837, "tags": {"bench": "no", "bus": "yes", "highway": "bus_stop", "name": "Promenade", "network": "H\u00e9rault Transport", "network:wikidata": "Q3145008", "public_transport": "platform", "shelter": "no"}}, {"type": "node", "id": 1346219415, "lat": 43.3471059, "lon": 3.2121674, "tags": {"bench": "no", "bus": "yes", "highway": "bus_stop", "name": "Sacr\u00e9-C\u0153ur", "public_transport": "platform", "shelter": "no"}}, {"type": "node", "id": 1470627945, "lat": 43.3663338, "lon": 3.2536715, "tags": {"bus": "yes", "highway": "bus_stop", "name": "Saint-Privat", "public_transport": "stop_position"}}, {"type": "node", "id": 1514164064, "lat": 43.1170445, "lon": 3.1191659, "tags": {"bus": "yes", "highway": "bus_stop", "name": "Gruissan-Mateille : Base de Voile", "public_transport": "stop_position"}}, {"type": "node", "id": 1566278810, "lat": 43.2506689, "lon": 2.8317802, "tags": {"bench": "yes", "bin": "yes", "bus": "yes", "highway": "bus_stop", "public_transport": "platform", "shelter": "yes"}}, {"type": "node", "id": 1622024982, "lat": 43.2717975, "lon": 3.3282095, "tags": {"bench": "no", "bus": "yes", "highway": "bus_stop", "name": "La Ma\u00efre", "public_transport": "platform", "shelter": "no", "tactile_paving": "yes"}}, {"type": "node", "id": 1622025865, "lat": 43.2687279, "lon": 3.3327036, "tags": {"bench": "no", "bin": "yes", "bus": "yes", "highway": "bus_stop", "name": "La Marina", "public_transport": "platform", "shelter": "no", "tactile_paving": "yes"}}, {"type": "node", "id": 1623635918, "lat": 43.28223, "lon": 3.2810089, "tags": {"bench": "no", "bus": "yes", "highway": "bus_stop", "local_ref": "Bus Occitant - Ligne 16", "name": "Promenade", "public_transport": "platform", "shelter": "no"}}, {"type": "node", "id": 1623669478, "lat": 43.2844918, "lon": 3.2795858, "tags": {"bench": "no", "bin": "no", "bus": "yes", "highway": "bus_stop", "local_ref": "Ligne 16", "name": "La Cigali\u00e8re", "public_transport": "platform", "shelter": "no"}}, {"type": "node", "id": 1734454526, "lat": 43.1016618, "lon": 3.0866265, "tags": {"bus": "yes", "highway": "bus_stop", "name": "Clos de l'Estret", "public_transport": "stop_position"}}, {"type": "node", "id": 1865939287, "lat": 43.0149901, "lon": 3.0468787, "tags": {"bus": "yes", "highway": "bus_stop", "name": "Coll\u00e8ge La Nadi\u00e8re", "public_transport": "stop_position"}}, {"type": "node", "id": 1909867713, "lat": 43.2231626, "lon": 2.9236359, "tags": {"bus": "yes", "highway": "bus_stop", "name": "La Placette", "public_transport": "stop_position", "ref": "9", "wheelchair": "no"}}, {"type": "node", "id": 1961463724, "lat": 43.343574, "lon": 3.2121845, "tags": {"bench": "yes", "bin": "no", "bus": "yes", "highway": "bus_stop", "lit": "yes", "name": "Les Halles", "public_transport": "platform", "shelter": "yes", "source": "survey", "tactile_paving": "yes"}}, {"type": "node", "id": 2087476332, "lat": 43.2269291, "lon": 2.9454659, "tags": {"bus": "yes", "highway": "bus_stop", "name": "Promenade", "public_transport": "stop_position", "wheelchair": "no"}}, {"type": "node", "id": 2090189807, "lat": 43.2321828, "lon": 2.9504754, "tags": {"bus": "yes", "highway": "bus_stop", "name": "Maison Pour Tous", "public_transport": "stop_position", "ref": "9", "wheelchair": "no"}}, {"type": "node", "id": 2093457025, "lat": 43.2808773, "lon": 3.2798609, "tags": {"bench": "yes", "bin": "yes", "bus": "yes", "highway": "bus_stop", "local_ref": "SERIBUS", "name:signed": "no", "public_transport": "platform", "shelter": "yes"}}, {"type": "node", "id": 2208014268, "lat": 43.3352453, "lon": 3.21617, "tags": {"bench": "yes", "bus": "yes", "highway": "bus_stop", "name": "Pont Canal", "public_transport": "platform", "shelter": "yes"}}, {"type": "node", "id": 2208014271, "lat": 43.3344526, "lon": 3.2067255, "tags": {"bench": "no", "bus": "yes", "highway": "bus_stop", "name": "Quai Notre-Dame", "public_transport": "platform", "shelter": "no"}}, {"type": "node", "id": 2410880258, "lat": 43.122706, "lon": 2.991795, "tags": {"bench": "no", "bin": "no", "bus": "yes", "highway": "bus_stop", "name": "Le Lavoir", "public_transport": "platform", "shelter": "no", "tactile_paving": "no", "wheelchair": "no"}}, {"type": "node", "id": 2439155912, "lat": 43.2301075, "lon": 2.8483192, "tags": {"bench": "no", "bin": "no", "bus": "yes", "highway": "bus_stop", "lit": "yes", "name": "\u00c9cole", "public_transport": "platform", "shelter": "no", "tactile_paving": "no"}}, {"type": "node", "id": 2504146647, "lat": 43.246199, "lon": 2.803415, "tags": {"bench": "yes", "bin": "no", "bus": "yes", "highway": "bus_stop", "public_transport": "platform", "shelter": "yes"}}, {"type": "node", "id": 2515464331, "lat": 43.3328011, "lon": 3.212642, "tags": {"bench": "no", "bin": "no", "bus": "yes", "highway": "bus_stop", "name": "Le Bosquet", "public_transport": "platform", "shelter": "no", "tactile_paving": "no", "waste_basket": "no"}}, {"type": "node", "id": 2515464335, "lat": 43.3332626, "lon": 3.2118911, "tags": {"bench": "no", "bin": "no", "bus": "yes", "highway": "bus_stop", "name": "Le Bosquet", "public_transport": "platform", "shelter": "no", "tactile_paving": "no", "waste_basket": "no"}}, {"type": "node", "id": 2515996315, "lat": 43.33426, "lon": 3.2194332, "tags": {"bench": "yes", "bin": "no", "bus": "yes", "highway": "bus_stop", "name": "Port Neuf", "public_transport": "platform", "shelter": "yes"}}, {"type": "node", "id": 2515996317, "lat": 43.3343014, "lon": 3.2194507, "tags": {"bus": "yes", "highway": "bus_stop", "name": "Port Neuf", "public_transport": "stop_position"}}, {"type": "node", "id": 2604245870, "lat": 43.2706746, "lon": 2.8428315, "tags": {"bench": "yes", "bin": "no", "bus": "yes", "highway": "bus_stop", "lit": "yes", "name": "Combefort", "public_transport": "platform", "shelter": "yes", "tactile_paving": "no"}}, {"type": "node", "id": 2724343666, "lat": 43.1902358, "lon": 2.9253075, "tags": {"bench": "yes", "bin": "no", "bus": "yes", "highway": "bus_stop", "lit": "yes", "name": "La Poste", "public_transport": "platform", "shelter": "yes", "tactile_paving": "no"}}, {"type": "node", "id": 2757803310, "lat": 43.175001, "lon": 3.003176, "tags": {"bench": "no", "bin": "no", "bus": "yes", "highway": "bus_stop", "lit": "yes", "name": "Maraussan", "public_transport": "platform", "shelter": "no", "tactile_paving": "no"}}, {"type": "node", "id": 2764191557, "lat": 43.1754933, "lon": 2.9996493, "tags": {"bench": "no", "bin": "no", "bus": "yes", "highway": "bus_stop", "lit": "yes", "name": "Turenne", "public_transport": "platform", "shelter": "no", "tactile_paving": "no"}}, {"type": "node", "id": 2764191558, "lat": 43.175578, "lon": 2.999659, "tags": {"bench": "no", "bin": "no", "bus": "yes", "highway": "bus_stop", "lit": "yes", "name": "Turenne", "public_transport": "platform", "shelter": "no", "tactile_paving": "no"}}, {"type": "node", "id": 2774587519, "lat": 43.24567, "lon": 3.00195, "tags": {"bench": "no", "bin": "no", "bus": "yes", "highway": "bus_stop", "name": "Notre-Dame", "public_transport": "platform", "shelter": "no"}}, {"type": "node", "id": 2802971788, "lat": 43.1823255, "lon": 2.9960016, "tags": {"bus": "yes", "highway": "bus_stop", "name": "Riquet", "public_transport": "stop_position"}}, {"type": "node", "id": 2862486537, "lat": 43.139041, "lon": 2.969643, "tags": {"bench": "no", "bin": "no", "bus": "yes", "highway": "bus_stop", "name": "Ch\u00e8vrefeuille", "public_transport": "platform", "shelter": "no"}}, {"type": "node", "id": 2864028373, "lat": 43.144272, "lon": 2.974597, "tags": {"bench": "yes", "bin": "no", "bus": "yes", "highway": "bus_stop", "name": "Montplaisir", "public_transport": "platform", "shelter": "no"}}, {"type": "node", "id": 2864028374, "lat": 43.1411408, "lon": 2.9670553, "tags": {"bench": "yes", "bin": "no", "bus": "yes", "highway": "bus_stop", "name": "Roches Grises", "public_transport": "platform", "shelter": "yes"}}, {"type": "node", "id": 2864028375, "lat": 43.141444, "lon": 2.967127, "tags": {"bench": "no", "bin": "no", "bus": "yes", "highway": "bus_stop", "name": "Roches Grises", "public_transport": "platform", "shelter": "no"}}, {"type": "node", "id": 2864028376, "lat": 43.141926, "lon": 2.973124, "tags": {"bench": "yes", "bin": "no", "bus": "yes", "highway": "bus_stop", "name": "Sainte-Claire", "public_transport": "platform", "shelter": "no"}}, {"type": "node", "id": 2864171814, "lat": 43.134979, "lon": 2.965083, "tags": {"bench": "yes", "bin": "yes", "bus": "yes", "highway": "bus_stop", "name": "R\u00e9veillon", "public_transport": "platform", "shelter": "yes"}}, {"type": "node", "id": 2868147901, "lat": 43.1801969, "lon": 3.0242365, "tags": {"bench": "yes", "bin": "yes", "bus": "yes", "highway": "bus_stop", "name": "Parc des Expositions", "public_transport": "platform", "shelter": "yes"}}, {"type": "node", "id": 2878049844, "lat": 43.1491373, "lon": 2.9780978, "tags": {"bench": "yes", "bin": "no", "bus": "yes", "highway": "bus_stop", "lit": "yes", "name": "Plaine de Jeux", "public_transport": "platform", "shelter": "yes", "tactile_paving": "no"}}, {"type": "node", "id": 2878049845, "lat": 43.149129, "lon": 2.977786, "tags": {"bench": "no", "bin": "no", "bus": "yes", "highway": "bus_stop", "lit": "no", "name": "Plaine de Jeux", "public_transport": "platform", "shelter": "no", "tactile_paving": "no"}}, {"type": "node", "id": 2902862679, "lat": 43.1577807, "lon": 2.971457, "tags": {"bus": "yes", "highway": "bus_stop", "mapillary": "813074295982712", "name": "D\u00e9pot Citybus", "pole": "yes", "public_transport": "stop_position", "shelter": "no", "survey:date": "2020-02-25"}}, {"type": "node", "id": 2907175561, "lat": 43.138679, "lon": 2.970139, "tags": {"bench": "yes", "bin": "yes", "bus": "yes", "highway": "bus_stop", "name": "Ch\u00e8vrefeuille", "public_transport": "platform", "shelter": "yes"}}, {"type": "node", "id": 2907175563, "lat": 43.1570096, "lon": 2.9826219, "tags": {"bench": "yes", "bin": "yes", "bus": "yes", "highway": "bus_stop", "name": "Route de Perpignan", "public_transport": "platform", "shelter": "yes"}}, {"type": "node", "id": 2907175566, "lat": 43.170128, "lon": 2.989727, "tags": {"bench": "yes", "bin": "yes", "bus": "yes", "highway": "bus_stop", "lit": "yes", "name": "Z.I. Plaisance", "public_transport": "platform", "shelter": "yes", "tactile_paving": "no", "wheelchair": "no"}}, {"type": "node", "id": 2907175567, "lat": 43.1698173, "lon": 2.9879516, "tags": {"bench": "yes", "bin": "no", "bus": "yes", "highway": "bus_stop", "name": "Champ de Mars", "public_transport": "platform", "shelter": "yes"}}, {"type": "node", "id": 2907175571, "lat": 43.1748412, "lon": 2.9930364, "tags": {"bench": "yes", "bin": "yes", "bus": "yes", "highway": "bus_stop", "name": "Espace de Libert\u00e9", "public_transport": "platform", "shelter": "yes"}}, {"type": "node", "id": 2907175573, "lat": 43.175134, "lon": 3.003186, "tags": {"bench": "yes", "bin": "yes", "bus": "yes", "highway": "bus_stop", "lit": "yes", "name": "Maraussan", "public_transport": "platform", "shelter": "yes", "tactile_paving": "no"}}, {"type": "node", "id": 2907175574, "lat": 43.17757, "lon": 2.9947728, "tags": {"bench": "yes", "bin": "yes", "bus": "yes", "highway": "bus_stop", "lit": "yes", "name": "Montmorency", "public_transport": "platform", "shelter": "yes", "tactile_paving": "no"}}, {"type": "node", "id": 2907175575, "lat": 43.177959, "lon": 2.994839, "tags": {"bench": "yes", "bin": "yes", "bus": "yes", "highway": "bus_stop", "lit": "yes", "name": "Montmorency", "public_transport": "platform", "shelter": "yes", "tactile_paving": "no"}}, {"type": "node", "id": 2907175576, "lat": 43.1778881, "lon": 3.0287761, "tags": {"bench": "yes", "bin": "yes", "bus": "yes", "highway": "bus_stop", "name": "Bonne Source", "public_transport": "platform", "shelter": "yes"}}, {"type": "node", "id": 2907175579, "lat": 43.1806921, "lon": 2.9967078, "tags": {"bench": "yes", "bin": "no", "bus": "yes", "highway": "bus_stop", "lit": "yes", "name": "Cimeti\u00e8re de Bourg", "public_transport": "platform", "shelter": "yes", "tactile_paving": "no"}}, {"type": "node", "id": 2907175580, "lat": 43.18074, "lon": 2.999777, "tags": {"bench": "yes", "bin": "yes", "bus": "yes", "highway": "bus_stop", "lit": "yes", "name": "H\u00f4pital", "public_transport": "platform", "shelter": "yes", "tactile_paving": "no"}}, {"type": "node", "id": 2907175581, "lat": 43.181273, "lon": 3.0067293, "tags": {"bench": "yes", "bin": "no", "bus": "yes", "highway": "bus_stop", "lit": "yes", "name": "Les Halles Valli\u00e8re", "public_transport": "platform", "shelter": "yes", "tactile_paving": "no"}}, {"type": "node", "id": 2907175582, "lat": 43.1812012, "lon": 3.0055711, "tags": {"bench": "yes", "bin": "yes", "bus": "yes", "highway": "bus_stop", "lit": "yes", "name": "Les Halles", "public_transport": "platform", "shelter": "yes", "tactile_paving": "no"}}, {"type": "node", "id": 2907175583, "lat": 43.181386, "lon": 3.014435, "tags": {"bench": "no", "bin": "no", "bus": "yes", "highway": "bus_stop", "lit": "yes", "name": "Mar\u00e9chal Juin", "public_transport": "platform", "shelter": "no"}}, {"type": "node", "id": 2907175584, "lat": 43.1815778, "lon": 2.980652, "tags": {"bench": "yes", "bin": "no", "bus": "yes", "highway": "bus_stop", "name": "Saint-Vincent", "public_transport": "platform", "shelter": "yes"}}, {"type": "node", "id": 2907175585, "lat": 43.1816723, "lon": 2.9806888, "tags": {"bench": "yes", "bin": "no", "bus": "yes", "highway": "bus_stop", "name": "Saint-Vincent", "public_transport": "platform", "shelter": "yes"}}, {"type": "node", "id": 2907175586, "lat": 43.1819509, "lon": 2.998226, "tags": {"bench": "yes", "bin": "no", "bus": "yes", "highway": "bus_stop", "lit": "yes", "name": "Arago", "public_transport": "platform", "shelter": "yes", "tactile_paving": "no"}}, {"type": "node", "id": 2907175587, "lat": 43.182111, "lon": 3.029968, "tags": {"bench": "yes", "bin": "no", "bus": "yes", "highway": "bus_stop", "lit": "yes", "name": "Colonnes", "public_transport": "platform", "shelter": "yes", "tactile_paving": "no"}}, {"type": "node", "id": 2907175588, "lat": 43.182604, "lon": 3.020159, "tags": {"bench": "yes", "bin": "no", "bus": "yes", "highway": "bus_stop", "name": "Parc des Sports", "public_transport": "platform", "shelter": "yes"}}, {"type": "node", "id": 2907175591, "lat": 43.1833371, "lon": 3.0080162, "tags": {"bench": "yes", "bin": "yes", "bus": "yes", "highway": "bus_stop", "lit": "yes", "name": "La Poste", "public_transport": "platform", "shelter": "yes", "tactile_paving": "no"}}, {"type": "node", "id": 2907175593, "lat": 43.183613, "lon": 3.023279, "tags": {"bench": "yes", "bin": "yes", "bus": "yes", "highway": "bus_stop", "name": "P\u00f4le Universitaire", "public_transport": "platform", "shelter": "yes"}}, {"type": "node", "id": 2907175594, "lat": 43.1838705, "lon": 2.9959516, "tags": {"bench": "yes", "bin": "yes", "bus": "yes", "highway": "bus_stop", "lit": "yes", "name": "Charles Trenet", "public_transport": "platform", "shelter": "yes", "tactile_paving": "no"}}, {"type": "node", "id": 2907179201, "lat": 43.1849076, "lon": 3.0004718, "tags": {"bench": "yes", "bin": "yes", "bus": "yes", "highway": "bus_stop", "lit": "yes", "name": "Jean Jaur\u00e8s", "public_transport": "platform", "shelter": "yes", "tactile_paving": "yes"}}, {"type": "node", "id": 2907179203, "lat": 43.1858382, "lon": 2.9930495, "tags": {"bench": "yes", "bin": "yes", "bus": "yes", "highway": "bus_stop", "lit": "yes", "name": "Lamartine", "public_transport": "platform", "shelter": "yes"}}, {"type": "node", "id": 2907179205, "lat": 43.18615, "lon": 3.022042, "tags": {"bench": "yes", "bin": "no", "bus": "yes", "highway": "bus_stop", "name": "Primev\u00e8res", "public_transport": "platform", "shelter": "yes"}}, {"type": "node", "id": 2907179206, "lat": 43.1861456, "lon": 3.0194537, "tags": {"bench": "no", "bin": "no", "bus": "yes", "highway": "bus_stop", "lit": "yes", "name": "Jean Camp", "public_transport": "platform", "shelter": "yes"}}, {"type": "node", "id": 2907179207, "lat": 43.187691, "lon": 3.008704, "tags": {"bench": "yes", "bin": "no", "bus": "yes", "highway": "bus_stop", "lit": "yes", "name": "R\u00e9volution", "public_transport": "platform", "shelter": "yes", "tactile_paving": "no"}}, {"type": "node", "id": 2907179208, "lat": 43.188485, "lon": 3.007073, "tags": {"bench": "yes", "bin": "yes", "bus": "yes", "highway": "bus_stop", "lit": "no", "name": "Europe", "public_transport": "platform", "shelter": "yes", "tactile_paving": "no"}}, {"type": "node", "id": 2907179209, "lat": 43.1885234, "lon": 2.987371, "tags": {"bench": "yes", "bin": "yes", "bus": "yes", "highway": "bus_stop", "name": "Route de Saint-Pons", "public_transport": "platform", "shelter": "yes"}}, {"type": "node", "id": 2907179210, "lat": 43.188739, "lon": 3.026114, "tags": {"bench": "yes", "bin": "yes", "bus": "yes", "highway": "bus_stop", "name": "Malard", "public_transport": "platform", "shelter": "yes"}}, {"type": "node", "id": 2907179211, "lat": 43.1890298, "lon": 2.9847357, "tags": {"bench": "yes", "bin": "no", "bus": "yes", "highway": "bus_stop", "name": "Cimeti\u00e8re de l'Ouest", "public_transport": "platform", "shelter": "no"}}, {"type": "node", "id": 2907179212, "lat": 43.189152, "lon": 2.993863, "tags": {"bench": "yes", "bin": "no", "bus": "yes", "highway": "bus_stop", "lit": "no", "name": "Peupliers", "public_transport": "platform", "shelter": "yes", "tactile_paving": "no"}}, {"type": "node", "id": 2907179213, "lat": 43.1894168, "lon": 3.0061332, "tags": {"bench": "yes", "bin": "no", "bus": "yes", "highway": "bus_stop", "lit": "yes", "name": "Gare Condorcet", "public_transport": "platform", "shelter": "yes", "tactile_paving": "no"}}, {"type": "node", "id": 2907179214, "lat": 43.19003, "lon": 3.017686, "tags": {"bench": "yes", "bin": "yes", "bus": "yes", "highway": "bus_stop", "lit": "yes", "name": "Louise Michel", "public_transport": "platform", "shelter": "yes", "tactile_paving": "no", "wheelchair": "no"}}, {"type": "node", "id": 2907179215, "lat": 43.189561, "lon": 3.005434, "tags": {"bench": "yes", "bin": "no", "bus": "yes", "highway": "bus_stop", "lit": "yes", "name": "Gare SNCF", "public_transport": "platform", "shelter": "yes", "tactile_paving": "yes"}}, {"type": "node", "id": 2907179216, "lat": 43.190073, "lon": 2.998184, "tags": {"bench": "yes", "bin": "no", "bus": "yes", "highway": "bus_stop", "lit": "yes", "name": "Arr\u00eat D\u00e9saffect\u00e9", "old_name": "Moulin du Gua", "public_transport": "platform", "shelter": "yes", "tactile_paving": "no"}}, {"type": "node", "id": 2907179217, "lat": 43.190222, "lon": 3.017938, "tags": {"bench": "yes", "bin": "yes", "bus": "yes", "highway": "bus_stop", "lit": "yes", "name": "Louise Michel", "public_transport": "platform", "shelter": "yes", "tactile_paving": "no", "wheelchair": "no"}}, {"type": "node", "id": 2907179219, "lat": 43.190769, "lon": 3.009245, "tags": {"bench": "yes", "bin": "yes", "bus": "yes", "highway": "bus_stop", "lit": "yes", "name": "La Lombarde", "public_transport": "platform", "shelter": "yes", "tactile_paving": "no"}}, {"type": "node", "id": 2907179220, "lat": 43.192335, "lon": 3.009524, "tags": {"bench": "yes", "bin": "yes", "bus": "yes", "highway": "bus_stop", "lit": "yes", "name": "S\u00e9curit\u00e9 Sociale", "public_transport": "platform", "shelter": "yes", "tactile_paving": "no"}}, {"type": "node", "id": 2907179221, "lat": 43.1930837, "lon": 3.0193685}, {"type": "node", "id": 2907179222, "lat": 43.193518, "lon": 3.014416, "tags": {"bench": "yes", "bin": "yes", "bus": "yes", "highway": "bus_stop", "lit": "yes", "name": "Provence", "public_transport": "platform", "shelter": "yes", "tactile_paving": "no"}}, {"type": "node", "id": 2907179224, "lat": 43.1935881, "lon": 3.0185963}, {"type": "node", "id": 2907179226, "lat": 43.193638, "lon": 3.0233778, "tags": {"bench": "yes", "bin": "yes", "bus": "yes", "highway": "bus_stop", "lit": "yes", "name": "Baliste", "public_transport": "platform", "shelter": "yes", "tactile_paving": "no"}}, {"type": "node", "id": 2907179227, "lat": 43.1953863, "lon": 3.0150594, "tags": {"bench": "yes", "bin": "yes", "bus": "yes", "highway": "bus_stop", "lit": "yes", "name": "Divi\u00e8s", "public_transport": "platform", "shelter": "yes", "tactile_paving": "no"}}, {"type": "node", "id": 2907395644, "lat": 43.183852, "lon": 2.971348, "tags": {"bench": "yes", "bin": "no", "bus": "yes", "highway": "bus_stop", "name": "Pic de Nore", "public_transport": "platform", "shelter": "yes"}}, {"type": "node", "id": 2907395647, "lat": 43.1850451, "lon": 2.9736832, "tags": {"bench": "yes", "bin": "no", "bus": "yes", "highway": "bus_stop", "name": "Saint-Jean Saint-Pierre", "public_transport": "platform", "shelter": "yes"}}, {"type": "node", "id": 2907483096, "lat": 43.212079, "lon": 2.939076, "tags": {"bench": "yes", "bin": "no", "bus": "yes", "highway": "bus_stop", "lit": "no", "name": "Fresquet", "public_transport": "platform", "shelter": "yes", "tactile_paving": "no"}}, {"type": "node", "id": 2907483097, "lat": 43.223344, "lon": 2.923576, "tags": {"bench": "yes", "bin": "no", "bus": "yes", "highway": "bus_stop", "name": "La Placette", "public_transport": "platform", "shelter": "yes", "tactile_paving": "no"}}, {"type": "node", "id": 2907483098, "lat": 43.2232892, "lon": 2.9234142, "tags": {"bench": "yes", "bin": "no", "bus": "yes", "highway": "bus_stop", "name": "La Placette", "public_transport": "platform", "shelter": "yes"}}, {"type": "node", "id": 2907483100, "lat": 43.228103, "lon": 2.922841, "tags": {"bench": "yes", "bin": "no", "bus": "yes", "highway": "bus_stop", "name": "Pharmacie", "public_transport": "platform", "shelter": "yes"}}, {"type": "node", "id": 2907484901, "lat": 43.2343128, "lon": 2.936456, "tags": {"bench": "yes", "bin": "no", "bus": "yes", "highway": "bus_stop", "name": "Les Hortes du Roucan", "public_transport": "platform", "shelter": "yes"}}, {"type": "node", "id": 2911405821, "lat": 43.106306, "lon": 3.096251, "tags": {"bench": "yes", "bin": "no", "bus": "yes", "highway": "bus_stop", "name": "Capitainerie", "public_transport": "platform", "shelter": "yes"}}, {"type": "node", "id": 3018370769, "lat": 43.244493, "lon": 2.894712, "tags": {"bench": "no", "bin": "no", "bus": "yes", "highway": "bus_stop", "lit": "yes", "name": "Place du Village", "public_transport": "platform", "shelter": "no"}}, {"type": "node", "id": 3018370774, "lat": 43.2444029, "lon": 2.8946985, "tags": {"bench": "yes", "bin": "no", "bus": "yes", "highway": "bus_stop", "lit": "yes", "name": "Place du Village", "public_transport": "platform", "shelter": "yes"}}, {"type": "node", "id": 3018370778, "lat": 43.2486388, "lon": 2.8947817, "tags": {"highway": "bus_stop", "name": "Route du Somail", "public_transport": "platform"}}, {"type": "node", "id": 3126306581, "lat": 43.359592, "lon": 3.169738, "tags": {"bench": "yes", "bus": "yes", "highway": "bus_stop", "name": "Chemin Passierou", "network": "H\u00e9rault Transport", "network:wikidata": "Q3145008", "public_transport": "platform", "shelter": "yes"}}, {"type": "node", "id": 3126308260, "lat": 43.360337, "lon": 3.168765, "tags": {"bench": "yes", "bus": "yes", "highway": "bus_stop", "name": "Chemin Passierou", "network": "H\u00e9rault Transport", "network:wikidata": "Q3145008", "public_transport": "platform", "shelter": "yes"}}, {"type": "node", "id": 3134132385, "lat": 43.2979641, "lon": 2.7567821, "tags": {"highway": "bus_stop", "name": "Beaufort", "public_transport": "platform", "shelter": "no"}}, {"type": "node", "id": 3157502089, "lat": 43.1995286, "lon": 3.0746472, "tags": {"bench": "yes", "bin": "yes", "bus": "yes", "highway": "bus_stop", "lit": "yes", "name": "Jean Jaur\u00e8s", "public_transport": "platform", "shelter": "yes", "tactile_paving": "yes"}}, {"type": "node", "id": 3157502090, "lat": 43.2002054, "lon": 3.0744385, "tags": {"bench": "no", "bin": "yes", "bus": "yes", "highway": "bus_stop", "lit": "yes", "name": "Jean Jaur\u00e8s", "public_transport": "platform", "shelter": "no", "tactile_paving": "yes"}}, {"type": "node", "id": 3157502093, "lat": 43.2043312, "lon": 3.0744098, "tags": {"bench": "yes", "bin": "yes", "bus": "yes", "check_date:shelter": "2022-11-27", "highway": "bus_stop", "name": "Village", "public_transport": "platform", "shelter": "yes"}}, {"type": "node", "id": 3204366826, "lat": 43.3341865, "lon": 3.2220837, "tags": {"bench": "no", "bin": "no", "bus": "yes", "highway": "bus_stop", "lit": "no", "name": "P\u00e9niches", "public_transport": "platform", "shelter": "no", "tactile_paving": "no"}}, {"type": "node", "id": 3337310210, "lat": 43.3901692, "lon": 3.1103616, "tags": {"bench": "yes", "bin": "yes", "bus": "yes", "highway": "bus_stop", "name": "Hameau", "network": "H\u00e9rault Transport", "network:wikidata": "Q3145008", "public_transport": "platform", "shelter": "yes"}}, {"type": "node", "id": 3350266394, "lat": 43.1398241, "lon": 2.887123, "tags": {"bench": "no", "bus": "yes", "highway": "bus_stop", "public_transport": "stop_position", "shelter": "no"}}, {"type": "node", "id": 3478879449, "lat": 43.3558446, "lon": 2.9413531, "tags": {"bench": "yes", "bus": "yes", "highway": "bus_stop", "name": "Cruzy - Centre", "network": "H\u00e9rault Transport", "network:wikidata": "Q3145008", "public_transport": "platform", "shelter": "no"}}, {"type": "node", "id": 3895266402, "lat": 43.3573806, "lon": 3.2399586, "tags": {"bus": "yes", "highway": "bus_stop", "name": "Aguillar", "public_transport": "stop_position"}}, {"type": "node", "id": 3908424157, "lat": 43.3556795, "lon": 3.2386686, "tags": {"bench": "no", "bus": "yes", "highway": "bus_stop", "name": "Limousin", "public_transport": "platform", "shelter": "no"}}, {"type": "node", "id": 4021882029, "lat": 43.355378, "lon": 3.2385715, "tags": {"bench": "yes", "bus": "yes", "covered": "yes", "highway": "bus_stop", "name": "Limousin", "public_transport": "platform", "shelter": "yes"}}, {"type": "node", "id": 4023391026, "lat": 43.3460213, "lon": 3.2263782, "tags": {"bus": "yes", "highway": "bus_stop", "name": "Sainte-Famille", "public_transport": "platform"}}, {"type": "node", "id": 4033778026, "lat": 43.2946824, "lon": 3.260884, "tags": {"bench": "yes", "bus": "yes", "highway": "bus_stop", "name": "Les Hirondelles", "public_transport": "platform", "shelter": "yes"}}, {"type": "node", "id": 4046100474, "lat": 43.3582369, "lon": 3.1205051, "tags": {"bus": "yes", "highway": "bus_stop", "public_transport": "stop_position"}}, {"type": "node", "id": 4079298527, "lat": 43.2688194, "lon": 3.2236484, "tags": {"bench": "no", "bin": "no", "bus": "yes", "highway": "bus_stop", "name": "Vendres - Mairie", "network": "H\u00e9rault Transport", "network:wikidata": "Q3145008", "public_transport": "platform", "shelter": "no"}}, {"type": "node", "id": 4081258883, "lat": 43.2943915, "lon": 3.0292298, "tags": {"highway": "bus_stop", "public_transport": "platform", "shelter": "no"}}, {"type": "node", "id": 4140625428, "lat": 43.3488976, "lon": 2.9620245, "tags": {"bench": "yes", "bus": "yes", "highway": "bus_stop", "name": "Quarante - Fontanche", "network": "H\u00e9rault Transport", "network:wikidata": "Q3145008", "public_transport": "platform", "shelter": "yes"}}, {"type": "node", "id": 4155304830, "lat": 43.3670495, "lon": 3.0422858, "tags": {"highway": "bus_stop", "public_transport": "platform", "shelter": "yes"}}, {"type": "node", "id": 4155824190, "lat": 43.3744846, "lon": 3.0121765, "tags": {"bench": "no", "bus": "yes", "highway": "bus_stop", "name": "Creissan - Centre", "network": "H\u00e9rault Transport", "network:wikidata": "Q3145008", "public_transport": "platform", "shelter": "no"}}, {"type": "node", "id": 4472554457, "lat": 43.136968, "lon": 2.962827, "tags": {"bench": "no", "bin": "no", "bus": "yes", "highway": "bus_stop", "name": "Bacchus", "public_transport": "platform", "shelter": "no"}}, {"type": "node", "id": 4472554459, "lat": 43.136285, "lon": 2.961682, "tags": {"bench": "no", "bin": "no", "bus": "yes", "highway": "bus_stop", "name": "Com\u00e8te", "public_transport": "platform", "shelter": "no"}}, {"type": "node", "id": 4472554461, "lat": 43.134508, "lon": 2.961982, "tags": {"bench": "no", "bin": "no", "bus": "yes", "highway": "bus_stop", "name": "Harmonia", "public_transport": "platform", "shelter": "no"}}, {"type": "node", "id": 4485905811, "lat": 43.246709, "lon": 2.997208, "tags": {"bench": "yes", "bin": "no", "bus": "yes", "highway": "bus_stop", "name": "Fran\u00e7ois Mitterrand P\u00f4le d\u2019\u00c9changes", "public_transport": "platform", "shelter": "yes"}}, {"type": "node", "id": 4497215413, "lat": 43.1009795, "lon": 3.1105243, "tags": {"bench": "yes", "bin": "no", "bus": "yes", "highway": "bus_stop", "name": "Chapelle", "public_transport": "platform", "shelter": "yes"}}, {"type": "node", "id": 4497215414, "lat": 43.1037027, "lon": 3.0902023, "tags": {"bench": "yes", "bin": "no", "bus": "yes", "highway": "bus_stop", "name": "Les P\u00eacheurs", "public_transport": "platform", "shelter": "yes", "tactile_paving": "no"}}, {"type": "node", "id": 4497215415, "lat": 43.1051679, "lon": 3.1133058, "tags": {"bus": "yes", "highway": "bus_stop", "name": "\u00celot 9", "public_transport": "platform"}}, {"type": "node", "id": 4497286763, "lat": 43.2283049, "lon": 2.9448684, "tags": {"bench": "no", "bin": "no", "bus": "yes", "highway": "bus_stop", "name": "La Condominette", "public_transport": "platform", "shelter": "no"}}, {"type": "node", "id": 4498110037, "lat": 43.0885564, "lon": 2.9546673, "tags": {"bench": "yes", "bin": "no", "bus": "yes", "highway": "bus_stop", "name": "Cave Coop\u00e9rative", "public_transport": "platform", "shelter": "yes"}}, {"type": "node", "id": 4498110058, "lat": 43.0618473, "lon": 2.9201216, "tags": {"bench": "yes", "bin": "no", "bus": "yes", "highway": "bus_stop", "name": "La Pascuale", "public_transport": "platform", "shelter": "yes", "tactile_paving": "yes", "wheelchair": "yes"}}, {"type": "node", "id": 4498110075, "lat": 43.0576209, "lon": 2.9220428, "tags": {"bench": "yes", "bus": "yes", "highway": "bus_stop", "name": "Coop\u00e9rative", "public_transport": "platform", "shelter": "yes", "tactile_paving": "yes", "wheelchair": "yes"}}, {"type": "node", "id": 4498110082, "lat": 43.0539531, "lon": 2.9223975, "tags": {"bench": "yes", "bin": "no", "bus": "yes", "highway": "bus_stop", "lit": "yes", "name": "Aire", "public_transport": "platform", "shelter": "yes", "tactile_paving": "no", "wheelchair": "no"}}, {"type": "node", "id": 4498110993, "lat": 43.0502329, "lon": 2.9236126, "tags": {"bench": "yes", "bin": "no", "bus": "yes", "highway": "bus_stop", "name": "Tamaroque", "public_transport": "platform", "shelter": "yes"}}, {"type": "node", "id": 4498238409, "lat": 43.188126, "lon": 3.0982426, "tags": {"bench": "yes", "bin": "yes", "bus": "yes", "highway": "bus_stop", "name": "Les Tilleuls", "public_transport": "platform", "shelter": "yes"}}, {"type": "node", "id": 4498238410, "lat": 43.1891816, "lon": 3.0906492, "tags": {"bench": "yes", "bin": "yes", "bus": "yes", "highway": "bus_stop", "name": "La Ricarde", "public_transport": "platform", "shelter": "yes"}}, {"type": "node", "id": 4498676613, "lat": 43.1861361, "lon": 2.9191041, "tags": {"bench": "yes", "bin": "no", "bus": "yes", "highway": "bus_stop", "lit": "yes", "name": "Croix Blanche", "public_transport": "platform", "shelter": "yes", "tactile_paving": "no"}}, {"type": "node", "id": 4524417177, "lat": 43.0262104, "lon": 2.9777442, "tags": {"bus": "yes", "highway": "bus_stop", "public_transport": "stop_position"}}, {"type": "node", "id": 4549481230, "lat": 43.0163546, "lon": 3.0495345, "tags": {"bus": "yes", "highway": "bus_stop", "name": "\u00c9cole Alphonse Daudet", "public_transport": "stop_position"}}, {"type": "node", "id": 4610200493, "lat": 43.0221315, "lon": 3.0368618, "tags": {"bus": "yes", "highway": "bus_stop", "name": "Avenue des Mouettes", "public_transport": "stop_position"}}, {"type": "node", "id": 4610200494, "lat": 43.0164136, "lon": 3.0561197, "tags": {"bench": "yes", "bin": "no", "bus": "yes", "highway": "bus_stop", "lit": "no", "name": "Parc Leclerc", "public_transport": "platform", "shelter": "no", "tactile_paving": "yes"}}, {"type": "node", "id": 4695675222, "lat": 43.309021, "lon": 3.1658251, "tags": {"bench": "yes", "bus": "yes", "highway": "bus_stop", "name": "ZI de Viargues RD 162", "network": "H\u00e9rault Transport", "network:wikidata": "Q3145008", "public_transport": "platform", "shelter": "yes"}}, {"type": "node", "id": 4695749653, "lat": 43.2288977, "lon": 3.050826, "tags": {"bench": "yes", "bin": "no", "bus": "yes", "highway": "bus_stop", "lit": "yes", "name": "Supermarch\u00e9", "public_transport": "platform", "shelter": "yes", "tactile_paving": "no"}}, {"type": "node", "id": 4711686950, "lat": 43.3622519, "lon": 3.2320018, "tags": {"bench": "yes", "bus": "yes", "highway": "bus_stop", "name": "Grands Hommes", "public_transport": "platform", "shelter": "yes"}}, {"type": "node", "id": 4711686986, "lat": 43.3625111, "lon": 3.2316149, "tags": {"bench": "yes", "bus": "yes", "highway": "bus_stop", "name": "Grands Hommes", "public_transport": "platform", "shelter": "yes"}}, {"type": "node", "id": 4764071590, "lat": 43.0228805, "lon": 3.0350723, "tags": {"bench": "yes", "bin": "no", "bus": "yes", "highway": "bus_stop", "lit": "yes", "name": "Flamants Roses", "public_transport": "platform", "shelter": "yes", "tactile_paving": "no"}}, {"type": "node", "id": 5104968376, "lat": 43.2689474, "lon": 3.2838648, "tags": {"bench": "yes", "bus": "yes", "highway": "bus_stop", "name": "Centre Commercial", "public_transport": "platform", "shelter": "yes"}}, {"type": "node", "id": 5104968377, "lat": 43.268911, "lon": 3.284198, "tags": {"bench": "yes", "bin": "yes", "bus": "yes", "highway": "bus_stop", "lit": "yes", "name": "Centre Commercial", "public_transport": "platform", "shelter": "yes", "tactile_paving": "no"}}, {"type": "node", "id": 5104968379, "lat": 43.2623038, "lon": 3.2842218, "tags": {"bench": "no", "bus": "yes", "highway": "bus_stop", "name": "L'Hermitage", "public_transport": "platform", "shelter": "no"}}, {"type": "node", "id": 5551929712, "lat": 43.1999015, "lon": 2.7694408, "tags": {"name": "L\u00e9zignan-Corbi\u00e8res", "network": "TER Occitanie", "network:wikidata": "Q37941081", "operator": "SNCF", "operator:wikidata": "Q13646", "public_transport": "station", "railway": "station", "source": "SNCF - 08/2017", "train": "yes", "uic_ref": "8761511", "wheelchair": "yes"}}, {"type": "node", "id": 5613328922, "lat": 43.3428822, "lon": 3.2211027, "tags": {"bench": "yes", "bus": "yes", "highway": "bus_stop", "name": "Puel", "public_transport": "platform", "shelter": "no"}}, {"type": "node", "id": 5613328941, "lat": 43.3434639, "lon": 3.2251564, "tags": {"bench": "no", "bin": "no", "bus": "yes", "highway": "bus_stop", "image": "https://storage13.openstreetcam.org/files/photo/2020/7/17/lth/2768494_9fa74_5f114700aad84.jpg", "mapillary": "341004050702791", "name": "\u00c9mile Clapar\u00e8de", "public_transport": "platform", "shelter": "no", "survey:date": "2020-07-17"}}, {"type": "node", "id": 5613328975, "lat": 43.3434862, "lon": 3.2256481, "tags": {"bench": "no", "bus": "yes", "highway": "bus_stop", "name": "\u00c9mile Clapar\u00e8de", "public_transport": "platform", "shelter": "no"}}, {"type": "node", "id": 5613329023, "lat": 43.3428867, "lon": 3.2212144, "tags": {"bench": "no", "bin": "no", "bus": "yes", "highway": "bus_stop", "image": "https://storage13.openstreetcam.org/files/photo/2020/7/17/lth/2768670_0c03e_5f11612be44d1.jpg", "mapillary": "494939861696272", "name": "Puel", "public_transport": "platform", "shelter": "no", "survey:date": "2020-07-17"}}, {"type": "node", "id": 5613329029, "lat": 43.3438661, "lon": 3.2212676, "tags": {"bench": "yes", "bin": "no", "bus": "yes", "highway": "bus_stop", "name": "22 Ao\u00fbt 1944", "public_transport": "platform", "shelter": "no", "tactile_paving": "yes"}}, {"type": "node", "id": 5613329032, "lat": 43.3441554, "lon": 3.2301825, "tags": {"bench": "yes", "bin": "no", "bus": "yes", "highway": "bus_stop", "lit": "yes", "name": "Ar\u00e8nes Piscine", "public_transport": "platform", "shelter": "yes"}}, {"type": "node", "id": 5714973483, "lat": 43.3529551, "lon": 3.2330591, "tags": {"bench": "yes", "bus": "yes", "highway": "bus_stop", "lit": "no", "name": "L'Hort", "public_transport": "platform", "shelter": "no"}}, {"type": "node", "id": 5714976339, "lat": 43.3509375, "lon": 3.2296692, "tags": {"bench": "yes", "bin": "yes", "bus": "yes", "highway": "bus_stop", "lit": "yes", "name": "8 Mai 1945", "public_transport": "platform", "shelter": "yes", "tactile_paving": "yes"}}, {"type": "node", "id": 5714976351, "lat": 43.351024, "lon": 3.2296047, "tags": {"bench": "yes", "bin": "yes", "bus": "yes", "highway": "bus_stop", "lit": "yes", "name": "8 Mai 1945", "public_transport": "platform", "shelter": "yes", "tactile_paving": "yes"}}, {"type": "node", "id": 5714986982, "lat": 43.3544005, "lon": 3.2361085, "tags": {"bench": "yes", "bin": "no", "bus": "yes", "highway": "bus_stop", "lit": "yes", "name": "La Lorraine", "public_transport": "platform", "shelter": "no"}}, {"type": "node", "id": 5714989366, "lat": 43.3548308, "lon": 3.2373761, "tags": {"bench": "no", "bus": "yes", "highway": "bus_stop", "lit": "yes", "name": "La Lorraine", "public_transport": "platform", "shelter": "no"}}, {"type": "node", "id": 5714990297, "lat": 43.3539062, "lon": 3.2479989, "tags": {"bench": "no", "bus": "yes", "highway": "bus_stop", "name": "Badones", "public_transport": "platform", "shelter": "no"}}, {"type": "node", "id": 5714990448, "lat": 43.3552165, "lon": 3.2397149, "tags": {"bench": "no", "bin": "no", "bus": "yes", "highway": "bus_stop", "lit": "yes", "name": "Supermarch\u00e9", "public_transport": "platform", "shelter": "no"}}, {"type": "node", "id": 5714990740, "lat": 43.3521912, "lon": 3.2393416, "tags": {"bench": "no", "bus": "yes", "highway": "bus_stop", "name": "Kennedy", "public_transport": "platform", "shelter": "no"}}, {"type": "node", "id": 5714993985, "lat": 43.3528882, "lon": 3.2444143, "tags": {"bench": "no", "bus": "yes", "highway": "bus_stop", "name": "Grands Pins", "public_transport": "platform", "shelter": "no"}}, {"type": "node", "id": 5714994560, "lat": 43.3528153, "lon": 3.2439973, "tags": {"bench": "no", "bus": "yes", "highway": "bus_stop", "name": "Grands Pins", "public_transport": "platform", "shelter": "no"}}, {"type": "node", "id": 5714995665, "lat": 43.3513712, "lon": 3.2411654, "tags": {"bench": "no", "bus": "yes", "highway": "bus_stop", "name": "La Roseraie", "public_transport": "platform", "shelter": "no"}}, {"type": "node", "id": 5715002337, "lat": 43.3539199, "lon": 3.2471898, "tags": {"bench": "no", "bus": "yes", "highway": "bus_stop", "name": "Badones", "public_transport": "platform", "shelter": "no"}}, {"type": "node", "id": 5715003184, "lat": 43.3546713, "lon": 3.2519602, "tags": {"bench": "no", "bus": "yes", "highway": "bus_stop", "name": "La Crouzette", "public_transport": "platform", "shelter": "no"}}, {"type": "node", "id": 5715003812, "lat": 43.3546166, "lon": 3.2515049, "tags": {"bench": "yes", "bus": "yes", "highway": "bus_stop", "name": "La Crouzette", "public_transport": "platform", "shelter": "yes"}}, {"type": "node", "id": 5715705303, "lat": 43.3501675, "lon": 3.2567075, "tags": {"bench": "no", "bus": "yes", "highway": "bus_stop", "name": "Pomar\u00e8de", "public_transport": "platform", "shelter": "no"}}, {"type": "node", "id": 5715711717, "lat": 43.3507001, "lon": 3.2548817, "tags": {"bench": "no", "bus": "yes", "highway": "bus_stop", "lit": "yes", "name": "La Domitienne", "public_transport": "platform", "shelter": "no", "surface": "asphalt", "tactile_paving": "yes", "wheelchair": "yes"}}, {"type": "node", "id": 5715714400, "lat": 43.3477301, "lon": 3.2567352, "tags": {"bench": "yes", "bus": "yes", "highway": "bus_stop", "name": "Gramme", "public_transport": "platform", "shelter": "yes"}}, {"type": "node", "id": 5715715148, "lat": 43.3474641, "lon": 3.2549088, "tags": {"bench": "yes", "bus": "yes", "highway": "bus_stop", "name": "Ginieisse", "public_transport": "platform", "shelter": "no"}}, {"type": "node", "id": 5715721664, "lat": 43.3492951, "lon": 3.2249323, "tags": {"bench": "yes", "bin": "no", "bus": "yes", "highway": "bus_stop", "lit": "yes", "name": "Universit\u00e9", "public_transport": "platform", "shelter": "no", "tactile_paving": "yes"}}, {"type": "node", "id": 5715724447, "lat": 43.3498157, "lon": 3.2265366, "tags": {"bench": "no", "bin": "no", "bus": "yes", "highway": "bus_stop", "lit": "yes", "name": "Antonin Maffre", "public_transport": "platform", "shelter": "no", "tactile_paving": "no"}}, {"type": "node", "id": 5715724629, "lat": 43.3490173, "lon": 3.2244571, "tags": {"bench": "yes", "bus": "yes", "highway": "bus_stop", "name": "Universit\u00e9", "public_transport": "platform", "shelter": "yes"}}, {"type": "node", "id": 5715726456, "lat": 43.3476253, "lon": 3.2214486, "tags": {"bench": "yes", "bus": "yes", "highway": "bus_stop", "name": "M\u00e9diath\u00e8que - 14 Juillet", "public_transport": "platform", "shelter": "yes"}}, {"type": "node", "id": 5715727938, "lat": 43.3466633, "lon": 3.2195298, "tags": {"bench": "yes", "bus": "yes", "highway": "bus_stop", "name": "Trinit\u00e9", "public_transport": "platform", "shelter": "yes"}}, {"type": "node", "id": 5715730107, "lat": 43.342847, "lon": 3.217005, "tags": {"bench": "no", "bin": "no", "bus": "yes", "highway": "bus_stop", "lit": "yes", "name": "All\u00e9es Paul Riquet", "public_transport": "platform", "shelter": "no", "tactile_paving": "yes"}}, {"type": "node", "id": 5715733061, "lat": 43.3363289, "lon": 3.2238351, "tags": {"bench": "no", "bus": "yes", "highway": "bus_stop", "name": "Polygone", "public_transport": "platform", "shelter": "no"}}, {"type": "node", "id": 5715733062, "lat": 43.3362173, "lon": 3.224809, "tags": {"bench": "no", "bus": "yes", "highway": "bus_stop", "name": "Polygone", "public_transport": "platform", "shelter": "no"}}, {"type": "node", "id": 5715734997, "lat": 43.3406088, "lon": 3.2185912, "tags": {"bench": "no", "bin": "no", "bus": "yes", "highway": "bus_stop", "image": "https://storage13.openstreetcam.org/files/photo/2020/7/17/lth/2768398_1b655_5f113adadde09.jpg", "lit": "yes", "mapillary": "119407806858826", "name": "Musset", "public_transport": "platform", "shelter": "no", "survey:date": "2020-07-17", "tactile_paving": "yes"}}, {"type": "node", "id": 5715736159, "lat": 43.3384176, "lon": 3.2219565, "tags": {"bench": "yes", "bin": "no", "bus": "yes", "highway": "bus_stop", "lit": "yes", "name": "Les Po\u00e8tes", "public_transport": "platform", "shelter": "yes", "tactile_paving": "no"}}, {"type": "node", "id": 5715736220, "lat": 43.336273, "lon": 3.222017, "tags": {"bench": "no", "bin": "no", "bus": "yes", "highway": "bus_stop", "mapillary": "167783355142603", "name": "Pont du Midi", "public_transport": "platform", "shelter": "no", "survey:date": "2018-06-14", "tactile_paving": "no"}}, {"type": "node", "id": 5715737056, "lat": 43.3362962, "lon": 3.2193519, "tags": {"bench": "yes", "bin": "yes", "bus": "yes", "highway": "bus_stop", "name": "Gare SNCF Bas", "public_transport": "platform", "shelter": "yes", "tactile_paving": "yes"}}, {"type": "node", "id": 5756664846, "lat": 43.0898243, "lon": 2.9588106, "tags": {"bench": "no", "bin": "no", "bus": "yes", "highway": "bus_stop", "name": "Tramontane", "public_transport": "platform", "shelter": "no"}}, {"type": "node", "id": 5763985120, "lat": 43.336449, "lon": 3.221357, "tags": {"bench": "no", "bin": "no", "bus": "yes", "covered": "yes", "highway": "bus_stop", "image": "https://storage13.openstreetcam.org/files/photo/2020/7/17/lth/2768714_b7008_5f1175d8c2474.jpg", "mapillary": "491365565245795", "name": "Boulevard Verdun", "public_transport": "platform", "shelter": "no", "survey:date": "2020-07-17"}}, {"type": "node", "id": 5763985121, "lat": 43.3366261, "lon": 3.219257, "tags": {"bench": "yes", "bin": "yes", "bus": "yes", "highway": "bus_stop", "name": "Gare SNCF Haut", "public_transport": "platform", "shelter": "yes", "tactile_paving": "no"}}, {"type": "node", "id": 5764116864, "lat": 43.3424829, "lon": 3.213003, "tags": {"bench": "yes", "bin": "yes", "bus": "yes", "covered": "no", "departures_board": "timetable", "highway": "bus_stop", "lit": "yes", "name": "Mairie", "public_transport": "platform", "shelter": "yes", "tactile_paving": "no", "wheelchair": "yes"}}, {"type": "node", "id": 5795854076, "lat": 43.34552, "lon": 3.2176897}, {"type": "node", "id": 5795854100, "lat": 43.3459611, "lon": 3.2170426}, {"type": "node", "id": 5795854101, "lat": 43.3459337, "lon": 3.217055}, {"type": "node", "id": 5795854102, "lat": 43.3459137, "lon": 3.2170912}, {"type": "node", "id": 5795854103, "lat": 43.3456675, "lon": 3.2178522}, {"type": "node", "id": 5795854104, "lat": 43.3456858, "lon": 3.2178885}, {"type": "node", "id": 5795854105, "lat": 43.3453362, "lon": 3.2176019}, {"type": "node", "id": 5795854106, "lat": 43.3455384, "lon": 3.2177173}, {"type": "node", "id": 5795854107, "lat": 43.3455575, "lon": 3.2177185}, {"type": "node", "id": 5795854108, "lat": 43.3455739, "lon": 3.217706}, {"type": "node", "id": 5795854109, "lat": 43.3458347, "lon": 3.2169113}, {"type": "node", "id": 5795854110, "lat": 43.3458347, "lon": 3.2168851}, {"type": "node", "id": 5795854111, "lat": 43.3457954, "lon": 3.2168369}, {"type": "node", "id": 6514729907, "lat": 43.2433127, "lon": 3.2822953, "tags": {"bench": "yes", "bus": "yes", "highway": "bus_stop", "name": "164 Avenue du Casino", "public_transport": "platform", "shelter": "yes"}}, {"type": "node", "id": 6699994141, "lat": 43.316202, "lon": 3.279215, "tags": {"bench": "yes", "bus": "yes", "highway": "bus_stop", "name": "Centre", "public_transport": "platform", "shelter": "yes"}}, {"type": "node", "id": 6738910863, "lat": 43.2960105, "lon": 3.2571432, "tags": {"bench": "yes", "bus": "yes", "highway": "bus_stop", "name": "Jean Moulin", "public_transport": "platform", "shelter": "yes"}}, {"type": "node", "id": 6782641158, "lat": 43.0895942, "lon": 2.959168, "tags": {"bench": "no", "bin": "no", "bus": "yes", "highway": "bus_stop", "lit": "yes", "name": "Tramontane", "public_transport": "platform", "shelter": "no", "tactile_paving": "no"}}, {"type": "node", "id": 6802212050, "lat": 43.3472502, "lon": 3.2510729, "tags": {"bench": "no", "bus": "yes", "highway": "bus_stop", "name": "Nougaro", "public_transport": "platform", "shelter": "no"}}, {"type": "node", "id": 6802212051, "lat": 43.3479773, "lon": 3.2470853, "tags": {"bench": "yes", "bin": "no", "bus": "yes", "check_date:shelter": "2021-11-14", "highway": "bus_stop", "lit": "yes", "name": "Peyre Paulini\u00e8re", "public_transport": "platform", "shelter": "yes", "tactile_paving": "yes"}}, {"type": "node", "id": 6802212052, "lat": 43.347721, "lon": 3.2498649, "tags": {"bench": "no", "bus": "yes", "highway": "bus_stop", "name": "Voie Domitienne", "public_transport": "platform", "shelter": "no"}}, {"type": "node", "id": 6802212053, "lat": 43.3443451, "lon": 3.2302616, "tags": {"bench": "yes", "bin": "no", "bus": "yes", "highway": "bus_stop", "image": "https://storage13.openstreetcam.org/files/photo/2020/7/17/lth/2768494_446a2_5f11454cf264e.jpg", "lit": "yes", "mapillary": "318267366343838", "name": "Ar\u00e8nes Piscine", "public_transport": "platform", "shelter": "yes", "survey:date": "2020-07-17"}}, {"type": "node", "id": 6802212054, "lat": 43.3481003, "lon": 3.2465115, "tags": {"bench": "yes", "bus": "yes", "check_date:shelter": "2021-11-15", "highway": "bus_stop", "name": "Peyre Paulini\u00e8re", "public_transport": "platform", "shelter": "yes"}}, {"type": "node", "id": 6802212055, "lat": 43.3474027, "lon": 3.2510683, "tags": {"bench": "no", "bus": "yes", "highway": "bus_stop", "name": "Nougaro", "public_transport": "platform", "shelter": "no"}}, {"type": "node", "id": 6802475048, "lat": 43.3497593, "lon": 3.2265921, "tags": {"bench": "no", "bin": "no", "bus": "yes", "highway": "bus_stop", "lit": "yes", "name": "Antonin Maffre", "public_transport": "platform", "shelter": "no", "tactile_paving": "no"}}, {"type": "node", "id": 6804374043, "lat": 43.3497368, "lon": 3.2393051, "tags": {"bench": "no", "bus": "yes", "highway": "bus_stop", "name": "Albertini", "public_transport": "platform", "shelter": "no"}}, {"type": "node", "id": 6804374044, "lat": 43.3495171, "lon": 3.2394563, "tags": {"bench": "no", "bus": "yes", "highway": "bus_stop", "name": "Albertini", "public_transport": "platform", "shelter": "no"}}, {"type": "node", "id": 6804374045, "lat": 43.3554151, "lon": 3.2399969, "tags": {"bench": "yes", "bin": "no", "bus": "yes", "check_date:shelter": "2021-11-13", "highway": "bus_stop", "lit": "yes", "name": "Supermarch\u00e9", "public_transport": "platform", "shelter": "yes"}}, {"type": "node", "id": 6804374046, "lat": 43.3513965, "lon": 3.2415072, "tags": {"bench": "no", "bus": "yes", "highway": "bus_stop", "name": "La Roseraie", "public_transport": "platform", "shelter": "no"}}, {"type": "node", "id": 6805671096, "lat": 43.1859788, "lon": 3.0001943, "tags": {"bench": "yes", "bin": "yes", "bus": "yes", "highway": "bus_stop", "lit": "yes", "name": "M\u00e9diath\u00e8que", "public_transport": "platform", "shelter": "yes", "tactile_paving": "yes"}}, {"type": "node", "id": 6816054081, "lat": 43.3225301, "lon": 3.224654, "tags": {"bench": "no", "bus": "yes", "highway": "bus_stop", "name": "Petite Course", "public_transport": "platform", "shelter": "no"}}, {"type": "node", "id": 6816054082, "lat": 43.322736, "lon": 3.2242349, "tags": {"bench": "no", "bus": "yes", "highway": "bus_stop", "name": "Petite Course", "public_transport": "platform", "shelter": "no"}}, {"type": "node", "id": 6902533286, "lat": 43.182677, "lon": 3.019792, "tags": {"bench": "yes", "bin": "no", "bus": "yes", "highway": "bus_stop", "name": "Parc des Sports", "public_transport": "platform", "shelter": "yes"}}, {"type": "node", "id": 6943128347, "lat": 43.3202806, "lon": 3.2269444, "tags": {"bench": "no", "bus": "yes", "highway": "bus_stop", "name": "Beaus\u00e9jour", "public_transport": "platform", "shelter": "no"}}, {"type": "node", "id": 6963986153, "lat": 43.4171408, "lon": 3.2334533, "tags": {"bench": "yes", "bus": "yes", "highway": "bus_stop", "name": "Coop\u00e9rative", "public_transport": "platform", "shelter": "yes"}}, {"type": "node", "id": 6963986156, "lat": 43.4172663, "lon": 3.233553, "tags": {"bench": "no", "bus": "yes", "highway": "bus_stop", "name": "Coop\u00e9rative", "public_transport": "platform", "shelter": "no"}}, {"type": "node", "id": 6964467228, "lat": 43.3704897, "lon": 3.2188644, "tags": {"bench": "no", "bus": "yes", "highway": "bus_stop", "name": "Cugnot", "public_transport": "platform", "shelter": "no"}}, {"type": "node", "id": 6964467230, "lat": 43.3704451, "lon": 3.2190493, "tags": {"bench": "no", "bus": "yes", "highway": "bus_stop", "name": "Cugnot", "public_transport": "platform", "shelter": "no"}}, {"type": "node", "id": 6964490822, "lat": 43.3795242, "lon": 3.1743601, "tags": {"bench": "no", "bus": "yes", "highway": "bus_stop", "name": "Place de Coubertin", "public_transport": "platform", "shelter": "no"}}, {"type": "node", "id": 6964490828, "lat": 43.3818438, "lon": 3.1728088, "tags": {"bench": "yes", "bus": "yes", "highway": "bus_stop", "name": "Stade", "public_transport": "platform", "shelter": "yes"}}, {"type": "node", "id": 6964490829, "lat": 43.3817163, "lon": 3.1727275, "tags": {"bench": "no", "bus": "yes", "highway": "bus_stop", "name": "Stade", "public_transport": "platform", "shelter": "no"}}, {"type": "node", "id": 7058224664, "lat": 43.3901123, "lon": 3.1721304, "tags": {"bench": "no", "bus": "yes", "highway": "bus_stop", "name": "Bosc", "public_transport": "platform", "shelter": "no"}}, {"type": "node", "id": 7101370108, "lat": 43.267091, "lon": 2.995067, "tags": {"bench": "yes", "bin": "no", "bus": "yes", "highway": "bus_stop", "name": "La Saign\u00e9e", "public_transport": "platform", "shelter": "yes"}}, {"type": "node", "id": 7177567160, "lat": 43.409766, "lon": 3.243362, "tags": {"bench": "yes", "bus": "yes", "highway": "bus_stop", "name": "Font Maurel", "public_transport": "platform", "shelter": "yes"}}, {"type": "node", "id": 7218253409, "lat": 43.4553235, "lon": 3.2330415, "tags": {"bench": "yes", "bus": "yes", "highway": "bus_stop", "name": "Route de Lieuran", "network": "H\u00e9rault Transport", "network:wikidata": "Q3145008", "public_transport": "platform", "shelter": "yes"}}, {"type": "node", "id": 7223595605, "lat": 43.3026825, "lon": 3.2436354, "tags": {"bench": "no", "bus": "yes", "highway": "bus_stop", "name": "Porte de Sauvian", "public_transport": "platform", "shelter": "no"}}, {"type": "node", "id": 7223595606, "lat": 43.3020869, "lon": 3.2450446, "tags": {"bench": "no", "bus": "yes", "highway": "bus_stop", "name": "Porte de Sauvian", "public_transport": "platform", "shelter": "no"}}, {"type": "node", "id": 7223640290, "lat": 43.3270953, "lon": 3.2489873, "tags": {"bench": "no", "bus": "yes", "highway": "bus_stop", "name": "Capiscol Ouest", "public_transport": "platform", "shelter": "no"}}, {"type": "node", "id": 7223640291, "lat": 43.3270508, "lon": 3.2490814, "tags": {"bench": "no", "bus": "yes", "highway": "bus_stop", "name": "Capiscol Ouest", "public_transport": "platform", "shelter": "no"}}, {"type": "node", "id": 7223656705, "lat": 43.2006137, "lon": 2.7705653, "tags": {"bus": "yes", "highway": "bus_stop", "public_transport": "platform"}}, {"type": "node", "id": 7223656706, "lat": 43.2006805, "lon": 2.7706136, "tags": {"bus": "yes", "highway": "bus_stop", "public_transport": "platform"}}, {"type": "node", "id": 7227877546, "lat": 43.4164441, "lon": 3.2283671, "tags": {"bench": "yes", "bus": "yes", "highway": "bus_stop", "name": "CD909", "public_transport": "platform", "shelter": "yes"}}, {"type": "node", "id": 7308994372, "lat": 43.3656624, "lon": 3.2461971, "tags": {"bench": "no", "bus": "yes", "highway": "bus_stop", "name": "Val d'Orb", "public_transport": "platform", "shelter": "no"}}, {"type": "node", "id": 7308994373, "lat": 43.3657156, "lon": 3.2460315, "tags": {"bench": "yes", "bus": "yes", "highway": "bus_stop", "name": "Val d'Orb", "public_transport": "platform", "shelter": "yes"}}, {"type": "node", "id": 7322099962, "lat": 43.3349867, "lon": 3.2528081, "tags": {"bench": "no", "bus": "yes", "highway": "bus_stop", "name": "Mandela", "public_transport": "platform", "shelter": "no"}}, {"type": "node", "id": 7390953244, "lat": 43.3217356, "lon": 3.2881719, "tags": {"bench": "yes", "bin": "no", "bus": "yes", "highway": "bus_stop", "name": "P\u00f4le M\u00e9diterran\u00e9e", "public_transport": "platform", "shelter": "yes"}}, {"type": "node", "id": 7391129238, "lat": 43.3413184, "lon": 3.183662, "tags": {"bench": "yes", "bus": "yes", "highway": "bus_stop", "name": "Ancolie", "public_transport": "platform", "shelter": "yes"}}, {"type": "node", "id": 7391203902, "lat": 43.340955, "lon": 3.1865866, "tags": {"bench": "yes", "bus": "yes", "highway": "bus_stop", "name": "Les R\u00e9form\u00e9s", "public_transport": "platform", "shelter": "yes"}}, {"type": "node", "id": 7556267635, "lat": 43.1854692, "lon": 3.0212346, "tags": {"bench": "no", "bin": "no", "bus": "yes", "highway": "bus_stop", "name": "\u00c9cole Pasteur", "public_transport": "platform", "shelter": "no"}}, {"type": "node", "id": 7556267636, "lat": 43.185221, "lon": 3.02149, "tags": {"bench": "yes", "bin": "no", "bus": "yes", "highway": "bus_stop", "name": "\u00c9cole Pasteur", "public_transport": "platform", "shelter": "no"}}, {"type": "node", "id": 7556318732, "lat": 43.1839902, "lon": 3.0249344, "tags": {"bench": "no", "bin": "no", "bus": "yes", "highway": "bus_stop", "name": "C\u00f4te des Roses", "public_transport": "platform", "shelter": "no"}}, {"type": "node", "id": 7556318733, "lat": 43.1839587, "lon": 3.0255937, "tags": {"bench": "no", "bin": "no", "bus": "yes", "highway": "bus_stop", "name": "C\u00f4te des Roses", "public_transport": "platform", "shelter": "no"}}, {"type": "node", "id": 7556318734, "lat": 43.1801337, "lon": 3.0300026, "tags": {"bench": "no", "bin": "no", "bus": "yes", "highway": "bus_stop", "name": "Creissel", "public_transport": "platform", "shelter": "no"}}, {"type": "node", "id": 7556318735, "lat": 43.1820723, "lon": 3.0301156, "tags": {"bench": "no", "bin": "yes", "bus": "yes", "highway": "bus_stop", "lit": "yes", "name": "Colonnes", "public_transport": "platform", "shelter": "no", "tactile_paving": "no"}}, {"type": "node", "id": 7556349327, "lat": 43.1879021, "lon": 3.0174099, "tags": {"bench": "no", "bin": "no", "bus": "yes", "highway": "bus_stop", "lit": "yes", "name": "Boulevard 1830", "public_transport": "platform", "shelter": "no"}}, {"type": "node", "id": 7556349328, "lat": 43.1878779, "lon": 3.0175623, "tags": {"bench": "no", "bin": "no", "bus": "yes", "highway": "bus_stop", "lit": "yes", "name": "Boulevard 1830", "public_transport": "platform", "shelter": "no"}}, {"type": "node", "id": 7556349329, "lat": 43.1861297, "lon": 3.0189712, "tags": {"bench": "no", "bin": "no", "bus": "yes", "highway": "bus_stop", "lit": "yes", "name": "Jean Camp", "public_transport": "platform", "shelter": "no"}}, {"type": "node", "id": 7559464409, "lat": 43.183146, "lon": 2.998522, "tags": {"bench": "yes", "bin": "yes", "bus": "yes", "highway": "bus_stop", "lit": "yes", "name": "Voltaire", "public_transport": "platform", "shelter": "yes", "tactile_paving": "no"}}, {"type": "node", "id": 7559464411, "lat": 43.18009, "lon": 3.002707, "tags": {"bench": "yes", "bin": "yes", "bus": "yes", "highway": "bus_stop", "lit": "yes", "name": "Lacroix", "public_transport": "platform", "shelter": "yes", "tactile_paving": "yes"}}, {"type": "node", "id": 7559464412, "lat": 43.1857, "lon": 3.009385, "tags": {"bench": "no", "bin": "no", "bus": "yes", "highway": "bus_stop", "lit": "yes", "name": "Palais de Justice", "public_transport": "platform", "shelter": "no", "tactile_paving": "yes"}}, {"type": "node", "id": 7559464413, "lat": 43.190802, "lon": 3.009076, "tags": {"bench": "no", "bin": "no", "bus": "yes", "highway": "bus_stop", "lit": "yes", "name": "La Lombarde", "public_transport": "platform", "shelter": "no", "tactile_paving": "no"}}, {"type": "node", "id": 7559464414, "lat": 43.192883, "lon": 3.011574, "tags": {"bench": "no", "bin": "no", "bus": "yes", "highway": "bus_stop", "lit": "yes", "name": "Bruneli\u00e8re", "public_transport": "platform", "shelter": "no", "tactile_paving": "no"}}, {"type": "node", "id": 7559464415, "lat": 43.1929915, "lon": 3.0117651, "tags": {"bench": "no", "bin": "no", "bus": "yes", "highway": "bus_stop", "lit": "yes", "name": "Bruneli\u00e8re", "public_transport": "platform", "shelter": "no", "tactile_paving": "no"}}, {"type": "node", "id": 7559464416, "lat": 43.192355, "lon": 3.014073, "tags": {"bench": "no", "bin": "no", "bus": "yes", "highway": "bus_stop", "lit": "yes", "name": "Boulevard 1848", "public_transport": "platform", "shelter": "no", "tactile_paving": "no"}}, {"type": "node", "id": 7559464417, "lat": 43.1922783, "lon": 3.0138074, "tags": {"bench": "yes", "bin": "no", "bus": "yes", "highway": "bus_stop", "lit": "yes", "name": "Boulevard 1848", "public_transport": "platform", "shelter": "no", "tactile_paving": "no"}}, {"type": "node", "id": 7559464418, "lat": 43.1935193, "lon": 3.0146618, "tags": {"bench": "yes", "bin": "no", "bus": "yes", "highway": "bus_stop", "lit": "yes", "name": "Provence", "public_transport": "platform", "shelter": "no", "tactile_paving": "no"}}, {"type": "node", "id": 7559464419, "lat": 43.1952133, "lon": 3.0148349, "tags": {"bench": "no", "bin": "no", "bus": "yes", "highway": "bus_stop", "lit": "yes", "name": "Divi\u00e8s", "public_transport": "platform", "shelter": "no", "tactile_paving": "no"}}, {"type": "node", "id": 7559464420, "lat": 43.1947709, "lon": 3.0165797, "tags": {"bench": "no", "bin": "no", "bus": "yes", "highway": "bus_stop", "lit": "yes", "name": "Fleming", "public_transport": "platform", "shelter": "no"}}, {"type": "node", "id": 7559464421, "lat": 43.1949792, "lon": 3.0164145, "tags": {"bench": "yes", "bin": "no", "bus": "yes", "highway": "bus_stop", "lit": "yes", "name": "Fleming", "public_transport": "platform", "shelter": "no"}}, {"type": "node", "id": 7625837616, "lat": 43.1206778, "lon": 2.9543882, "tags": {"bench": "yes", "bin": "no", "bus": "yes", "highway": "bus_stop", "lit": "yes", "name": "Prat de Cest", "public_transport": "platform", "shelter": "yes", "tactile_paving": "yes"}}, {"type": "node", "id": 7625837617, "lat": 43.1206191, "lon": 2.9539709, "tags": {"bench": "yes", "bin": "no", "bus": "yes", "highway": "bus_stop", "lit": "yes", "name": "Prat de Cest", "public_transport": "platform", "shelter": "yes", "tactile_paving": "yes"}}, {"type": "node", "id": 7625874001, "lat": 43.211037, "lon": 2.87252, "tags": {"bench": "no", "bin": "no", "bus": "yes", "highway": "bus_stop", "lit": "no", "name": "Laparre", "public_transport": "platform", "shelter": "no", "tactile_paving": "no"}}, {"type": "node", "id": 7625940165, "lat": 43.3453418, "lon": 3.2175874}, {"type": "node", "id": 7627296085, "lat": 43.186852, "lon": 3.022922, "tags": {"bench": "no", "bin": "no", "bus": "yes", "highway": "bus_stop", "name": "Horte Neuve", "public_transport": "platform", "shelter": "no", "source:position": "Mapillary 2020-06-06"}}, {"type": "node", "id": 7632268592, "lat": 43.2250803, "lon": 2.9223548, "tags": {"bench": "yes", "bin": "yes", "bus": "yes", "highway": "bus_stop", "name": "Mairie", "public_transport": "platform", "shelter": "yes"}}, {"type": "node", "id": 7632268593, "lat": 43.225282, "lon": 2.9225, "tags": {"bench": "no", "bin": "no", "bus": "yes", "highway": "bus_stop", "name": "Mairie", "public_transport": "platform", "shelter": "no"}}, {"type": "node", "id": 7655976278, "lat": 43.183782, "lon": 2.971217, "tags": {"bench": "no", "bin": "no", "bus": "yes", "highway": "bus_stop", "name": "Pic de Nore", "public_transport": "platform", "shelter": "no"}}, {"type": "node", "id": 7655976280, "lat": 43.182892, "lon": 2.972054, "tags": {"bench": "yes", "bin": "no", "bus": "yes", "highway": "bus_stop", "name": "Cougain", "public_transport": "platform", "shelter": "no"}}, {"type": "node", "id": 7655976281, "lat": 43.1827963, "lon": 2.9719083, "tags": {"bench": "no", "bin": "no", "bus": "yes", "highway": "bus_stop", "name": "Cougain", "public_transport": "platform", "shelter": "no"}}, {"type": "node", "id": 7655976282, "lat": 43.183242, "lon": 2.974189, "tags": {"bench": "no", "bin": "no", "bus": "yes", "highway": "bus_stop", "name": "Alaric", "public_transport": "platform", "shelter": "no"}}, {"type": "node", "id": 7655976283, "lat": 43.1829528, "lon": 2.9741303, "tags": {"bench": "no", "bin": "no", "bus": "yes", "highway": "bus_stop", "name": "Alaric", "public_transport": "platform", "shelter": "no"}}, {"type": "node", "id": 7655983385, "lat": 43.182518, "lon": 2.975409, "tags": {"bench": "no", "bin": "no", "bus": "yes", "highway": "bus_stop", "name": "Argent Double", "public_transport": "platform", "shelter": "no"}}, {"type": "node", "id": 7655983386, "lat": 43.1826699, "lon": 2.9750585, "tags": {"bench": "no", "bin": "no", "bus": "yes", "highway": "bus_stop", "name": "Argent Double", "public_transport": "platform", "shelter": "no"}}, {"type": "node", "id": 7655983407, "lat": 43.183242, "lon": 2.979446, "tags": {"bench": "no", "bin": "no", "bus": "yes", "highway": "bus_stop", "name": "Pompidor", "public_transport": "platform", "shelter": "no"}}, {"type": "node", "id": 7655983408, "lat": 43.183295, "lon": 2.979135, "tags": {"bench": "yes", "bin": "no", "bus": "yes", "highway": "bus_stop", "name": "Pompidor", "public_transport": "platform", "shelter": "no"}}, {"type": "node", "id": 7655983413, "lat": 43.184742, "lon": 2.979932, "tags": {"bench": "yes", "bin": "no", "bus": "yes", "highway": "bus_stop", "name": "Na\u00efade", "public_transport": "platform", "shelter": "no"}}, {"type": "node", "id": 7655983414, "lat": 43.1851972, "lon": 2.9809831, "tags": {"bench": "yes", "bin": "no", "bus": "yes", "highway": "bus_stop", "name": "Na\u00efade", "public_transport": "platform", "shelter": "no"}}, {"type": "node", "id": 7655983417, "lat": 43.1855304, "lon": 2.9844875, "tags": {"bench": "yes", "bin": "no", "bus": "yes", "highway": "bus_stop", "name": "Saint-Salvayre", "public_transport": "platform", "shelter": "no"}}, {"type": "node", "id": 7655983418, "lat": 43.185569, "lon": 2.984255, "tags": {"bench": "no", "bin": "no", "bus": "yes", "highway": "bus_stop", "name": "Saint-Salvayre", "public_transport": "platform", "shelter": "no"}}, {"type": "node", "id": 7655983419, "lat": 43.185589, "lon": 2.987485, "tags": {"bench": "no", "bin": "no", "bus": "yes", "highway": "bus_stop", "name": "Paul Bert", "public_transport": "platform", "shelter": "no"}}, {"type": "node", "id": 7655983420, "lat": 43.185491, "lon": 2.987935, "tags": {"bench": "no", "bin": "no", "bus": "yes", "highway": "bus_stop", "name": "Paul Bert", "public_transport": "platform", "shelter": "no"}}, {"type": "node", "id": 7655983421, "lat": 43.185718, "lon": 2.991315, "tags": {"bench": "yes", "bin": "yes", "bus": "yes", "highway": "bus_stop", "lit": "yes", "name": "Stade", "public_transport": "platform", "shelter": "no"}}, {"type": "node", "id": 7655983422, "lat": 43.185718, "lon": 2.990102, "tags": {"bench": "no", "bin": "no", "bus": "yes", "highway": "bus_stop", "lit": "yes", "name": "Stade", "public_transport": "platform", "shelter": "no"}}, {"type": "node", "id": 7655983424, "lat": 43.1860036, "lon": 2.9930105, "tags": {"bench": "yes", "bin": "no", "bus": "yes", "highway": "bus_stop", "lit": "yes", "name": "Lamartine", "public_transport": "platform", "shelter": "no"}}, {"type": "node", "id": 7655983426, "lat": 43.1841733, "lon": 2.9955534, "tags": {"bench": "no", "bin": "yes", "bus": "yes", "highway": "bus_stop", "lit": "yes", "name": "Charles Trenet", "public_transport": "platform", "shelter": "no", "tactile_paving": "no"}}, {"type": "node", "id": 7657215955, "lat": 43.185151, "lon": 2.973738, "tags": {"bench": "no", "bin": "no", "bus": "yes", "highway": "bus_stop", "name": "Saint-Jean Saint-Pierre", "public_transport": "platform", "shelter": "no"}}, {"type": "node", "id": 7660612807, "lat": 43.1704208, "lon": 2.9852651, "tags": {"bench": "no", "bin": "no", "bus": "yes", "highway": "bus_stop", "name": "Chambre des M\u00e9tiers", "public_transport": "platform", "shelter": "no"}}, {"type": "node", "id": 7660612808, "lat": 43.164393, "lon": 2.97615, "tags": {"bench": "no", "bin": "no", "bus": "yes", "highway": "bus_stop", "name": "Chemin de Ronde", "public_transport": "platform", "shelter": "no"}}, {"type": "node", "id": 7660612809, "lat": 43.1639982, "lon": 2.9715822, "tags": {"bench": "no", "bin": "no", "bus": "yes", "highway": "bus_stop", "name": "Les Hauts de Narbonne", "public_transport": "platform", "shelter": "no"}}, {"type": "node", "id": 7660612810, "lat": 43.1618099, "lon": 2.980986, "tags": {"bench": "yes", "bin": "yes", "bus": "yes", "highway": "bus_stop", "name": "Centre Commercial La Coupe", "public_transport": "platform", "shelter": "yes"}}, {"type": "node", "id": 7660612812, "lat": 43.160668, "lon": 2.979223, "tags": {"bench": "no", "bin": "no", "bus": "yes", "highway": "bus_stop", "name": "Lavoisier", "public_transport": "platform", "shelter": "no"}}, {"type": "node", "id": 7660612813, "lat": 43.160278, "lon": 2.979183, "tags": {"bench": "yes", "bin": "no", "bus": "yes", "highway": "bus_stop", "name": "Lavoisier", "public_transport": "platform", "shelter": "no"}}, {"type": "node", "id": 7660612815, "lat": 43.160192, "lon": 2.969267, "tags": {"bench": "no", "bin": "no", "bus": "yes", "highway": "bus_stop", "lit": "yes", "name": "Pech Loubat", "public_transport": "platform", "shelter": "no", "tactile_paving": "yes"}}, {"type": "node", "id": 7660612816, "lat": 43.160106, "lon": 2.969637, "tags": {"bench": "yes", "bin": "yes", "bus": "yes", "highway": "bus_stop", "lit": "yes", "name": "Pech Loubat", "public_transport": "platform", "shelter": "yes", "tactile_paving": "yes"}}, {"type": "node", "id": 7660612818, "lat": 43.162474, "lon": 2.967274, "tags": {"bench": "no", "bin": "no", "bus": "yes", "highway": "bus_stop", "name": "Capitelles", "public_transport": "platform", "shelter": "no"}}, {"type": "node", "id": 7660612819, "lat": 43.162626, "lon": 2.967317, "tags": {"bench": "yes", "bin": "yes", "bus": "yes", "highway": "bus_stop", "name": "Capitelles", "public_transport": "platform", "shelter": "yes"}}, {"type": "node", "id": 7660612820, "lat": 43.1647974, "lon": 2.9665034, "tags": {"bench": "no", "bin": "no", "bus": "yes", "highway": "bus_stop", "name": "Morane", "public_transport": "platform", "shelter": "no"}}, {"type": "node", "id": 7660612821, "lat": 43.16496, "lon": 2.96673, "tags": {"bench": "no", "bin": "no", "bus": "yes", "highway": "bus_stop", "name": "Morane", "public_transport": "platform", "shelter": "no"}}, {"type": "node", "id": 7660612822, "lat": 43.164326, "lon": 2.969981, "tags": {"bench": "no", "bin": "no", "bus": "yes", "highway": "bus_stop", "name": "La Corniche", "public_transport": "platform", "shelter": "no"}}, {"type": "node", "id": 7660612823, "lat": 43.164722, "lon": 2.969567, "tags": {"bench": "no", "bin": "no", "bus": "yes", "highway": "bus_stop", "name": "La Corniche", "public_transport": "platform", "shelter": "no"}}, {"type": "node", "id": 7660612824, "lat": 43.164148, "lon": 2.972797, "tags": {"bench": "no", "bin": "no", "bus": "yes", "highway": "bus_stop", "name": "Les Hauts de Narbonne", "public_transport": "platform", "shelter": "no"}}, {"type": "node", "id": 7660612825, "lat": 43.164602, "lon": 2.975417, "tags": {"bench": "no", "bin": "no", "bus": "yes", "highway": "bus_stop", "name": "Chemin de Ronde", "public_transport": "platform", "shelter": "no"}}, {"type": "node", "id": 7660612826, "lat": 43.166574, "lon": 2.977762, "tags": {"bench": "no", "bin": "no", "bus": "yes", "highway": "bus_stop", "name": "La Bergerie", "public_transport": "platform", "shelter": "no"}}, {"type": "node", "id": 7660612827, "lat": 43.166629, "lon": 2.977598, "tags": {"bench": "no", "bin": "no", "bus": "yes", "highway": "bus_stop", "name": "La Bergerie", "public_transport": "platform", "shelter": "no"}}, {"type": "node", "id": 7660612828, "lat": 43.1668469, "lon": 2.9796939, "tags": {"bench": "no", "bin": "no", "bus": "yes", "highway": "bus_stop", "name": "Beaumont", "public_transport": "platform", "shelter": "no"}}, {"type": "node", "id": 7660612829, "lat": 43.1668334, "lon": 2.9808676, "tags": {"bench": "yes", "bin": "no", "bus": "yes", "highway": "bus_stop", "name": "Beaumont", "public_transport": "platform", "shelter": "yes"}}, {"type": "node", "id": 7660612831, "lat": 43.170479, "lon": 2.984746, "tags": {"bench": "yes", "bin": "no", "bus": "yes", "highway": "bus_stop", "name": "Chambre des M\u00e9tiers", "public_transport": "platform", "shelter": "yes"}}, {"type": "node", "id": 7660612832, "lat": 43.175009, "lon": 2.992812, "tags": {"bench": "no", "bin": "no", "bus": "yes", "highway": "bus_stop", "name": "Espace de Libert\u00e9", "public_transport": "platform", "shelter": "no"}}, {"type": "node", "id": 7660612834, "lat": 43.179588, "lon": 2.996111, "tags": {"bench": "no", "bin": "no", "bus": "yes", "highway": "bus_stop", "lit": "yes", "name": "Pastouret", "public_transport": "platform", "shelter": "no", "tactile_paving": "no"}}, {"type": "node", "id": 7660612835, "lat": 43.179262, "lon": 2.995724, "tags": {"bench": "yes", "bin": "no", "bus": "yes", "highway": "bus_stop", "lit": "yes", "name": "Pastouret", "public_transport": "platform", "shelter": "yes", "tactile_paving": "no"}}, {"type": "node", "id": 7660612836, "lat": 43.180738, "lon": 2.996883, "tags": {"bench": "no", "bin": "no", "bus": "yes", "highway": "bus_stop", "lit": "yes", "name": "Cimeti\u00e8re de Bourg", "public_transport": "platform", "shelter": "no", "tactile_paving": "no"}}, {"type": "node", "id": 7660612837, "lat": 43.183259, "lon": 3.014714, "tags": {"bench": "yes", "bin": "no", "bus": "yes", "highway": "bus_stop", "lit": "yes", "name": "Coubertin", "public_transport": "platform", "shelter": "no"}}, {"type": "node", "id": 7660612838, "lat": 43.1835395, "lon": 3.014591, "tags": {"bench": "yes", "bin": "no", "bus": "yes", "highway": "bus_stop", "lit": "yes", "name": "Coubertin", "public_transport": "platform", "shelter": "no"}}, {"type": "node", "id": 7660612842, "lat": 43.18303, "lon": 3.022257, "tags": {"bench": "no", "bin": "no", "bus": "yes", "highway": "bus_stop", "name": "P\u00f4le Universitaire", "public_transport": "platform", "shelter": "no"}}, {"type": "node", "id": 7660612843, "lat": 43.1877732, "lon": 3.0270837, "tags": {"bench": "yes", "bin": "no", "bus": "yes", "highway": "bus_stop", "name": "Coquelicots", "public_transport": "platform", "shelter": "no"}}, {"type": "node", "id": 7660612844, "lat": 43.1877995, "lon": 3.0271757, "tags": {"bench": "no", "bin": "no", "bus": "yes", "highway": "bus_stop", "name": "Coquelicots", "public_transport": "platform", "shelter": "no"}}, {"type": "node", "id": 7660612845, "lat": 43.187216, "lon": 3.030459, "tags": {"bench": "no", "bin": "no", "bus": "yes", "highway": "bus_stop", "name": "Lys", "public_transport": "platform", "shelter": "no"}}, {"type": "node", "id": 7660612846, "lat": 43.187343, "lon": 3.029829, "tags": {"bench": "no", "bin": "no", "bus": "yes", "highway": "bus_stop", "name": "Lys", "public_transport": "platform", "shelter": "no"}}, {"type": "node", "id": 7660612847, "lat": 43.1855221, "lon": 3.0319557, "tags": {"bench": "no", "bin": "no", "bus": "yes", "highway": "bus_stop", "name": "Gamelin", "public_transport": "platform", "shelter": "no"}}, {"type": "node", "id": 7660612848, "lat": 43.185768, "lon": 3.03216, "tags": {"bench": "no", "bin": "no", "bus": "yes", "covered": "no", "highway": "bus_stop", "name": "Gamelin", "public_transport": "platform", "shelter": "no"}}, {"type": "node", "id": 7660612849, "lat": 43.1841091, "lon": 3.0312315, "tags": {"bench": "no", "bin": "no", "bus": "yes", "highway": "bus_stop", "lit": "yes", "name": "Rubens", "public_transport": "platform", "shelter": "no", "tactile_paving": "no"}}, {"type": "node", "id": 7660612850, "lat": 43.183674, "lon": 3.030856, "tags": {"bench": "no", "bin": "no", "bus": "yes", "highway": "bus_stop", "lit": "yes", "name": "Rubens", "public_transport": "platform", "shelter": "no", "tactile_paving": "no"}}, {"type": "node", "id": 7664107988, "lat": 43.168875, "lon": 2.98852, "tags": {"bench": "no", "bin": "no", "bus": "yes", "highway": "bus_stop", "name": "Z.I. Plaisance", "public_transport": "platform", "shelter": "no"}}, {"type": "node", "id": 7664107990, "lat": 43.1870614, "lon": 2.9978058, "tags": {"bench": "no", "bin": "no", "bus": "yes", "highway": "bus_stop", "lit": "yes", "name": "Commerces", "public_transport": "platform", "shelter": "no", "tactile_paving": "no"}}, {"type": "node", "id": 7664107991, "lat": 43.1880519, "lon": 2.9968994, "tags": {"bench": "yes", "bin": "yes", "bus": "yes", "highway": "bus_stop", "lit": "yes", "name": "Quai d'Alsace", "public_transport": "platform", "shelter": "yes", "tactile_paving": "no"}}, {"type": "node", "id": 7664107992, "lat": 43.1891536, "lon": 2.997201, "tags": {"bench": "yes", "bin": "no", "bus": "yes", "highway": "bus_stop", "lit": "yes", "name": "Passerelle du Gua", "public_transport": "platform", "shelter": "no", "tactile_paving": "no"}}, {"type": "node", "id": 7664107993, "lat": 43.189651, "lon": 2.999042, "tags": {"bench": "no", "bin": "no", "bus": "yes", "highway": "bus_stop", "lit": "yes", "name": "Rue de la Paix", "public_transport": "platform", "shelter": "no", "tactile_paving": "no"}}, {"type": "node", "id": 7664107994, "lat": 43.1876821, "lon": 3.0001037, "tags": {"bench": "no", "bin": "no", "bus": "yes", "highway": "bus_stop", "lit": "yes", "name": "Route de Cuxac", "public_transport": "platform", "shelter": "no", "tactile_paving": "yes"}}, {"type": "node", "id": 7664107995, "lat": 43.166993, "lon": 2.989933, "tags": {"bench": "no", "bin": "no", "bus": "yes", "highway": "bus_stop", "name": "Forum Sud", "public_transport": "platform", "shelter": "no"}}, {"type": "node", "id": 7664107996, "lat": 43.166919, "lon": 2.990102, "tags": {"bench": "no", "bin": "no", "bus": "yes", "highway": "bus_stop", "name": "Forum Sud", "public_transport": "platform", "shelter": "no"}}, {"type": "node", "id": 7664107998, "lat": 43.167805, "lon": 2.991822, "tags": {"bench": "no", "bin": "no", "bus": "yes", "highway": "bus_stop", "name": "Barbaira", "public_transport": "platform", "shelter": "no"}}, {"type": "node", "id": 7664108006, "lat": 43.1659545, "lon": 2.9930872, "tags": {"bench": "no", "bin": "no", "bus": "yes", "highway": "bus_stop", "name": "Saint-Germain", "public_transport": "platform", "shelter": "no"}}, {"type": "node", "id": 7664108009, "lat": 43.1637649, "lon": 2.988606, "tags": {"bench": "yes", "bin": "no", "bus": "yes", "highway": "bus_stop", "name": "Cin\u00e9mas", "public_transport": "platform", "shelter": "no"}}, {"type": "node", "id": 7664108010, "lat": 43.1634707, "lon": 2.9888112, "tags": {"bench": "yes", "bin": "no", "bus": "yes", "highway": "bus_stop", "name": "Cin\u00e9mas", "public_transport": "platform", "shelter": "no"}}, {"type": "node", "id": 7664108015, "lat": 43.161439, "lon": 2.9890065, "tags": {"bench": "no", "bin": "no", "bus": "yes", "highway": "bus_stop", "name": "March\u00e9 de Gros", "public_transport": "platform", "shelter": "no"}}, {"type": "node", "id": 7664108017, "lat": 43.1588498, "lon": 2.9921444, "tags": {"bench": "yes", "bin": "no", "bus": "yes", "highway": "bus_stop", "name": "Quatourze", "public_transport": "platform", "shelter": "yes"}}, {"type": "node", "id": 7664108021, "lat": 43.1604299, "lon": 2.9873169, "tags": {"bench": "yes", "bin": "yes", "bus": "yes", "highway": "bus_stop", "name": "Croix Sud", "public_transport": "platform", "shelter": "yes"}}, {"type": "node", "id": 7664108022, "lat": 43.160656, "lon": 2.987176, "tags": {"bench": "no", "bin": "no", "bus": "yes", "highway": "bus_stop", "name": "Croix Sud", "public_transport": "platform", "shelter": "no"}}, {"type": "node", "id": 7664108024, "lat": 43.158369, "lon": 2.985921, "tags": {"bench": "no", "bin": "no", "bus": "yes", "highway": "bus_stop", "name": "CCI", "public_transport": "platform", "shelter": "no"}}, {"type": "node", "id": 7664108025, "lat": 43.1580503, "lon": 2.9859893, "tags": {"bench": "no", "bin": "no", "bus": "yes", "highway": "bus_stop", "name": "CCI", "public_transport": "platform", "shelter": "no"}}, {"type": "node", "id": 7664108027, "lat": 43.156808, "lon": 2.982517, "tags": {"bench": "no", "bin": "no", "bus": "yes", "highway": "bus_stop", "name": "Route de Perpignan", "public_transport": "platform", "shelter": "no"}}, {"type": "node", "id": 7664108029, "lat": 43.156866, "lon": 2.978, "tags": {"bench": "no", "bin": "no", "bus": "yes", "highway": "bus_stop", "name": "La Coupe", "public_transport": "platform", "shelter": "no"}}, {"type": "node", "id": 7664108030, "lat": 43.157144, "lon": 2.977869, "tags": {"bench": "no", "bin": "no", "bus": "yes", "highway": "bus_stop", "name": "La Coupe", "public_transport": "platform", "shelter": "no"}}, {"type": "node", "id": 7664108034, "lat": 43.153158, "lon": 2.972277, "tags": {"bench": "no", "bin": "no", "bus": "yes", "highway": "bus_stop", "name": "P\u00f4le Emploi", "public_transport": "platform", "shelter": "no"}}, {"type": "node", "id": 7664108035, "lat": 43.153131, "lon": 2.971713, "tags": {"bench": "no", "bin": "no", "bus": "yes", "highway": "bus_stop", "name": "P\u00f4le Emploi", "public_transport": "platform", "shelter": "no"}}, {"type": "node", "id": 7664108036, "lat": 43.156381, "lon": 2.966306, "tags": {"bench": "no", "bin": "no", "bus": "yes", "highway": "bus_stop", "name": "Jonqui\u00e8res", "public_transport": "platform", "shelter": "no", "tactile_paving": "yes"}}, {"type": "node", "id": 7664108037, "lat": 43.156358, "lon": 2.966486, "tags": {"bench": "yes", "bin": "yes", "bus": "yes", "highway": "bus_stop", "name": "Jonqui\u00e8res", "public_transport": "platform", "shelter": "yes", "tactile_paving": "yes"}}, {"type": "node", "id": 7664108038, "lat": 43.1584092, "lon": 2.9667946, "tags": {"bench": "no", "bin": "no", "bus": "yes", "highway": "bus_stop", "lit": "yes", "name": "OPH", "public_transport": "platform", "shelter": "no", "tactile_paving": "yes"}}, {"type": "node", "id": 7664108039, "lat": 43.1584618, "lon": 2.9672646, "tags": {"bench": "no", "bin": "no", "bus": "yes", "highway": "bus_stop", "lit": "yes", "name": "OPH", "public_transport": "platform", "shelter": "no", "tactile_paving": "yes"}}, {"type": "node", "id": 7664108041, "lat": 43.159733, "lon": 2.967996, "tags": {"bench": "no", "bin": "no", "bus": "yes", "highway": "bus_stop", "name": "Pech d'Alcy", "public_transport": "platform", "shelter": "no"}}, {"type": "node", "id": 7705842022, "lat": 43.287162, "lon": 2.964206, "tags": {"bench": "no", "bin": "no", "bus": "yes", "highway": "bus_stop", "lit": "yes", "name": "Ovilius", "public_transport": "platform", "shelter": "no", "tactile_paving": "no"}}, {"type": "node", "id": 7705842023, "lat": 43.287175, "lon": 2.963954, "tags": {"bench": "no", "bin": "no", "highway": "bus_stop", "lit": "yes", "name": "Ovilius", "public_transport": "platform", "shelter": "no", "tactile_paving": "no"}}, {"type": "node", "id": 7705842024, "lat": 43.288628, "lon": 2.968768, "tags": {"bench": "no", "bin": "no", "bus": "yes", "highway": "bus_stop", "lit": "yes", "name": "Mairie", "public_transport": "platform", "shelter": "no", "tactile_paving": "no"}}, {"type": "node", "id": 7705842025, "lat": 43.288544, "lon": 2.968822, "tags": {"bench": "no", "bin": "no", "bus": "yes", "highway": "bus_stop", "lit": "yes", "name": "Mairie", "public_transport": "platform", "shelter": "yes", "tactile_paving": "no"}}, {"type": "node", "id": 7705842026, "lat": 43.288581, "lon": 2.972204, "tags": {"bench": "no", "bin": "no", "bus": "yes", "highway": "bus_stop", "name": "La Poste", "public_transport": "platform", "shelter": "no"}}, {"type": "node", "id": 7705842027, "lat": 43.288593, "lon": 2.971979, "tags": {"bench": "yes", "bin": "no", "bus": "yes", "highway": "bus_stop", "name": "La Poste", "public_transport": "platform", "shelter": "yes"}}, {"type": "node", "id": 7705842028, "lat": 43.28746, "lon": 2.973454, "tags": {"bench": "no", "bin": "no", "bus": "yes", "highway": "bus_stop", "name": "Rouquignole", "public_transport": "platform", "shelter": "no"}}, {"type": "node", "id": 7705842029, "lat": 43.2869049, "lon": 2.97437, "tags": {"bench": "yes", "bin": "no", "bus": "yes", "highway": "bus_stop", "name": "Rouquignole", "public_transport": "platform", "shelter": "yes"}}, {"type": "node", "id": 7705842030, "lat": 43.266995, "lon": 2.995193, "tags": {"bench": "no", "bin": "no", "bus": "yes", "highway": "bus_stop", "name": "La Saign\u00e9e", "public_transport": "platform", "shelter": "no"}}, {"type": "node", "id": 7705842031, "lat": 43.2464582, "lon": 3.0005253, "tags": {"bench": "no", "bin": "no", "bus": "yes", "highway": "bus_stop", "name": "Salengro", "public_transport": "platform", "shelter": "no"}}, {"type": "node", "id": 7705842033, "lat": 43.241985, "lon": 2.999378, "tags": {"bench": "no", "bin": "no", "bus": "yes", "highway": "bus_stop", "name": "Jean Jaur\u00e8s", "public_transport": "platform", "shelter": "no"}}, {"type": "node", "id": 7705842034, "lat": 43.24219, "lon": 2.999278, "tags": {"bench": "yes", "bin": "no", "bus": "yes", "highway": "bus_stop", "name": "Jean Jaur\u00e8s", "public_transport": "platform", "shelter": "yes"}}, {"type": "node", "id": 7705842035, "lat": 43.2469415, "lon": 2.9973082, "tags": {"bus": "yes", "highway": "bus_stop", "name": "Fran\u00e7ois Mitterrand P\u00f4le d\u2019\u00c9changes", "public_transport": "platform", "shelter": "yes"}}, {"type": "node", "id": 7705842037, "lat": 43.181761, "lon": 3.007411, "tags": {"bench": "no", "bin": "no", "bus": "yes", "highway": "bus_stop", "lit": "yes", "name": "Les Halles Victor Hugo", "public_transport": "platform", "shelter": "no", "tactile_paving": "no"}}, {"type": "node", "id": 7705842038, "lat": 43.180793, "lon": 3.010181, "tags": {"bench": "no", "bin": "no", "bus": "yes", "highway": "bus_stop", "lit": "yes", "name": "Passerelle Victor Hugo", "public_transport": "platform", "shelter": "no", "tactile_paving": "yes"}}, {"type": "node", "id": 7705842039, "lat": 43.1805319, "lon": 3.0124124, "tags": {"bench": "no", "bin": "no", "bus": "yes", "highway": "bus_stop", "lit": "no", "name": "Pont de l'Avenir", "public_transport": "platform", "shelter": "no", "tactile_paving": "no"}}, {"type": "node", "id": 7705842040, "lat": 43.1960003, "lon": 3.0187681, "tags": {"bench": "no", "bin": "no", "bus": "yes", "highway": "bus_stop", "lit": "yes", "name": "Razimbaud", "public_transport": "platform", "shelter": "no"}}, {"type": "node", "id": 7705842041, "lat": 43.19626, "lon": 3.018856, "tags": {"bench": "no", "bin": "no", "bus": "yes", "highway": "bus_stop", "lit": "yes", "name": "Razimbaud", "public_transport": "platform", "shelter": "no"}}, {"type": "node", "id": 7705842043, "lat": 43.195685, "lon": 3.022031, "tags": {"bench": "no", "bin": "no", "bus": "yes", "highway": "bus_stop", "name": "Aoste", "public_transport": "platform", "shelter": "no"}}, {"type": "node", "id": 7705842044, "lat": 43.195472, "lon": 3.021787, "tags": {"bench": "no", "bin": "no", "bus": "yes", "highway": "bus_stop", "name": "Aoste", "public_transport": "platform", "shelter": "no"}}, {"type": "node", "id": 7705842045, "lat": 43.1936965, "lon": 3.0235449, "tags": {"bench": "no", "bin": "no", "bus": "yes", "highway": "bus_stop", "lit": "yes", "name": "Baliste", "public_transport": "platform", "shelter": "no", "tactile_paving": "no"}}, {"type": "node", "id": 7705842046, "lat": 43.192867, "lon": 3.027004, "tags": {"bench": "no", "bin": "no", "bus": "yes", "highway": "bus_stop", "name": "OMS", "public_transport": "platform", "shelter": "no"}}, {"type": "node", "id": 7705842047, "lat": 43.1928405, "lon": 3.0268963, "tags": {"bench": "no", "bin": "no", "bus": "yes", "highway": "bus_stop", "name": "OMS", "public_transport": "platform", "shelter": "no"}}, {"type": "node", "id": 7705842049, "lat": 43.190908, "lon": 3.027264, "tags": {"bench": "no", "bin": "no", "bus": "yes", "highway": "bus_stop", "lit": "yes", "name": "Les Platanes", "public_transport": "platform", "shelter": "no", "tactile_paving": "no"}}, {"type": "node", "id": 7705842050, "lat": 43.190759, "lon": 3.027227, "tags": {"bench": "no", "bin": "no", "bus": "yes", "highway": "bus_stop", "lit": "yes", "name": "Les Platanes", "public_transport": "platform", "shelter": "no", "tactile_paving": "yes"}}, {"type": "node", "id": 7705842051, "lat": 43.189862, "lon": 3.024757, "tags": {"bench": "no", "bin": "no", "bus": "yes", "highway": "bus_stop", "name": "Soleil", "public_transport": "platform", "shelter": "no"}}, {"type": "node", "id": 7705842052, "lat": 43.189793, "lon": 3.024808, "tags": {"bench": "no", "bin": "no", "bus": "yes", "highway": "bus_stop", "name": "Soleil", "public_transport": "platform", "shelter": "no"}}, {"type": "node", "id": 7705842053, "lat": 43.1889259, "lon": 3.0228883, "tags": {"bench": "yes", "bin": "no", "bus": "yes", "highway": "bus_stop", "name": "Lilas", "public_transport": "platform", "shelter": "no"}}, {"type": "node", "id": 7705842054, "lat": 43.18847, "lon": 3.023303, "tags": {"bench": "no", "bin": "no", "bus": "yes", "highway": "bus_stop", "name": "Lilas", "public_transport": "platform", "shelter": "no"}}, {"type": "node", "id": 7705842055, "lat": 43.1866403, "lon": 3.022977, "tags": {"bench": "no", "bin": "no", "bus": "yes", "highway": "bus_stop", "name": "Horte Neuve", "public_transport": "platform", "shelter": "no"}}, {"type": "node", "id": 7705842056, "lat": 43.186038, "lon": 3.021235, "tags": {"bench": "no", "bin": "no", "bus": "yes", "highway": "bus_stop", "name": "Primev\u00e8res", "public_transport": "platform", "shelter": "no"}}, {"type": "node", "id": 7705842057, "lat": 43.186981, "lon": 3.015449, "tags": {"bench": "no", "bin": "no", "bus": "yes", "highway": "bus_stop", "lit": "yes", "name": "Route d'Armissan", "public_transport": "platform", "shelter": "no"}}, {"type": "node", "id": 7705842058, "lat": 43.186938, "lon": 3.015581, "tags": {"bench": "no", "bin": "no", "bus": "yes", "highway": "bus_stop", "lit": "yes", "name": "Route d'Armissan", "public_transport": "platform", "shelter": "no"}}, {"type": "node", "id": 7705842059, "lat": 43.185907, "lon": 3.015237, "tags": {"bench": "no", "bin": "no", "bus": "yes", "highway": "bus_stop", "lit": "yes", "name": "Weilheim", "public_transport": "platform", "shelter": "no", "tactile_paving": "no"}}, {"type": "node", "id": 7705842060, "lat": 43.1857084, "lon": 3.0151469, "tags": {"bench": "yes", "bin": "yes", "bus": "yes", "highway": "bus_stop", "lit": "yes", "name": "Weilheim", "public_transport": "platform", "shelter": "yes", "tactile_paving": "no"}}, {"type": "node", "id": 7705842062, "lat": 43.1814111, "lon": 3.0146261, "tags": {"bench": "yes", "bin": "yes", "bus": "yes", "highway": "bus_stop", "lit": "yes", "name": "Mar\u00e9chal Juin", "public_transport": "platform", "shelter": "yes"}}, {"type": "node", "id": 7705842063, "lat": 43.179921, "lon": 3.011112, "tags": {"bench": "no", "bin": "no", "bus": "yes", "highway": "bus_stop", "lit": "yes", "name": "\u00cele Verte", "public_transport": "platform", "shelter": "no", "tactile_paving": "no"}}, {"type": "node", "id": 7705842065, "lat": 43.180304, "lon": 3.009084, "tags": {"bench": "no", "bin": "no", "bus": "yes", "highway": "bus_stop", "lit": "yes", "name": "Passerelle Victor Hugo", "public_transport": "platform", "shelter": "no", "tactile_paving": "no"}}, {"type": "node", "id": 7705842069, "lat": 43.1864892, "lon": 2.997922, "tags": {"bench": "no", "bin": "no", "bus": "yes", "highway": "bus_stop", "lit": "yes", "name": "Quai de Lorraine", "public_transport": "platform", "shelter": "no", "tactile_paving": "yes"}}, {"type": "node", "id": 7705842070, "lat": 43.186686, "lon": 2.9975604, "tags": {"bench": "yes", "bin": "no", "bus": "yes", "highway": "bus_stop", "lit": "yes", "name": "Quai de Lorraine", "public_transport": "platform", "shelter": "no", "tactile_paving": "yes"}}, {"type": "node", "id": 7705842075, "lat": 43.18872, "lon": 2.996095, "tags": {"bench": "no", "bin": "no", "bus": "yes", "highway": "bus_stop", "lit": "no", "name": "Chemin de Licune", "public_transport": "platform", "shelter": "no", "tactile_paving": "no"}}, {"type": "node", "id": 7705842076, "lat": 43.1885184, "lon": 2.9959304, "tags": {"bench": "no", "bin": "no", "bus": "yes", "highway": "bus_stop", "lit": "no", "name": "Chemin de Licune", "public_transport": "platform", "shelter": "no", "tactile_paving": "no"}}, {"type": "node", "id": 7705842077, "lat": 43.189267, "lon": 2.993729, "tags": {"bench": "no", "bin": "no", "bus": "yes", "highway": "bus_stop", "lit": "no", "name": "Peupliers", "public_transport": "platform", "shelter": "no", "tactile_paving": "no"}}, {"type": "node", "id": 7705842079, "lat": 43.188673, "lon": 2.991259, "tags": {"bench": "no", "bin": "no", "bus": "yes", "highway": "bus_stop", "lit": "yes", "name": "Simon Castan", "public_transport": "platform", "shelter": "no"}}, {"type": "node", "id": 7705842080, "lat": 43.188602, "lon": 2.991326, "tags": {"bench": "no", "bin": "no", "bus": "yes", "highway": "bus_stop", "lit": "yes", "name": "Simon Castan", "public_transport": "platform", "shelter": "no"}}, {"type": "node", "id": 7705842081, "lat": 43.1886165, "lon": 2.9874035, "tags": {"bench": "no", "bin": "no", "bus": "yes", "highway": "bus_stop", "name": "Route de Saint-Pons", "public_transport": "platform", "shelter": "no"}}, {"type": "node", "id": 7705842082, "lat": 43.188974, "lon": 2.984344, "tags": {"bench": "yes", "bin": "no", "bus": "yes", "highway": "bus_stop", "name": "Cimeti\u00e8re de l'Ouest", "public_transport": "platform", "shelter": "no"}}, {"type": "node", "id": 7705842083, "lat": 43.186314, "lon": 2.982756, "tags": {"bench": "yes", "bin": "no", "bus": "yes", "highway": "bus_stop", "name": "Saint-Jean-la-Source", "public_transport": "platform", "shelter": "no"}}, {"type": "node", "id": 7705842084, "lat": 43.18616, "lon": 2.983011, "tags": {"bench": "yes", "bin": "no", "bus": "yes", "highway": "bus_stop", "name": "Saint-Jean-la-Source", "public_transport": "platform", "shelter": "no"}}, {"type": "node", "id": 7705870185, "lat": 43.187738, "lon": 2.979234, "tags": {"bench": "no", "bin": "no", "bus": "yes", "highway": "bus_stop", "name": "Vixi\u00e8ge", "public_transport": "platform", "shelter": "no"}}, {"type": "node", "id": 7705870186, "lat": 43.187937, "lon": 2.979146, "tags": {"bench": "no", "bin": "no", "bus": "yes", "highway": "bus_stop", "name": "Vixi\u00e8ge", "public_transport": "platform", "shelter": "no"}}, {"type": "node", "id": 7705870187, "lat": 43.188037, "lon": 2.976879, "tags": {"bench": "no", "bin": "no", "bus": "yes", "highway": "bus_stop", "name": "L'Agly", "public_transport": "platform", "shelter": "no"}}, {"type": "node", "id": 7705870188, "lat": 43.188084, "lon": 2.976557, "tags": {"bench": "no", "bin": "no", "bus": "yes", "highway": "bus_stop", "name": "L'Agly", "public_transport": "platform", "shelter": "no"}}, {"type": "node", "id": 7705870190, "lat": 43.187165, "lon": 2.975452, "tags": {"bench": "no", "bin": "no", "bus": "yes", "highway": "bus_stop", "name": "Brassens", "public_transport": "platform", "shelter": "no"}}, {"type": "node", "id": 7705870191, "lat": 43.1869527, "lon": 2.9752953, "tags": {"bench": "yes", "bin": "yes", "bus": "yes", "highway": "bus_stop", "name": "Brassens", "public_transport": "platform", "shelter": "yes"}}, {"type": "node", "id": 7705870192, "lat": 43.192781, "lon": 2.974782, "tags": {"bench": "no", "bin": "no", "bus": "yes", "highway": "bus_stop", "lit": "yes", "name": "Citronnier", "public_transport": "platform", "shelter": "no", "tactile_paving": "no"}}, {"type": "node", "id": 7705870193, "lat": 43.191649, "lon": 2.974237, "tags": {"bench": "no", "bin": "no", "bus": "yes", "highway": "bus_stop", "lit": "yes", "name": "Citronnier", "public_transport": "platform", "shelter": "no", "tactile_paving": "no"}}, {"type": "node", "id": 7705870194, "lat": 43.1942104, "lon": 2.9703518, "tags": {"bench": "no", "bin": "no", "bus": "yes", "covered": "no", "highway": "bus_stop", "lit": "yes", "name": "Saint-Augustin", "passenger_information_display": "no", "public_transport": "platform", "shelter": "no", "tactile_paving": "no", "wheelchair": "no"}}, {"type": "node", "id": 7705870195, "lat": 43.1944024, "lon": 2.9724026, "tags": {"bench": "no", "bin": "no", "bus": "yes", "highway": "bus_stop", "lit": "yes", "name": "Saint-Augustin", "public_transport": "platform", "shelter": "no", "tactile_paving": "no"}}, {"type": "node", "id": 7705870196, "lat": 43.1965841, "lon": 2.9662853, "tags": {"bench": "no", "bin": "no", "bus": "yes", "highway": "bus_stop", "lit": "yes", "name": "Crabit", "public_transport": "platform", "shelter": "no", "tactile_paving": "no"}}, {"type": "node", "id": 7706578634, "lat": 43.1402849, "lon": 2.9673091, "tags": {"bench": "no", "bin": "no", "bus": "yes", "highway": "bus_stop", "name": "Clos des Lentisques", "public_transport": "platform", "shelter": "no"}}, {"type": "node", "id": 7706935220, "lat": 43.1830738, "lon": 3.0031459, "tags": {"bench": "no", "bin": "yes", "bus": "yes", "highway": "bus_stop", "lit": "yes", "name": "Quatres Fontaines", "public_transport": "platform", "shelter": "no", "tactile_paving": "no"}}, {"type": "node", "id": 7706935221, "lat": 43.180345, "lon": 3.009261, "tags": {"bench": "yes", "bin": "no", "bus": "yes", "highway": "bus_stop", "lit": "yes", "name": "Rossini", "public_transport": "platform", "shelter": "no", "tactile_paving": "no"}}, {"type": "node", "id": 7706935223, "lat": 43.179443, "lon": 3.015704, "tags": {"bench": "yes", "bin": "no", "bus": "yes", "highway": "bus_stop", "lit": "yes", "name": "Th\u00e9atre", "public_transport": "platform", "shelter": "no", "tactile_paving": "no"}}, {"type": "node", "id": 7706935224, "lat": 43.181638, "lon": 3.007344, "tags": {"bench": "yes", "bin": "no", "bus": "yes", "highway": "bus_stop", "lit": "yes", "name": "Victor Hugo", "public_transport": "platform", "shelter": "no", "tactile_paving": "no"}}, {"type": "node", "id": 7706935225, "lat": 43.183099, "lon": 3.004685, "tags": {"bench": "yes", "bin": "yes", "bus": "yes", "highway": "bus_stop", "lit": "yes", "name": "H\u00f4tel de Ville", "panoramax": "a4131cfe-1f03-4dda-8ef3-28bd6a18510e", "public_transport": "platform", "shelter": "no", "tactile_paving": "no"}}, {"type": "node", "id": 7706935226, "lat": 43.18518, "lon": 3.003189, "tags": {"bench": "no", "bin": "no", "bus": "yes", "highway": "bus_stop", "lit": "yes", "name": "Cath\u00e9drale", "public_transport": "platform", "shelter": "no", "tactile_paving": "no"}}, {"type": "node", "id": 7706935231, "lat": 43.1357179, "lon": 2.9659646, "tags": {"bench": "no", "bin": "no", "bus": "yes", "highway": "bus_stop", "name": "R\u00e9veillon", "public_transport": "platform", "shelter": "no"}}, {"type": "node", "id": 7706935238, "lat": 43.142065, "lon": 2.973333, "tags": {"bench": "no", "bin": "no", "bus": "yes", "highway": "bus_stop", "name": "Sainte-Claire", "public_transport": "platform", "shelter": "no"}}, {"type": "node", "id": 7706935242, "lat": 43.14373, "lon": 2.974387, "tags": {"bench": "yes", "bin": "no", "bus": "yes", "highway": "bus_stop", "name": "Montplaisir", "public_transport": "platform", "shelter": "no"}}, {"type": "node", "id": 7706935247, "lat": 43.175553, "lon": 2.998095, "tags": {"bench": "no", "bin": "no", "bus": "yes", "highway": "bus_stop", "lit": "yes", "name": "Racine", "public_transport": "platform", "shelter": "no", "tactile_paving": "no"}},