{"version": 0.6, "generator": "Overpass API 0.7.62.5 1bd436f1", "osm3s": {"timestamp_osm_base": "2025-04-09T14:40:21Z", "copyright": "The data included in this document is from www.openstreetmap.org. The data is made available under ODbL."}, "elements": [{"type": "node", "id": 57202449, "lat": 43.594073, "lon": 1.4166572}, {"type": "node", "id": 231747830, "lat": 43.5747853, "lon": 1.4618757, "tags": {"level": "-3", "man_made": "surveillance", "name": "Rangueil", "operator": "Tiss\u00e9o", "public_transport": "stop_position", "railway": "station", "ref:IFOPT": "stop_area:SA_402", "station": "subway", "subway": "yes", "wheelchair": "yes", "wikidata": "Q3418960"}}, {"type": "node", "id": 231747846, "lat": 43.5795327, "lon": 1.4592832, "tags": {"name": "Saouzelong", "operator": "Tiss\u00e9o", "public_transport": "stop_position", "railway": "station", "station": "subway", "subway": "yes", "wheelchair": "yes", "wikidata": "Q3473097"}}, {"type": "node", "id": 231747856, "lat": 43.580339, "lon": 1.4498764, "tags": {"man_made": "surveillance", "name": "Saint-Agne SNCF", "operator": "Tiss\u00e9o", "public_transport": "stop_position", "railway": "station", "station": "subway", "subway": "yes", "train": "yes", "wheelchair": "yes", "wikidata": "Q3461684"}}, {"type": "node", "id": 231747882, "lat": 43.5798541, "lon": 1.442089, "tags": {"name": "Empalot", "operator": "Tiss\u00e9o", "public_transport": "stop_position", "railway": "station", "search_name": "Empalot M\u00e9tro", "station": "subway", "subway": "yes", "wheelchair": "yes", "wikidata": "Q3053180"}}, {"type": "node", "id": 231747949, "lat": 43.6057316, "lon": 1.4486752, "tags": {"bus": "yes", "name": "Jean Jaur\u00e8s", "name:oc": "Joan Jaur\u00e9s", "operator": "Tiss\u00e9o", "public_transport": "station", "railway": "station", "source:name:oc": "ieo-bdtopoc", "station": "subway", "subway": "yes", "wheelchair": "yes", "wikidata": "Q3166472"}}, {"type": "node", "id": 246713093, "lat": 43.5681878, "lon": 1.4645868}, {"type": "node", "id": 246713094, "lat": 43.5681857, "lon": 1.4643943}, {"type": "node", "id": 246713095, "lat": 43.5677775, "lon": 1.4644498}, {"type": "node", "id": 246713096, "lat": 43.5678808, "lon": 1.4646278}, {"type": "node", "id": 250291540, "lat": 43.5979747, "lon": 1.4316655, "tags": {"name": "Saint-Cyprien \u2013 R\u00e9publique", "name:oc": "Sant-\u00c7ubran \u2013 Republica", "operator": "Tiss\u00e9o", "public_transport": "station", "railway": "station", "source:name:oc": "ieo-bdtopoc", "station": "subway", "subway": "yes", "wheelchair": "limited", "wikidata": "Q3462014", "wikipedia": "fr:Saint-Cyprien \u2013 R\u00e9publique (m\u00e9tro de Toulouse)"}}, {"type": "node", "id": 280076319, "lat": 43.7640475, "lon": 1.7630533, "tags": {"name": "Saint-Lieux-l\u00e8s-Lavaur", "railway": "station"}}, {"type": "node", "id": 282222778, "lat": 43.5407414, "lon": 1.4818139, "tags": {"bench": "yes", "bin": "yes", "bus": "yes", "highway": "bus_stop", "lit": "yes", "name": "8 Mai 1945", "public_transport": "platform", "ref": "20841", "ref:FR:Tisseo": "20841", "shelter": "yes", "source": "https://www.tisseo.fr", "source:date": "2017-09-04", "tactile_paving": "yes", "wheelchair": "yes"}}, {"type": "node", "id": 286216616, "lat": 43.5557657, "lon": 1.4665332, "tags": {"advertising": "poster_box", "bench": "yes", "bin": "yes", "bus": "yes", "highway": "bus_stop", "lit": "yes", "name": "Cl\u00f4tasses", "public_transport": "platform", "ref": "1521", "ref:FR:Tisseo": "1521", "ref:FR:aec31": "61192", "shelter": "separate", "source": "https://www.tisseo.fr", "source:date": "2017-09-04", "source:ref:aec31": "Conseil D\u00e9partemental de Haute-Garonne", "source:ref:aec31:date": "2019-04-01", "tactile_paving": "yes", "wheelchair": "yes"}}, {"type": "node", "id": 286472554, "lat": 43.5605522, "lon": 1.4627211, "tags": {"bench": "no", "bin": "no", "bus": "yes", "description": "Arr\u00eat du Noctanbus Tiss\u00e9o", "highway": "bus_stop", "lit": "yes", "name": "Universit\u00e9 Paul Sabatier", "public_transport": "platform", "ref": "5939", "ref:FR:Tisseo": "5939", "route_ref": "N", "shelter": "no", "source": "survey", "source:date": "2020-09-06", "tactile_paving": "no", "wheelchair": "yes"}}, {"type": "node", "id": 286474709, "lat": 43.6108161, "lon": 1.4551291, "tags": {"layer": "-3", "level": "-2", "name": "Marengo-SNCF", "operator": "Tiss\u00e9o", "public_transport": "station", "railway": "station", "station": "subway", "subway": "yes", "wheelchair": "yes", "wikidata": "Q3290417"}}, {"type": "node", "id": 286487552, "lat": 43.7677691, "lon": 1.6904376, "tags": {"highway": "bus_stop", "public_transport": "platform"}}, {"type": "node", "id": 286706418, "lat": 43.7726156, "lon": 1.6924523, "tags": {"highway": "bus_stop", "public_transport": "platform"}}, {"type": "node", "id": 298873524, "lat": 43.5923831, "lon": 1.4445727, "tags": {"name": "Palais de Justice", "operator": "Tiss\u00e9o", "public_transport": "stop_position", "railway": "station", "source:name:oc": "ieo-bdtopoc", "station": "subway", "subway": "yes", "wheelchair": "yes"}}, {"type": "node", "id": 314565429, "lat": 43.6003651, "lon": 1.4520844, "tags": {"bus": "yes", "name": "Fran\u00e7ois Verdier", "operator": "Tiss\u00e9o", "public_transport": "stop_position", "railway": "station", "station": "subway", "subway": "yes", "wheelchair": "yes", "wikidata": "Q3083675"}}, {"type": "node", "id": 333366935, "lat": 43.5700593, "lon": 1.392211, "tags": {"description": "Entr\u00e9e", "name": "Basso Cambo", "name:oc": "Bassa Comba", "railway": "subway_entrance", "source:name:oc": "ieo-bdtopoc", "wheelchair": "yes"}}, {"type": "node", "id": 333366940, "lat": 43.5700605, "lon": 1.3923387, "tags": {"description": "Sortie", "name": "Basso Cambo", "name:oc": "Bassa Comba", "railway": "subway_entrance", "source:name:oc": "ieo-bdtopoc", "wheelchair": "yes"}}, {"type": "node", "id": 356693390, "lat": 43.543246, "lon": 1.5121128, "tags": {"bench": "no", "bin": "no", "bus": "yes", "departures_board": "timetable", "highway": "bus_stop", "lit": "no", "name": "Rostand", "public_transport": "platform", "ref": "19050", "ref:FR:Tisseo": "19050", "shelter": "no", "source": "https://www.tisseo.fr", "source:date": "2017-09-04", "tactile_paving": "no", "wheelchair": "yes"}}, {"type": "node", "id": 356718507, "lat": 43.5397547, "lon": 1.5151472, "tags": {"bench": "no", "bin": "yes", "highway": "bus_stop", "lit": "no", "name": "Campus de Bissy", "public_transport": "platform", "shelter": "no", "tactile_paving": "no"}}, {"type": "node", "id": 356770528, "lat": 43.5489772, "lon": 1.5131421, "tags": {"advertising": "poster_box", "bench": "yes", "bin": "no", "bus": "yes", "highway": "bus_stop", "lit": "yes", "name": "Lalande", "public_transport": "platform", "ref": "18981", "ref:FR:Tisseo": "18981", "ref:FR:aec31": "25407", "shelter": "yes", "source": "https://www.tisseo.fr", "source:date": "2017-09-04", "source:ref:aec31": "Conseil D\u00e9partemental de Haute-Garonne", "source:ref:aec31:date": "2021-08-19", "tactile_paving": "no", "wheelchair": "yes"}}, {"type": "node", "id": 356770532, "lat": 43.5487412, "lon": 1.5132808, "tags": {"advertising": "poster_box", "bench": "yes", "bin": "no", "bus": "yes", "highway": "bus_stop", "lit": "yes", "name": "Lalande", "name:liO": "Lalande (Innopole) - Labege", "public_transport": "platform", "ref": "18980", "ref:FR:Tisseo": "18980", "ref:FR:aec31": "25406", "shelter": "yes", "source": "https://www.tisseo.fr", "source:date": "2017-09-04", "source:ref:aec31": "Conseil D\u00e9partemental de Haute-Garonne", "source:ref:aec31:date": "2021-08-19", "tactile_paving": "no", "wheelchair": "yes"}}, {"type": "node", "id": 356791294, "lat": 43.5464687, "lon": 1.5105801, "tags": {"advertising": "poster_box", "bench": "yes", "bin": "yes", "bus": "yes", "departures_board": "timetable", "highway": "bus_stop", "lit": "no", "name": "Tolosane", "public_transport": "platform", "ref": "18990", "ref:FR:Tisseo": "18990", "shelter": "yes", "source": "https://www.tisseo.fr", "source:date": "2017-09-04", "tactile_paving": "no", "wheelchair": "yes"}}, {"type": "node", "id": 356791304, "lat": 43.5465047, "lon": 1.5108237, "tags": {"bench": "no", "bin": "no", "bus": "yes", "highway": "bus_stop", "lit": "no", "name": "Tolosane", "public_transport": "platform", "ref": "18991", "ref:FR:Tisseo": "18991", "shelter": "no", "source": "https://www.tisseo.fr", "source:date": "2017-09-04", "tactile_paving": "no", "wheelchair": "yes"}}, {"type": "node", "id": 364157604, "lat": 43.5495113, "lon": 1.5060528, "tags": {"advertising": "poster_box", "bench": "yes", "bin": "yes", "bus": "yes", "highway": "bus_stop", "lit": "no", "name": "Centre Commercial Lab\u00e8ge", "public_transport": "platform", "ref": "19171", "ref:FR:Tisseo": "19171", "shelter": "yes", "source": "https://www.tisseo.fr", "source:date": "2017-09-04", "tactile_paving": "no", "wheelchair": "yes"}}, {"type": "node", "id": 366910959, "lat": 43.6377084, "lon": 1.3654524, "tags": {"bench": "yes", "bin": "no", "bus": "yes", "departures_board": "yes", "highway": "bus_stop", "lit": "yes", "name": "Navette P5 et P6", "operator": "A\u00e9roport de Toulouse-Blagnac", "public_transport": "platform", "shelter": "yes", "tactile_paving": "yes", "toilets:wheelchair": "no", "wheelchair": "yes", "wheelchair:description": "Navette vers Aerogare D. [Shuttle bus to Terminal D]"}}, {"type": "node", "id": 413504294, "lat": 43.85639, "lon": 1.80823, "tags": {"name": "Lisle-sur-Tarn", "operator": "SNCF", "railway": "station", "train": "yes", "uic_ref": "8761531", "wikidata": "Q5522703"}}, {"type": "node", "id": 416073427, "lat": 43.5888722, "lon": 1.421436, "tags": {"bench": "no", "bin": "yes", "bus": "yes", "highway": "bus_stop", "lit": "yes", "name": "Gamelin", "public_transport": "platform", "ref": "3021", "ref:FR:Tisseo": "3021", "shelter": "no", "source": "http://data.grandtoulouse.fr", "source:date": "2012-04-04", "tactile_paving": "no", "wheelchair": "yes"}}, {"type": "node", "id": 419889077, "lat": 43.5682019, "lon": 1.4644628}, {"type": "node", "id": 419889078, "lat": 43.5681908, "lon": 1.4644643}, {"type": "node", "id": 419889079, "lat": 43.5682069, "lon": 1.4645322}, {"type": "node", "id": 419889080, "lat": 43.5681841, "lon": 1.4645353}, {"type": "node", "id": 419889081, "lat": 43.5677816, "lon": 1.4645059}, {"type": "node", "id": 419889082, "lat": 43.5678712, "lon": 1.464494}, {"type": "node", "id": 419889083, "lat": 43.5680423, "lon": 1.4646391}, {"type": "node", "id": 419889084, "lat": 43.5680394, "lon": 1.4646065}, {"type": "node", "id": 419889087, "lat": 43.567917, "lon": 1.4646226}, {"type": "node", "id": 419889088, "lat": 43.5679645, "lon": 1.4646839}, {"type": "node", "id": 419889089, "lat": 43.5679586, "lon": 1.4646866}, {"type": "node", "id": 419889093, "lat": 43.5679469, "lon": 1.4646871}, {"type": "node", "id": 419889099, "lat": 43.5679357, "lon": 1.4646818}, {"type": "node", "id": 419889100, "lat": 43.5679284, "lon": 1.4646745}, {"type": "node", "id": 419889102, "lat": 43.5679227, "lon": 1.4646651}, {"type": "node", "id": 419889104, "lat": 43.5679186, "lon": 1.4646468}, {"type": "node", "id": 424899766, "lat": 43.5790311, "lon": 1.3808806, "tags": {"bench": "yes", "bin": "yes", "bus": "yes", "highway": "bus_stop", "lit": "no", "name": "Fleming", "public_transport": "platform", "ref": "2800", "ref:FR:Tisseo": "2800", "shelter": "yes", "source": "https://data.toulouse-metropole.fr/explore/dataset/tisseo-gtfs/information/", "source:date": "2020-08-31", "tactile_paving": "no", "wheelchair": "yes"}}, {"type": "node", "id": 424904228, "lat": 43.5877799, "lon": 1.4188431, "tags": {"bench": "no", "bin": "no", "bus": "yes", "highway": "bus_stop", "lit": "yes", "name": "Fontaine Lestang", "public_transport": "platform", "ref": "2831", "ref:FR:Tisseo": "2831", "shelter": "no", "tactile_paving": "no", "wheelchair": "no"}}, {"type": "node", "id": 424911159, "lat": 43.5800508, "lon": 1.382856, "tags": {"bench": "yes", "bin": "yes", "bus": "yes", "highway": "bus_stop", "lit": "no", "name": "Odeillo", "public_transport": "platform", "ref": "5110", "ref:FR:Tisseo": "5110", "shelter": "yes", "source": "http://data.grandtoulouse.fr", "source:date": "2012-04-04", "tactile_paving": "no", "wheelchair": "yes"}}, {"type": "node", "id": 436494342, "lat": 43.6293258, "lon": 1.3784686, "tags": {"bench": "no", "bin": "no", "bus": "yes", "highway": "bus_stop", "lit": "yes", "name": "Daurat", "public_transport": "platform", "ref": "27670", "ref:FR:Tisseo": "27670", "route_ref": "45Relais", "shelter": "no", "source": "https://www.tisseo.fr", "source:date": "2023-09-04", "tactile_paving": "no", "wheelchair": "no"}}, {"type": "node", "id": 436494352, "lat": 43.6271998, "lon": 1.3849657, "tags": {"bench": "yes", "bin": "no", "highway": "bus_stop", "lit": "yes", "name": "Bellonte Blagnac", "public_transport": "platform", "ref": "6901", "ref:FR:aec31": "6901", "shelter": "separate", "source:ref:aec31": "Conseil D\u00e9partemental de Haute-Garonne", "source:ref:aec31:date": "2020-09-24", "tactile_paving": "no"}}, {"type": "node", "id": 439219972, "lat": 43.5845835, "lon": 1.4277572, "tags": {"advertising": "poster_box", "bench": "yes", "bin": "yes", "bus": "yes", "highway": "bus_stop", "lit": "yes", "name": "Croix de Pierre", "name:oc": "Crotz de P\u00e8ira", "public_transport": "platform", "ref": "1840", "ref:FR:Tisseo": "1840", "shelter": "yes", "source": "https://www.tisseo.fr", "source:date": "2017-09-04", "source:name:oc": "ieo-bdtopoc", "tactile_paving": "no", "wheelchair": "yes"}}, {"type": "node", "id": 439220301, "lat": 43.5856949, "lon": 1.4276421, "tags": {"bench": "no", "bin": "yes", "bus": "yes", "highway": "bus_stop", "lit": "yes", "name": "Croix de Pierre", "public_transport": "platform", "ref": "1841", "ref:FR:Tisseo": "1841", "shelter": "yes", "source": "https://www.tisseo.fr", "source:date": "2017-09-04", "tactile_paving": "yes", "wheelchair": "yes"}}, {"type": "node", "id": 445418725, "lat": 43.56942, "lon": 1.5169466, "tags": {"advertising": "poster_box", "bench": "yes", "bin": "yes", "bus": "yes", "highway": "bus_stop", "lit": "no", "name": "Catala", "public_transport": "platform", "ref": "18231", "ref:FR:Tisseo": "18231", "shelter": "yes", "source": "https://www.tisseo.fr", "source:date": "2017-09-04", "tactile_paving": "no", "wheelchair": "yes"}}, {"type": "node", "id": 445427674, "lat": 43.5657871, "lon": 1.5194479, "tags": {"advertising": "poster_box", "bench": "yes", "bin": "yes", "bus": "yes", "highway": "bus_stop", "name": "Saint-Orens Centre Commercial", "public_transport": "platform", "ref": "18240", "ref:FR:Tisseo": "18240", "shelter": "yes", "source:date": "2017-09-04", "wheelchair": "yes"}}, {"type": "node", "id": 445427677, "lat": 43.5649706, "lon": 1.5193386, "tags": {"advertising": "poster_box", "bench": "yes", "bin": "yes", "bus": "yes", "highway": "bus_stop", "lit": "yes", "name": "Saint-Orens Centre Commercial", "public_transport": "platform", "ref": "18241", "ref:FR:Tisseo": "18241", "shelter": "yes", "source": "https://www.tisseo.fr", "source:date": "2017-09-04", "tactile_paving": "no", "wheelchair": "yes"}}, {"type": "node", "id": 445762101, "lat": 43.5563145, "lon": 1.4814917, "tags": {"bench": "no", "bin": "no", "bus": "yes", "highway": "bus_stop", "lit": "yes", "mapillary": "959847131428599", "name": "CNES", "public_transport": "platform", "ref": "20483", "ref:FR:Tisseo": "20483", "shelter": "no", "tactile_paving": "no", "wheelchair": "yes"}}, {"type": "node", "id": 445821881, "lat": 43.5395368, "lon": 1.5126345, "tags": {"advertising": "poster_box", "bench": "yes", "bin": "yes", "bus": "yes", "highway": "bus_stop", "lit": "yes", "name": "Cin\u00e9ma Occitane", "public_transport": "platform", "ref": "29800", "ref:FR:Tisseo": "29800", "shelter": "yes", "source": "https://www.tisseo.fr", "source:date": "2017-09-04", "tactile_paving": "yes", "wheelchair": "yes"}}, {"type": "node", "id": 447355444, "lat": 43.6446237, "lon": 1.5243454, "tags": {"bus": "yes", "highway": "bus_stop", "name": "Gare SNCF Montrab\u00e9", "public_transport": "platform", "ref": "21331", "ref:FR:Tisseo": "21331", "shelter": "yes", "source": "http://data.grandtoulouse.fr", "source:date": "2012-04-04", "wheelchair": "yes"}}, {"type": "node", "id": 448395611, "lat": 43.5965606, "lon": 1.4234538, "tags": {"bench": "yes", "bin": "yes", "bus": "yes", "highway": "bus_stop", "lit": "yes", "name": "Patte d'Oie", "public_transport": "platform", "ref": "5270", "ref:FR:Tisseo": "5270", "ref:FR:aec31": "61075", "shelter": "separate", "source": "http://data.grandtoulouse.fr", "source:date": "2013-03-18", "source:ref:aec31": "Conseil D\u00e9partemental de Haute-Garonne", "source:ref:aec31:date": "2020-09-24", "tactile_paving": "no", "wheelchair": "yes"}}, {"type": "node", "id": 448395619, "lat": 43.5970235, "lon": 1.4260607, "tags": {"bench": "yes", "bin": "yes", "bus": "yes", "highway": "bus_stop", "lit": "yes", "name": "Roguet", "public_transport": "platform", "ref": "6120", "ref:FR:Tisseo": "6120", "shelter": "yes", "source": "http://data.grandtoulouse.fr", "source:date": "2012-04-04", "tactile_paving": "no", "wheelchair": "yes"}}, {"type": "node", "id": 448395621, "lat": 43.5971792, "lon": 1.4273152, "tags": {"bench": "yes", "bin": "no", "bus": "yes", "highway": "bus_stop", "lit": "yes", "name": "Roguet", "public_transport": "platform", "ref": "6121", "ref:FR:Tisseo": "6121", "shelter": "yes", "source": "http://data.grandtoulouse.fr", "source:date": "2012-04-04", "tactile_paving": "no", "wheelchair": "yes"}}, {"type": "node", "id": 448395627, "lat": 43.5977725, "lon": 1.4299497, "tags": {"bench": "no", "bin": "yes", "bus": "yes", "highway": "bus_stop", "lit": "yes", "name": "Saint-Cyprien - R\u00e9publique", "public_transport": "platform", "ref": "6764", "ref:FR:Tisseo": "6764", "ref:FR:aec31": "61094", "shelter": "yes", "source": "http://data.grandtoulouse.fr", "source:date": "2012-04-04", "source:ref:aec31": "Conseil D\u00e9partemental de Haute-Garonne", "source:ref:aec31:date": "2020-09-24", "tactile_paving": "no", "wheelchair": "yes"}}, {"type": "node", "id": 448395633, "lat": 43.5980969, "lon": 1.4315176, "tags": {"alt_name": "Saint-Cyprien - R\u00e9publique", "bench": "yes", "bin": "no", "bus": "yes", "highway": "bus_stop", "lit": "no", "name": "Saint-Cyprien - R\u00e9publique Place Int\u00e9rieure", "public_transport": "platform", "ref": "6766", "ref:FR:Tisseo": "6766", "route_ref": "14;66;14 Relais", "shelter": "no", "source": "http://data.grandtoulouse.fr", "source:date": "2012-04-04", "tactile_paving": "no", "wheelchair": "yes"}}, {"type": "node", "id": 448395635, "lat": 43.5978794, "lon": 1.4318301, "tags": {"bench": "yes", "bin": "yes", "bus": "yes", "highway": "bus_stop", "lit": "no", "name": "Saint-Cyprien - R\u00e9publique", "public_transport": "platform", "ref": "6765", "ref:FR:Tisseo": "6765", "route_ref": "3;66;3 Relais", "shelter": "yes", "source": "http://data.grandtoulouse.fr", "source:date": "2012-04-04", "tactile_paving": "no", "wheelchair": "yes"}}, {"type": "node", "id": 448395638, "lat": 43.5966979, "lon": 1.4363234, "tags": {"advertising": "poster_box", "bench": "yes", "bin": "yes", "bus": "yes", "highway": "bus_stop", "lit": "yes", "name": "Magn\u00e9", "public_transport": "platform", "ref": "4831", "ref:FR:Tisseo": "4831", "shelter": "yes", "source": "http://data.grandtoulouse.fr", "source:date": "2012-04-04", "tactile_paving": "no", "wheelchair": "yes"}}, {"type": "node", "id": 450531281, "lat": 43.5750836, "lon": 1.4206131, "tags": {"advertising": "poster_box", "bench": "yes", "bin": "yes", "bus": "yes", "highway": "bus_stop", "lit": "yes", "name": "Bernadette", "public_transport": "platform", "ref": "641", "ref:FR:Tisseo": "641", "shelter": "yes", "source": "http://data.grandtoulouse.fr", "source:date": "2012-04-04", "tactile_paving": "no", "wheelchair": "yes"}}, {"type": "node", "id": 462147785, "lat": 43.6928244, "lon": 1.346116, "tags": {"bench": "no", "bin": "no", "bus": "yes", "highway": "bus_stop", "lit": "yes", "name": "Vieux Moulin", "pole": "yes", "public_transport": "platform", "ref": "19990", "ref:FR:Tisseo": "19990", "shelter": "no", "source": "http://data.grandtoulouse.fr", "source:date": "2013-03-18", "tactile_paving": "no", "wheelchair": "yes"}}, {"type": "node", "id": 462745384, "lat": 43.6475634, "lon": 1.5281278, "tags": {"bus": "yes", "highway": "bus_stop", "name": "Montrab\u00e9 Stade", "public_transport": "platform", "ref": "21350", "ref:FR:Tisseo": "21350", "source": "https://data.toulouse-metropole.fr/explore/dataset/tisseo-gtfs/information/", "source:date": "2020-08-31", "wheelchair": "yes"}}, {"type": "node", "id": 466299249, "lat": 43.6381324, "lon": 1.5001771, "tags": {"bench": "no", "bus": "yes", "highway": "bus_stop", "name": "ZI Montredon", "public_transport": "platform", "ref": "11071", "ref:FR:Tisseo": "11071", "ref:FR:aec31": "56113", "shelter": "no", "source": "http://data.grandtoulouse.fr", "source:date": "2012-04-04", "source:ref:aec31": "Conseil D\u00e9partemental de Haute-Garonne", "source:ref:aec31:date": "2021-08-19", "wheelchair": "no"}}, {"type": "node", "id": 466299292, "lat": 43.6381566, "lon": 1.5006326, "tags": {"bench": "no", "bin": "no", "bus": "yes", "highway": "bus_stop", "name": "ZI Montredon", "public_transport": "platform", "ref": "11070", "ref:FR:Tisseo": "11070", "ref:FR:aec31": "4402", "shelter": "no", "source": "http://data.grandtoulouse.fr", "source:date": "2012-04-04", "source:ref:aec31": "Conseil D\u00e9partemental de Haute-Garonne", "source:ref:aec31:date": "2021-08-19", "wheelchair": "no"}}, {"type": "node", "id": 466299321, "lat": 43.6440796, "lon": 1.514018, "tags": {"bench": "yes", "bin": "yes", "bus": "yes", "highway": "bus_stop", "name": "Terlon - Montrabe", "public_transport": "platform", "ref": "38913", "ref:FR:aec31": "38913", "shelter": "yes", "source": "local_knowledge", "source:ref:aec31": "Conseil D\u00e9partemental de Haute-Garonne", "source:ref:aec31:date": "2021-08-19"}}, {"type": "node", "id": 466364042, "lat": 43.634298, "lon": 1.5005039, "tags": {"bench": "no", "bin": "no", "bus": "yes", "departures_board": "timetable", "highway": "bus_stop", "name": "Giratoire Truffaut", "public_transport": "platform", "ref": "21380", "ref:FR:Tisseo": "21380", "shelter": "no", "source": "survey", "source:date": "2017-09-04", "survey:date": "2020-01", "wheelchair": "no"}}, {"type": "node", "id": 466364069, "lat": 43.6338329, "lon": 1.5011087, "tags": {"bench": "no", "bin": "no", "bus": "yes", "departures_board": "timetable", "highway": "bus_stop", "name": "Giratoire Truffaut", "public_transport": "platform", "ref": "21381", "ref:FR:Tisseo": "21381", "shelter": "no", "source": "survey", "survey:date": "2020-01", "wheelchair": "yes"}}, {"type": "node", "id": 469832315, "lat": 43.6428918, "lon": 1.525217, "tags": {"bench": "yes", "highway": "bus_stop", "name": "Mairie - Montrabe", "passenger_information_display": "yes", "public_transport": "platform", "ref": "38911", "ref:FR:aec31": "38911", "shelter": "separate", "source": "local_knowledge", "source:ref:aec31": "Conseil D\u00e9partemental de Haute-Garonne", "source:ref:aec31:date": "2021-08-19"}}, {"type": "node", "id": 469832319, "lat": 43.6427136, "lon": 1.5262448, "tags": {"bench": "yes", "highway": "bus_stop", "name": "Mairie - Montrabe", "public_transport": "platform", "ref": "38912", "ref:FR:aec31": "38912", "shelter": "yes", "source:ref:aec31": "Conseil D\u00e9partemental de Haute-Garonne", "source:ref:aec31:date": "2021-08-19"}}, {"type": "node", "id": 469832322, "lat": 43.6430886, "lon": 1.5053675, "tags": {"bench": "no", "bin": "no", "highway": "bus_stop", "name": "Brunel - Montrabe", "public_transport": "platform", "ref": "38906", "ref:FR:aec31": "38906", "shelter": "no", "source": "local_knowledge", "source:ref:aec31": "Conseil D\u00e9partemental de Haute-Garonne", "source:ref:aec31:date": "2021-08-19", "tactile_paving": "no"}}, {"type": "node", "id": 470418600, "lat": 43.64429, "lon": 1.514067, "tags": {"bus": "yes", "highway": "bus_stop", "name": "Terlon - Montrabe", "public_transport": "platform", "ref": "38914", "ref:FR:aec31": "38914", "shelter": "yes", "source": "local_knowledge", "source:ref:aec31": "Conseil D\u00e9partemental de Haute-Garonne", "source:ref:aec31:date": "2021-08-19"}}, {"type": "node", "id": 470895892, "lat": 43.5982535, "lon": 1.4455446, "tags": {"bench": "yes", "bin": "yes", "bus": "yes", "check_date:shelter": "2024-09-23", "highway": "bus_stop", "lit": "yes", "name": "Carmes", "public_transport": "platform", "ref": "1012", "ref:FR:Tisseo": "1012", "shelter": "yes", "source": "http://data.grandtoulouse.fr", "source:date": "2012-04-04", "tactile_paving": "no", "wheelchair": "yes"}}, {"type": "node", "id": 470895894, "lat": 43.5952779, "lon": 1.4453709, "tags": {"bench": "yes", "bin": "no", "bus": "yes", "highway": "bus_stop", "mapillary": "217306796576883", "name": "Salin-Parlement", "public_transport": "platform", "ref": "6533", "ref:FR:Tisseo": "6533", "shelter": "yes", "source": "http://data.grandtoulouse.fr", "source:date": "2020", "tactile_paving": "no", "wheelchair": "yes"}}, {"type": "node", "id": 470895896, "lat": 43.5950705, "lon": 1.4448922, "tags": {"bench": "yes", "bin": "no", "bus": "yes", "highway": "bus_stop", "lit": "yes", "mapillary": "281319233723279", "name": "Salin-Parlement", "public_transport": "platform", "ref": "6530", "ref:FR:Tisseo": "6530", "shelter": "yes", "source": "http://data.grandtoulouse.fr", "source:date": "2020", "tactile_paving": "no", "wheelchair": "yes"}}, {"type": "node", "id": 471004536, "lat": 43.6107036, "lon": 1.4355239, "tags": {"bench": "yes", "bin": "yes", "bus": "yes", "highway": "bus_stop", "lit": "yes", "mapillary": "2918074788453531", "name": "Compans-Caffarelli", "public_transport": "platform", "ref": "2560", "ref:FR:Tisseo": "2560", "shelter": "yes", "source": "http://data.grandtoulouse.fr", "source:date": "2012-04-04", "tactile_paving": "no", "wheelchair": "yes"}}, {"type": "node", "id": 471004546, "lat": 43.610429, "lon": 1.4353565, "tags": {"bench": "no", "bin": "no", "bus": "yes", "highway": "bus_stop", "image": "https://storage9.openstreetcam.org/files/photo/2018/9/29/lth/1294107_10_568b0_29.jpg", "lit": "yes", "name": "Compans-Caffarelli", "public_transport": "platform", "ref": "36031", "ref:FR:Tisseo": "36031", "shelter": "yes", "source": "http://data.grandtoulouse.fr", "source:date": "2012-04-04", "survey:date": "2018-09-29", "tactile_paving": "no", "wheelchair": "yes"}}, {"type": "node", "id": 474675724, "lat": 43.6003749, "lon": 1.4444102, "tags": {"bench": "yes", "bin": "no", "bus": "yes", "highway": "bus_stop", "lit": "no", "name": "Esquirol", "passenger_information_display": "no", "public_transport": "platform", "ref": "2430", "ref:FR:Tisseo": "2430", "ref:FR:aec31": "61038", "shelter": "yes", "source": "http://data.grandtoulouse.fr", "source:date": "04/04/2012", "source:ref:aec31": "Conseil D\u00e9partemental de Haute-Garonne", "source:ref:aec31:date": "2020-09-24", "tactile_paving": "no", "wheelchair": "yes"}}, {"type": "node", "id": 474675725, "lat": 43.6004372, "lon": 1.4439636, "tags": {"advertising": "poster_box", "bench": "yes", "bin": "yes", "bus": "yes", "highway": "bus_stop", "lit": "yes", "name": "Esquirol", "public_transport": "platform", "ref": "2431", "ref:FR:Tisseo": "2431", "ref:FR:aec31": "61238", "shelter": "yes", "source": "https://www.tisseo.fr", "source:date": "2017-09-04", "source:ref:aec31": "transport.data.gouv.fr", "source:ref:aec31:date": "2022-10-10", "tactile_paving": "no", "wheelchair": "yes"}}, {"type": "node", "id": 482421487, "lat": 43.5495377, "lon": 1.5384627, "tags": {"bench": "yes", "bin": "yes", "bus": "yes", "highway": "bus_stop", "name": "M\u00fbriers", "public_transport": "platform", "ref": "18440", "ref:FR:Tisseo": "18440", "shelter": "yes", "source": "https://data.toulouse-metropole.fr/explore/dataset/tisseo-gtfs/information/", "source:date": "2020-09-06", "tactile_paving": "no", "wheelchair": "yes"}}, {"type": "node", "id": 482421493, "lat": 43.5496005, "lon": 1.5383036, "tags": {"bench": "no", "bin": "no", "bus": "yes", "highway": "bus_stop", "name": "M\u00fbriers", "public_transport": "platform", "ref": "18441", "ref:FR:Tisseo": "18441", "shelter": "yes", "source": "https://data.toulouse-metropole.fr/explore/dataset/tisseo-gtfs/information/", "source:date": "2020-09-06", "tactile_paving": "no", "wheelchair": "yes"}}, {"type": "node", "id": 484696198, "lat": 43.569226, "lon": 1.5133896, "tags": {"bench": "no", "bin": "yes", "bus": "yes", "highway": "bus_stop", "name": "Cayras", "public_transport": "platform", "ref": "18221", "ref:FR:Tisseo": "18221", "shelter": "no", "source": "https://www.tisseo.fr", "source:date": "2017-09-04", "tactile_paving": "no", "wheelchair": "yes"}}, {"type": "node", "id": 485305432, "lat": 43.5495919, "lon": 1.5358268, "tags": {"bench": "yes", "bin": "yes", "bus": "yes", "highway": "bus_stop", "lit": "yes", "name": "Gameville", "public_transport": "platform", "ref": "18351", "ref:FR:Tisseo": "18351", "ref:FR:aec31": "50606", "shelter": "yes", "source": "http://data.grandtoulouse.fr", "source:date": "2012-04-04", "source:ref:aec31": "Conseil D\u00e9partemental de Haute-Garonne", "source:ref:aec31:date": "2019-04-01", "tactile_paving": "no", "wheelchair": "yes"}}, {"type": "node", "id": 501848604, "lat": 43.5530048, "lon": 1.5334623, "tags": {"bench": "yes", "bin": "no", "bus": "yes", "highway": "bus_stop", "name": "Mairie Saint-Orens", "public_transport": "platform", "ref": "18341", "ref:FR:Tisseo": "18341", "shelter": "yes", "source": "Tiss\u00e9o", "source:date": "2023-09-25", "wheelchair": "no"}}, {"type": "node", "id": 503196301, "lat": 43.5522609, "lon": 1.541677, "tags": {"bench": "no", "bin": "no", "bus": "yes", "highway": "bus_stop", "lit": "yes", "name": "Saint-Orens \u00c9glise", "public_transport": "platform", "ref": "18433", "ref:FR:Tisseo": "18433", "shelter": "no", "source": "https://data.toulouse-metropole.fr/explore/dataset/tisseo-gtfs/information/", "source:date": "2020-09-06", "tactile_paving": "no", "wheelchair": "yes"}}, {"type": "node", "id": 503196302, "lat": 43.5523111, "lon": 1.5419429, "tags": {"bench": "yes", "bin": "yes", "bus": "yes", "highway": "bus_stop", "lit": "no", "name": "Saint-Orens \u00c9glise", "public_transport": "platform", "ref": "18431", "ref:FR:Tisseo": "18431", "shelter": "yes", "source": "https://data.toulouse-metropole.fr", "source:date": "2015-10-19", "tactile_paving": "no", "wheelchair": "yes"}}, {"type": "node", "id": 503863155, "lat": 43.5693023, "lon": 1.5170594, "tags": {"advertising": "poster_box", "bench": "yes", "bin": "yes", "bus": "yes", "highway": "bus_stop", "lit": "no", "name": "Catala", "public_transport": "platform", "ref": "18230", "ref:FR:Tisseo": "18230", "shelter": "yes", "source": "https://www.tisseo.fr", "source:date": "2017-09-04", "tactile_paving": "no", "wheelchair": "yes"}}, {"type": "node", "id": 503863156, "lat": 43.5689737, "lon": 1.5127107, "tags": {"bench": "no", "bin": "no", "bus": "yes", "highway": "bus_stop", "lit": "no", "name": "Cayras", "public_transport": "platform", "ref": "18220", "ref:FR:Tisseo": "18220", "shelter": "no", "source": "https://www.tisseo.fr", "source:date": "2017-09-04", "tactile_paving": "no", "wheelchair": "yes"}}, {"type": "node", "id": 508350232, "lat": 43.5855411, "lon": 1.5287954, "tags": {"bench": "no", "bin": "yes", "bus": "yes", "highway": "bus_stop", "lit": "yes", "name": "Fonsegrives Centre", "passenger_information_display": "yes", "public_transport": "platform", "ref": "17871", "ref:FR:Tisseo": "17871", "ref:FR:aec31": "44505", "shelter": "no", "source": "https://www.tisseo.fr", "source:date": "2017-09-04", "source:ref:aec31": "Conseil D\u00e9partemental de Haute-Garonne", "source:ref:aec31:date": "2019-04-01", "tactile_paving": "no", "wheelchair": "yes"}}, {"type": "node", "id": 508366247, "lat": 43.5579257, "lon": 1.5689869, "tags": {"bench": "yes", "bin": "no", "bus": "yes", "highway": "bus_stop", "lit": "yes", "name": "Mompapou", "public_transport": "platform", "shelter": "yes", "tactile_paving": "no"}}, {"type": "node", "id": 508387856, "lat": 43.5513707, "lon": 1.5664584, "tags": {"bench": "yes", "bin": "no", "bus": "yes", "highway": "bus_stop", "lit": "yes", "name": "La Tuilerie", "public_transport": "platform", "ref": "25191", "ref:FR:Tisseo": "25191", "shelter": "yes", "source": "https://data.toulouse-metropole.fr/explore/dataset/tisseo-gtfs/information/", "source:date": "2020-08-31", "tactile_paving": "no", "wheelchair": "yes"}}, {"type": "node", "id": 510001476, "lat": 43.6329996, "lon": 1.5081217, "tags": {"bench": "no", "bus": "yes", "highway": "bus_stop", "name": "Le Chapitre", "public_transport": "platform", "ref": "21370", "ref:FR:Tisseo": "21370", "shelter": "no", "source": "https://data.toulouse-metropole.fr/explore/dataset/tisseo-gtfs/information/", "source:date": "2020-08-31", "wheelchair": "no"}}, {"type": "node", "id": 519719618, "lat": 43.5458109, "lon": 1.5101412, "tags": {"bench": "no", "bin": "no", "bus": "yes", "departures_board": "timetable", "highway": "bus_stop", "lit": "no", "name": "Tolosane", "public_transport": "platform", "ref": "18993", "ref:FR:Tisseo": "18993", "shelter": "no", "source": "https://www.tisseo.fr", "source:date": "2017-09-04", "tactile_paving": "no", "wheelchair": "yes"}}, {"type": "node", "id": 519720399, "lat": 43.5453515, "lon": 1.5103739, "tags": {"bench": "yes", "bin": "yes", "bus": "yes", "highway": "bus_stop", "lit": "no", "name": "Tolosane", "public_transport": "platform", "ref": "18992", "ref:FR:Tisseo": "18992", "shelter": "no", "source": "https://www.tisseo.fr", "source:date": "2017-09-04", "tactile_paving": "no", "wheelchair": "yes"}}, {"type": "node", "id": 520147039, "lat": 43.6098722, "lon": 1.5143153, "tags": {"advertising": "poster_box", "bench": "yes", "bin": "yes", "bus": "yes", "check_date": "2024-03-04", "departures_board": "timetable", "highway": "bus_stop", "lit": "no", "name": "Cypri\u00e9", "public_transport": "platform", "ref": "29600", "ref:FR:Tisseo": "29600", "shelter": "yes", "source": "survey", "tactile_paving": "no", "wheelchair": "yes"}}, {"type": "node", "id": 558922496, "lat": 43.5603463, "lon": 1.5300736, "tags": {"bench": "no", "bin": "no", "bus": "yes", "highway": "bus_stop", "lit": "no", "name": "Partana\u00efs", "old_name": "Sicard", "public_transport": "platform", "ref": "18390", "ref:FR:Tisseo": "18390", "shelter": "yes", "source": "http://data.grandtoulouse.fr", "source:date": "2012-04-04", "tactile_paving": "no", "wheelchair": "yes"}}, {"type": "node", "id": 558922505, "lat": 43.5604854, "lon": 1.5299203, "tags": {"bench": "yes", "bin": "yes", "bus": "yes", "highway": "bus_stop", "name": "Partana\u00efs", "old_name": "Sicard", "public_transport": "platform", "ref": "18391", "ref:FR:Tisseo": "18391", "shelter": "yes", "source": "http://data.grandtoulouse.fr", "source:date": "2012-04-04", "tactile_paving": "no", "wheelchair": "yes"}}, {"type": "node", "id": 558922527, "lat": 43.5594774, "lon": 1.5347567, "tags": {"bench": "no", "bin": "no", "bus": "yes", "highway": "bus_stop", "lit": "no", "name": "Coustou", "public_transport": "platform", "ref": "18400", "ref:FR:Tisseo": "18400", "shelter": "yes", "source": "http://data.grandtoulouse.fr", "source:date": "2012-04-04", "tactile_paving": "no", "wheelchair": "yes"}}, {"type": "node", "id": 558922529, "lat": 43.5597662, "lon": 1.5342669, "tags": {"bench": "yes", "bus": "yes", "highway": "bus_stop", "name": "Coustou", "public_transport": "platform", "ref": "18401", "ref:FR:Tisseo": "18401", "shelter": "yes", "source": "http://data.grandtoulouse.fr", "source:date": "2012-04-04", "wheelchair": "yes"}}, {"type": "node", "id": 558922566, "lat": 43.5581715, "lon": 1.5385563, "tags": {"bench": "no", "bin": "no", "bus": "yes", "highway": "bus_stop", "lit": "yes", "name": "Querqueille", "public_transport": "platform", "ref": "18410", "ref:FR:Tisseo": "18410", "shelter": "yes", "source": "http://data.grandtoulouse.fr", "source:date": "2012-04-04", "tactile_paving": "no", "wheelchair": "yes"}}, {"type": "node", "id": 558922569, "lat": 43.5582127, "lon": 1.5388175, "tags": {"bench": "yes", "bin": "yes", "bus": "yes", "highway": "bus_stop", "lit": "yes", "name": "Querqueille", "public_transport": "platform", "ref": "18411", "ref:FR:Tisseo": "18411", "shelter": "yes", "source": "http://data.grandtoulouse.fr", "source:date": "2012-04-04", "tactile_paving": "no", "wheelchair": "yes"}}, {"type": "node", "id": 579938393, "lat": 43.6431485, "lon": 1.4677202, "tags": {"advertising": "poster_box", "bench": "yes", "bin": "yes", "bus": "yes", "highway": "bus_stop", "name": "Atlanta", "public_transport": "platform", "ref": "6571", "ref:FR:Tisseo": "6571", "ref:FR:aec31": "61118", "shelter": "separate", "source": "https://www.tisseo.fr", "source:date": "2017-09-04", "source:ref:aec31": "Conseil D\u00e9partemental de Haute-Garonne", "source:ref:aec31:date": "2021-08-19", "wheelchair": "yes"}}, {"type": "node", "id": 579938661, "lat": 43.6424329, "lon": 1.4675068, "tags": {"advertising": "poster_box", "bench": "yes", "bin": "yes", "bus": "yes", "check_date": "2024-04-28", "highway": "bus_stop", "lit": "yes", "mapillary": "308482014000589", "name": "Atlanta", "public_transport": "platform", "ref": "6570", "ref:FR:Tisseo": "6570", "ref:FR:aec31": "61117", "shelter": "separate", "source:ref:aec31": "Conseil D\u00e9partemental de Haute-Garonne", "source:ref:aec31:date": "2021-08-19", "tactile_paving": "no", "wheelchair": "yes"}}, {"type": "node", "id": 582221175, "lat": 43.9638387, "lon": 1.5333501, "tags": {"highway": "bus_stop"}}, {"type": "node", "id": 582582752, "lat": 43.9833584, "lon": 1.5650918, "tags": {"highway": "bus_stop"}}, {"type": "node", "id": 596539674, "lat": 43.6070306, "lon": 1.4664934, "tags": {"bus": "yes", "highway": "bus_stop", "name": "Assalit", "public_transport": "platform", "ref": "230", "ref:FR:Tisseo": "230", "shelter": "no", "source": "http://data.grandtoulouse.fr", "source:date": "2012-04-04", "wheelchair": "yes"}}, {"type": "node", "id": 597646440, "lat": 43.6062247, "lon": 1.4628709, "tags": {"bench": "no", "bin": "no", "bus": "yes", "highway": "bus_stop", "name": "Savignac", "public_transport": "platform", "ref": "6590", "ref:FR:Tisseo": "6590", "shelter": "no", "source": "http://data.grandtoulouse.fr", "source:date": "2012-04-04", "tactile_paving": "no", "wheelchair": "no"}}, {"type": "node", "id": 597654752, "lat": 43.6053842, "lon": 1.4583914, "tags": {"bench": "no", "bus": "yes", "highway": "bus_stop", "name": "Providence", "public_transport": "platform", "ref": "5710", "ref:FR:Tisseo": "5710", "shelter": "no", "source": "https://data.toulouse-metropole.fr/explore/dataset/tisseo-gtfs/information/", "source:date": "2020-08-31", "wheelchair": "yes"}}, {"type": "node", "id": 599297259, "lat": 43.6326853, "lon": 1.4702472, "tags": {"bus": "yes", "highway": "bus_stop", "mapillary": "2926626324219763", "name": "Nicol", "pole": "yes", "public_transport": "platform", "ref": "4951", "ref:FR:Tisseo": "4951", "shelter": "no", "source": "http://data.grandtoulouse.fr", "source:date": "2012-04-04", "survey:date": "2018-09-01", "wheelchair": "yes"}}, {"type": "node", "id": 606937898, "lat": 43.5787552, "lon": 1.4964933, "tags": {"advertising": "poster_box", "bench": "yes", "bin": "yes", "bus": "yes", "highway": "bus_stop", "lit": "yes", "name": "La Plaine", "public_transport": "platform", "ref": "21701", "ref:FR:Tisseo": "21701", "shelter": "yes", "source": "https://www.tisseo.fr", "source:date": "2018-07", "tactile_paving": "no", "wheelchair": "yes"}}, {"type": "node", "id": 631816192, "lat": 43.554537, "lon": 1.5322481, "tags": {"bench": "yes", "bin": "yes", "bus": "yes", "highway": "bus_stop", "lit": "yes", "name": "Poste de Saint-Orens", "public_transport": "platform", "ref": "18331", "ref:FR:Tisseo": "18331", "ref:FR:aec31": "50610", "shelter": "yes", "source": "http://data.grandtoulouse.fr", "source:date": "2012-04-04", "source:ref:aec31": "Conseil D\u00e9partemental de Haute-Garonne", "source:ref:aec31:date": "2019-04-01", "tactile_paving": "no", "wheelchair": "yes"}}, {"type": "node", "id": 631816239, "lat": 43.5570559, "lon": 1.5423341, "tags": {"bench": "yes", "bin": "no", "bus": "yes", "highway": "bus_stop", "lit": "yes", "name": "Carab\u00e8nes", "public_transport": "platform", "ref": "18421", "ref:FR:Tisseo": "18421", "shelter": "yes", "source": "http://data.grandtoulouse.fr", "source:date": "2012-04-04", "tactile_paving": "no", "wheelchair": "yes"}}, {"type": "node", "id": 631816240, "lat": 43.556798, "lon": 1.5435296, "tags": {"bench": "yes", "bin": "yes", "bus": "yes", "highway": "bus_stop", "lit": "no", "name": "Carab\u00e8nes", "public_transport": "platform", "ref": "18420", "ref:FR:Tisseo": "18420", "shelter": "yes", "source": "http://data.grandtoulouse.fr", "source:date": "2012-04-04", "tactile_paving": "no", "wheelchair": "yes"}}, {"type": "node", "id": 638424874, "lat": 43.7036776, "lon": 1.8129098, "tags": {"addr:city": "Lavaur", "addr:postcode": "81500", "internet_access": "no", "name": "Lavaur", "network": "TER", "official_name": "Lavaur", "operator": "SNCF", "public_transport": "station", "railway": "station", "train": "yes", "uic_ref": "8761547", "wikidata": "Q3096865", "wikipedia": "fr:Gare de Lavaur"}}, {"type": "node", "id": 641131812, "lat": 43.5813672, "lon": 1.3891883, "tags": {"bus": "yes", "highway": "bus_stop", "name": "Pradettes", "public_transport": "platform", "ref": "4151", "ref:FR:Tisseo": "4151", "source": "https://data.toulouse-metropole.fr/explore/dataset/tisseo-gtfs/information/", "source:date": "2020-08-31", "wheelchair": "yes"}}, {"type": "node", "id": 642959556, "lat": 43.5788437, "lon": 1.3784529, "tags": {"bench": "yes", "bin": "yes", "bus": "yes", "highway": "bus_stop", "lit": "no", "name": "Vandel", "public_transport": "platform", "ref": "4290", "ref:FR:Tisseo": "4290", "ref:FR:aec31": "61111", "shelter": "no", "source": "http://data.grandtoulouse.fr", "source:date": "2012-04-04", "source:ref:aec31": "Conseil D\u00e9partemental de Haute-Garonne", "source:ref:aec31:date": "2021-08-19", "tactile_paving": "no", "wheelchair": "yes"}}, {"type": "node", "id": 642959557, "lat": 43.578838, "lon": 1.3783188, "tags": {"bench": "yes", "bin": "yes", "bus": "yes", "highway": "bus_stop", "lit": "no", "name": "Vandel", "public_transport": "platform", "ref": "4291", "ref:FR:Tisseo": "4291", "ref:FR:aec31": "61112", "shelter": "no", "source": "http://data.grandtoulouse.fr", "source:date": "2012-04-04", "source:ref:aec31": "Conseil D\u00e9partemental de Haute-Garonne", "source:ref:aec31:date": "2021-08-19", "tactile_paving": "no", "wheelchair": "yes"}}, {"type": "node", "id": 657890079, "lat": 43.5890015, "lon": 1.4570637, "tags": {"advertising": "poster_box", "advertising:animated": "no", "advertising:display_surface": "1.14*1.7", "advertising:luminous": "yes", "advertising:sides": "2", "advertising:size": "1.34*2", "advertising:support": "street_furniture:transit_shelter", "bench": "yes", "bin": "yes", "bus": "yes", "highway": "bus_stop", "lit": "yes", "name": "Demouilles", "public_transport": "platform", "ref": "1960", "ref:FR:Tisseo": "1960", "shelter": "yes", "source": "http://data.grandtoulouse.fr", "source:date": "2012-04-04", "tactile_paving": "no", "wheelchair": "yes"}}, {"type": "node", "id": 657890081, "lat": 43.589319, "lon": 1.4565704, "tags": {"advertising": "poster_box", "advertising:animated": "no", "advertising:display_surface": "1.14*1.7", "advertising:luminous": "yes", "advertising:sides": "2", "advertising:size": "1.34*2", "advertising:support": "street_furniture:transit_shelter", "bench": "yes", "bin": "yes", "bus": "yes", "highway": "bus_stop", "lit": "yes", "name": "Demouilles", "public_transport": "platform", "ref": "1961", "ref:FR:Tisseo": "1961", "shelter": "yes", "source": "http://data.grandtoulouse.fr", "source:date": "2012-04-04", "tactile_paving": "no", "wheelchair": "yes"}}, {"type": "node", "id": 657899312, "lat": 43.5910664, "lon": 1.4248391, "tags": {"bench": "no", "bin": "no", "bus": "yes", "highway": "bus_stop", "lit": "no", "name": "Valats", "public_transport": "platform", "ref": "7110", "ref:FR:Tisseo": "7110", "shelter": "yes", "source": "http://data.grandtoulouse.fr", "source:date": "2012-04-04", "tactile_paving": "no", "wheelchair": "no"}}, {"type": "node", "id": 657899315, "lat": 43.5911808, "lon": 1.4252221, "tags": {"bench": "yes", "bin": "yes", "bus": "yes", "highway": "bus_stop", "lit": "no", "name": "Valats", "public_transport": "platform", "ref": "7111", "ref:FR:Tisseo": "7111", "shelter": "yes", "source": "http://data.grandtoulouse.fr", "source:date": "2012-04-04", "tactile_paving": "no", "wheelchair": "yes"}}, {"type": "node", "id": 659543430, "lat": 43.5867309, "lon": 1.4066643, "tags": {"bench": "yes", "bin": "yes", "bus": "yes", "highway": "bus_stop", "lit": "yes", "name": "C\u00e9pi\u00e8re Rocade", "public_transport": "platform", "ref": "1170", "ref:FR:Tisseo": "1170", "shelter": "yes", "source": "http://data.grandtoulouse.fr", "source:date": "2012-04-04", "tactile_paving": "no", "wheelchair": "yes"}}, {"type": "node", "id": 659543431, "lat": 43.5864956, "lon": 1.4064577, "tags": {"bench": "yes", "bin": "yes", "bus": "yes", "highway": "bus_stop", "lit": "yes", "name": "C\u00e9pi\u00e8re Rocade", "public_transport": "platform", "ref": "1171", "ref:FR:Tisseo": "1171", "shelter": "yes", "source": "http://data.grandtoulouse.fr", "source:date": "2012-04-04", "tactile_paving": "no", "wheelchair": "yes"}}, {"type": "node", "id": 659543432, "lat": 43.5802574, "lon": 1.3958592, "tags": {"bus": "yes", "highway": "bus_stop", "image": "https://storage9.openstreetcam.org/files/photo/2018/9/12/lth/1289153_1_2b2cd_28.jpg", "name": "\u00c9cole D'Architecture", "public_transport": "platform", "ref": "3611", "ref:FR:Tisseo": "3611", "shelter": "yes", "source": "http://data.grandtoulouse.fr", "source:date": "2012-04-04", "survey:date": "2018-09-12", "wheelchair": "yes"}}, {"type": "node", "id": 659543433, "lat": 43.5800008, "lon": 1.3953092, "tags": {"bus": "yes", "highway": "bus_stop", "name": "\u00c9cole D'Architecture", "public_transport": "platform", "ref": "3610", "ref:FR:Tisseo": "3610", "source": "http://data.grandtoulouse.fr", "source:date": "2012-04-04", "wheelchair": "yes"}}, {"type": "node", "id": 659553724, "lat": 43.5888726, "lon": 1.4127729, "tags": {"bench": "yes", "bin": "yes", "bus": "yes", "highway": "bus_stop", "lit": "yes", "name": "Corneille", "public_transport": "platform", "ref": "1671", "ref:FR:Tisseo": "1671", "shelter": "yes", "source": "http://data.grandtoulouse.fr", "source:date": "2012-04-04", "tactile_paving": "no", "wheelchair": "yes"}}, {"type": "node", "id": 661008615, "lat": 43.5809606, "lon": 1.4380674, "tags": {"bench": "yes", "bin": "yes", "bus": "yes", "highway": "bus_stop", "lit": "no", "name": "Daste", "network": "Tiss\u00e9o", "network:wikidata": "Q3529461", "operator": "Tiss\u00e9o", "public_transport": "platform", "ref": "2130", "ref:FR:Tisseo": "2130", "ref:FR:aec31": "61281", "shelter": "yes", "source": "http://data.grandtoulouse.fr", "source:date": "2012-04-04", "source:ref:aec31": "transport.data.gouv.fr", "source:ref:aec31:date": "2022-10-10", "tactile_paving": "no", "wheelchair": "yes"}}, {"type": "node", "id": 661008616, "lat": 43.581748, "lon": 1.4388318, "tags": {"bench": "yes", "bin": "yes", "bus": "yes", "highway": "bus_stop", "lit": "yes", "name": "Daste", "network": "Tiss\u00e9o", "network:wikidata": "Q3529461", "operator": "Tiss\u00e9o", "public_transport": "platform", "ref": "2131", "ref:FR:Tisseo": "2131", "ref:FR:aec31": "61282", "shelter": "separate", "source": "http://data.grandtoulouse.fr", "source:date": "2012-04-04", "source:ref:aec31": "Conseil D\u00e9partemental de Haute-Garonne", "source:ref:aec31:date": "2020-09-24", "tactile_paving": "no", "wheelchair": "yes"}}, {"type": "node", "id": 661008627, "lat": 43.5845089, "lon": 1.4320207, "tags": {"bench": "no", "bin": "no", "bus": "yes", "highway": "bus_stop", "layer": "1", "name": "Stadium Ouest", "public_transport": "platform", "ref": "2581", "ref:FR:Tisseo": "2581", "shelter": "no", "source": "https://www.tisseo.fr", "source:date": "2017-09-04", "tactile_paving": "no", "wheelchair": "yes"}}, {"type": "node", "id": 661008629, "lat": 43.5843486, "lon": 1.4322438, "tags": {"bench": "no", "bin": "no", "bus": "yes", "highway": "bus_stop", "layer": "1", "lit": "yes", "name": "Stadium Ouest", "public_transport": "platform", "ref": "2580", "ref:FR:Tisseo": "2580", "shelter": "no", "source": "https://www.tisseo.fr", "source:date": "2012-04-04", "tactile_paving": "no", "wheelchair": "yes"}}, {"type": "node", "id": 661008630, "lat": 43.5841328, "lon": 1.4368383, "tags": {"bench": "no", "bin": "no", "bus": "yes", "highway": "bus_stop", "layer": "1", "name": "Stadium Est", "public_transport": "platform", "ref": "2590", "ref:FR:Tisseo": "2590", "shelter": "no", "source": "https://www.tisseo.fr", "source:date": "2017-09-04", "tactile_paving": "no", "wheelchair": "yes"}}, {"type": "node", "id": 661008631, "lat": 43.5842942, "lon": 1.4366281, "tags": {"bench": "no", "bin": "no", "bus": "yes", "highway": "bus_stop", "layer": "1", "lit": "yes", "name": "Stadium Est", "public_transport": "platform", "ref": "2591", "ref:FR:Tisseo": "2591", "shelter": "no", "source": "https://www.tisseo.fr", "source:date": "2017-09-04", "tactile_paving": "no", "wheelchair": "yes"}}, {"type": "node", "id": 661010440, "lat": 43.5774142, "lon": 1.436897, "tags": {"bench": "yes", "bus": "yes", "departures_board": "realtime", "highway": "bus_stop", "name": "Empalot Sud", "network": "Tiss\u00e9o", "network:wikidata": "Q3529461", "operator": "Tiss\u00e9o", "passenger_information_display": "yes", "public_transport": "platform", "ref": "2371", "ref:FR:Tisseo": "2371", "shelter": "yes", "source": "http://data.grandtoulouse.fr", "source:date": "2012-04-04", "wheelchair": "yes"}}, {"type": "node", "id": 661121577, "lat": 43.5903547, "lon": 1.4604583, "tags": {"bench": "no", "bin": "no", "bus": "yes", "highway": "bus_stop", "lit": "yes", "name": "Archives D\u00e9partementales", "public_transport": "platform", "ref": "2610", "ref:FR:Tisseo": "2610", "shelter": "no", "source": "https://www.tisseo.fr", "source:date": "2017-09-04", "tactile_paving": "no", "wheelchair": "yes"}}, {"type": "node", "id": 661125181, "lat": 43.5903914, "lon": 1.4606388, "tags": {"bench": "yes", "bin": "yes", "bus": "yes", "highway": "bus_stop", "lit": "yes", "name": "Archives D\u00e9partementales", "public_transport": "platform", "ref": "2611", "ref:FR:Tisseo": "2611", "shelter": "yes", "source": "https://www.tisseo.fr", "source:date": "2017-09-04", "tactile_paving": "no", "wheelchair": "yes"}}, {"type": "node", "id": 664498250, "lat": 43.5879611, "lon": 1.4100683, "tags": {"bus": "yes", "highway": "bus_stop", "name": "Coll\u00e8ge George Sand", "old_name": "Coll\u00e8ge de la C\u00e9pi\u00e8re", "public_transport": "platform", "ref": "1550", "ref:FR:Tisseo": "1550", "shelter": "yes", "source": "http://data.grandtoulouse.fr", "source:date": "2012-04-04", "tactile_paving": "no", "wheelchair": "yes"}}, {"type": "node", "id": 665892902, "lat": 43.5908436, "lon": 1.4147353, "tags": {"bench": "no", "bin": "no", "bus": "yes", "highway": "bus_stop", "lit": "no", "name": "Rue du 14 Juillet", "public_transport": "platform", "ref": "4671", "ref:FR:Tisseo": "4671", "shelter": "yes", "source": "https://data.toulouse-metropole.fr/explore/dataset/tisseo-gtfs/information/", "source:date": "2020-08-31", "tactile_paving": "no", "wheelchair": "yes"}}, {"type": "node", "id": 665892908, "lat": 43.5903929, "lon": 1.4148337, "tags": {"bench": "no", "bin": "no", "bus": "yes", "highway": "bus_stop", "lit": "no", "name": "Rue du 14 Juillet", "public_transport": "platform", "ref": "4670", "ref:FR:Tisseo": "4670", "shelter": "no", "source": "https://data.toulouse-metropole.fr/explore/dataset/tisseo-gtfs/information/", "source:date": "2020-08-31", "tactile_paving": "no", "wheelchair": "yes"}}, {"type": "node", "id": 666975843, "lat": 43.5795779, "lon": 1.3918988, "tags": {"bench": "yes", "bus": "yes", "highway": "bus_stop", "name": "Passerieu", "public_transport": "platform", "ref": "5251", "ref:FR:Tisseo": "5251", "shelter": "yes", "source": "http://data.grandtoulouse.fr", "source:date": "2012-04-04", "wheelchair": "yes"}}, {"type": "node", "id": 666975861, "lat": 43.579882, "lon": 1.391754, "tags": {"bench": "yes", "bin": "yes", "bus": "yes", "highway": "bus_stop", "name": "Passerieu", "public_transport": "platform", "ref": "5250", "ref:FR:Tisseo": "5250", "shelter": "yes", "source": "http://data.grandtoulouse.fr", "source:date": "2012-04-04", "tactile_paving": "no", "wheelchair": "yes"}}, {"type": "node", "id": 669563910, "lat": 43.6336527, "lon": 1.5275098, "tags": {"bus": "yes", "highway": "bus_stop", "name": "Impasse du Gazel", "public_transport": "platform", "source": "local_knowledge"}}, {"type": "node", "id": 675717384, "lat": 43.63648, "lon": 1.464151, "tags": {"advertising": "poster_box", "bench": "yes", "bin": "yes", "bus": "yes", "highway": "bus_stop", "lit": "yes", "name": "Lyc\u00e9e Raymond Naves", "public_transport": "platform", "ref": "4321", "ref:FR:Tisseo": "4321", "shelter": "yes", "source": "https://www.tisseo.fr", "source:date": "2017-09-04", "tactile_paving": "no", "wheelchair": "yes"}}, {"type": "node", "id": 675717390, "lat": 43.6366609, "lon": 1.4644828, "tags": {"advertising": "poster_box", "bench": "yes", "bin": "yes", "bus": "yes", "highway": "bus_stop", "lit": "yes", "name": "Lyc\u00e9e Raymond Naves", "public_transport": "platform", "ref": "4320", "ref:FR:Tisseo": "4320", "ref:FR:aec31": "61225", "shelter": "yes", "source": "https://www.tisseo.fr", "source:date": "2017-09-04", "source:ref:aec31": "Conseil D\u00e9partemental de Haute-Garonne", "source:ref:aec31:date": "2021-08-19", "tactile_paving": "no", "wheelchair": "yes"}}, {"type": "node", "id": 676905878, "lat": 43.6431049, "lon": 1.4605833, "tags": {"bench": "yes", "bin": "yes", "bus": "yes", "highway": "bus_stop", "lit": "yes", "mapillary": "221488166051895", "name": "Ebelot", "public_transport": "platform", "ref": "8201", "ref:FR:Tisseo": "8201", "shelter": "yes", "tactile_paving": "no", "wheelchair": "yes"}}, {"type": "node", "id": 676906604, "lat": 43.642977, "lon": 1.4621602, "tags": {"bench": "yes", "bin": "yes", "bus": "yes", "highway": "bus_stop", "lit": "yes", "mapillary": "1175279952917868", "name": "Ebelot", "public_transport": "platform", "ref": "8200", "ref:FR:Tisseo": "8200", "shelter": "yes", "tactile_paving": "no", "wheelchair": "yes"}}, {"type": "node", "id": 682054969, "lat": 43.5777313, "lon": 1.4857629, "tags": {"bench": "yes", "bin": "yes", "bus": "yes", "highway": "bus_stop", "lit": "yes", "name": "Parc Alalouf", "name:liO": "Clinique Languedoc - Toulouse", "public_transport": "platform", "ref": "7341", "ref:FR:Tisseo": "7341", "ref:FR:aec31": "61133", "shelter": "yes", "source": "http://data.grandtoulouse.fr", "source:date": "2012-04-04", "source:ref:aec31": "Conseil D\u00e9partemental de Haute-Garonne", "source:ref:aec31:date": "2019-04-01", "tactile_paving": "no", "wheelchair": "yes"}}, {"type": "node", "id": 686774218, "lat": 43.5757207, "lon": 1.4886886, "tags": {"advertising": "poster_box", "bench": "yes", "bin": "yes", "bus": "yes", "check_date:shelter": "2024-08-29", "highway": "bus_stop", "lit": "yes", "name": "Bajac", "public_transport": "platform", "ref": "851", "ref:FR:Tisseo": "851", "shelter": "yes", "source": "https://www.tisseo.fr", "source:date": "2017-09-04", "tactile_paving": "no", "wheelchair": "yes"}}, {"type": "node", "id": 686774245, "lat": 43.5755721, "lon": 1.4886864, "tags": {"bench": "yes", "bin": "yes", "bus": "yes", "check_date:shelter": "2024-08-29", "highway": "bus_stop", "lit": "yes", "name": "Bajac", "public_transport": "platform", "ref": "850", "ref:FR:Tisseo": "850", "shelter": "yes", "source": "https://data.toulouse-metropole.fr/explore/dataset/tisseo-gtfs/information/", "source:date": "2020-08-31", "tactile_paving": "no", "wheelchair": "yes"}}, {"type": "node", "id": 686774257, "lat": 43.5775782, "lon": 1.4857146, "tags": {"bench": "yes", "bin": "yes", "bus": "yes", "highway": "bus_stop", "lit": "yes", "name": "Parc Alalouf", "name:liO": "Clinique Languedoc - Toulouse", "public_transport": "platform", "ref": "7340", "ref:FR:Tisseo": "7340", "ref:FR:aec31": "61132", "shelter": "yes", "source": "http://data.grandtoulouse.fr", "source:date": "2012-04-04", "source:ref:aec31": "Conseil D\u00e9partemental de Haute-Garonne", "source:ref:aec31:date": "2021-08-19", "tactile_paving": "no", "wheelchair": "yes"}}, {"type": "node", "id": 692711251, "lat": 43.7153808, "lon": 1.4203003, "tags": {"bench": "yes", "bus": "yes", "highway": "bus_stop", "name": "Gratentour Gravette", "public_transport": "platform", "ref": "14251", "ref:FR:Tisseo": "14251", "shelter": "yes", "source": "https://data.toulouse-metropole.fr/explore/dataset/tisseo-gtfs/information/", "source:date": "2020-09-06", "wheelchair": "yes"}}, {"type": "node", "id": 704479026, "lat": 43.549707, "lon": 1.486379, "tags": {"bench": "yes", "bin": "no", "bus": "yes", "highway": "bus_stop", "lit": "yes", "mapillary": "220807936146576", "name": "Herm\u00e8s", "public_transport": "platform", "ref": "23120", "ref:FR:Tisseo": "23120", "shelter": "yes", "tactile_paving": "no", "wheelchair": "yes"}}, {"type": "node", "id": 704479209, "lat": 43.5510116, "lon": 1.4878314, "tags": {"bench": "no", "bin": "no", "bus": "yes", "highway": "bus_stop", "lit": "yes", "mapillary": "295452965466253", "name": "Th\u00e9ogone", "public_transport": "platform", "ref": "23130", "ref:FR:Tisseo": "23130", "shelter": "yes", "tactile_paving": "no", "wheelchair": "no"}}, {"type": "node", "id": 746790922, "lat": 43.7849892, "lon": 1.46974, "tags": {"bench": "yes", "covered": "yes", "highway": "bus_stop", "name": "Saraillou - Vacquiers", "public_transport": "platform", "ref": "56306", "ref:FR:aec31": "56306", "shelter": "yes", "source:ref:aec31": "Conseil D\u00e9partemental de Haute-Garonne", "source:ref:aec31:date": "2021-08-19"}}, {"type": "node", "id": 751970571, "lat": 43.5863786, "lon": 1.5782342, "tags": {"bench": "yes", "bin": "no", "bus": "yes", "highway": "bus_stop", "lit": "yes", "mapillary": "502952491133495", "name": "Montauriol", "public_transport": "platform", "ref": "17970", "ref:FR:Tisseo": "17970", "shelter": "yes", "source": "http://data.grandtoulouse.fr", "source:date": "2012-04-04", "survey:date": "2018-09-21", "tactile_paving": "no", "wheelchair": "yes"}}, {"type": "node", "id": 761072658, "lat": 43.5999842, "lon": 1.5069611, "tags": {"bench": "yes", "bin": "no", "bus": "yes", "highway": "bus_stop", "lit": "no", "name": "Cimeti\u00e8re Balma", "public_transport": "platform", "ref": "17710", "ref:FR:Tisseo": "17710", "shelter": "no", "source": "https://www.tisseo.fr", "source:date": "2017-09-04", "tactile_paving": "no", "wheelchair": "yes"}}, {"type": "node", "id": 767886650, "lat": 43.5988339, "lon": 1.4375296, "tags": {"bench": "no", "bin": "no", "bus": "yes", "description": "L7: Saint-Orens Centre Commercial", "highway": "bus_stop", "lit": "yes", "name": "Cours Dillon", "note": "Arr\u00eat ligne L7", "public_transport": "platform", "ref": "1728", "ref:FR:Tisseo": "1728", "shelter": "yes", "source": "survey", "source:date": "2020-11-22", "tactile_paving": "no", "wheelchair": "yes"}}, {"type": "node", "id": 767886671, "lat": 43.5987617, "lon": 1.4375182, "tags": {"bench": "yes", "bin": "yes", "bus": "yes", "description": "Arr\u00eat de D\u00e9pose", "highway": "bus_stop", "lit": "yes", "name": "Cours Dillon", "note": "Arr\u00eat de D\u00e9pose", "public_transport": "platform", "ref": "1721", "ref:FR:Tisseo": "1721", "shelter": "yes", "source": "survey", "source:date": "2020-11-22", "tactile_paving": "no"}}, {"type": "node", "id": 768544258, "lat": 43.5983914, "lon": 1.4336744, "tags": {"bench": "no", "bin": "yes", "bus": "yes", "highway": "bus_stop", "lit": "no", "name": "Olivier H\u00f4p. La Grave", "public_transport": "platform", "ref": "5120", "ref:FR:Tisseo": "5120", "shelter": "no", "source": "http://data.grandtoulouse.fr", "source:date": "2012-04-04", "tactile_paving": "no", "wheelchair": "yes"}}, {"type": "node", "id": 773940569, "lat": 43.6113407, "lon": 1.4395271, "tags": {"bench": "yes", "bin": "yes", "bus": "yes", "highway": "bus_stop", "image": "https://storage9.openstreetcam.org/files/photo/2018/9/29/lth/1294107_10_568b0_61.jpg", "lit": "yes", "mapillary": "2887331848145281", "name": "Arnaud Bernard", "public_transport": "platform", "ref": "210", "ref:FR:Tisseo": "210", "shelter": "yes", "source": "http://data.grandtoulouse.fr", "source:date": "2012-04-04", "survey:date": "2018-09-29", "tactile_paving": "no", "wheelchair": "yes"}}, {"type": "node", "id": 776077790, "lat": 43.6010658, "lon": 1.4520728, "tags": {"bench": "yes", "bin": "yes", "bus": "yes", "check_date:shelter": "2024-09-23", "highway": "bus_stop", "lit": "yes", "name": "Fran\u00e7ois Verdier", "network": "Tiss\u00e9o", "network:wikidata": "Q3529461", "operator": "Tiss\u00e9o", "public_transport": "platform", "ref": "6741", "ref:FR:Tisseo": "6741", "shelter": "yes", "source": "http://data.grandtoulouse.fr", "source:date": "2012-04-04", "tactile_paving": "no", "wheelchair": "yes"}}, {"type": "node", "id": 789693449, "lat": 43.5610466, "lon": 1.463275}, {"type": "node", "id": 789696857, "lat": 43.5609329, "lon": 1.4633512}, {"type": "node", "id": 789707928, "lat": 43.5608659, "lon": 1.4631636}, {"type": "node", "id": 789708242, "lat": 43.5609797, "lon": 1.4630863}, {"type": "node", "id": 803364324, "lat": 43.5682108, "lon": 1.4573678, "tags": {"bench": "yes", "bin": "no", "bus": "yes", "check_date": "2024-04-11", "highway": "bus_stop", "lit": "yes", "mapillary": "644743833170215", "name": "Caub\u00e8re", "pole": "no", "public_transport": "platform", "ref": "1061", "ref:FR:Tisseo": "1061", "shelter": "no", "source": "http://data.grandtoulouse.fr", "source:date": "2012-04-04", "tactile_paving": "no", "wheelchair": "yes"}}, {"type": "node", "id": 803392225, "lat": 43.5763151, "lon": 1.4511521, "tags": {"bench": "yes", "bin": "yes", "bus": "yes", "check_date:shelter": "2024-08-13", "highway": "bus_stop", "lit": "yes", "name": "Delmas", "public_transport": "platform", "ref": "1941", "ref:FR:Tisseo": "1941", "shelter": "yes", "source": "http://data.grandtoulouse.fr", "source:date": "2012-04-04", "tactile_paving": "no", "wheelchair": "yes"}}, {"type": "node", "id": 803408475, "lat": 43.5805647, "lon": 1.4492993, "tags": {"bench": "yes", "bin": "no", "bus": "yes", "check_date:shelter": "2024-08-12", "highway": "bus_stop", "lit": "yes", "name": "Saint-Agne SNCF", "public_transport": "platform", "ref": "3060", "ref:FR:Tisseo": "3060", "shelter": "yes", "source": "http://data.grandtoulouse.fr", "source:date": "2012-04-04", "tactile_paving": "no", "wheelchair": "yes"}}, {"type": "node", "id": 803408593, "lat": 43.5804982, "lon": 1.4495484, "tags": {"bench": "yes", "bin": "no", "bus": "yes", "check_date:shelter": "2024-08-12", "highway": "bus_stop", "lit": "yes", "name": "Saint-Agne SNCF", "public_transport": "platform", "ref": "3061", "ref:FR:Tisseo": "3061", "shelter": "yes", "source": "http://data.grandtoulouse.fr", "source:date": "2012-04-04", "tactile_paving": "no", "wheelchair": "yes"}}, {"type": "node", "id": 814130701, "lat": 43.6104536, "lon": 1.4789965, "tags": {"bench": "yes", "bin": "yes", "bus": "yes", "highway": "bus_stop", "lit": "yes", "name": "Surcouf", "public_transport": "platform", "ref": "6791", "ref:FR:Tisseo": "6791", "shelter": "yes", "source": "http://data.grandtoulouse.fr", "source:date": "2012-04-04", "tactile_paving": "no", "wheelchair": "yes"}}, {"type": "node", "id": 816993320, "lat": 43.6642449, "lon": 1.4843894, "tags": {"bus": "yes", "highway": "bus_stop", "name": "Condor", "public_transport": "platform", "ref": "10491", "ref:FR:Tisseo": "10491", "source": "http://data.grandtoulouse.fr", "source:date": "2012-04-04", "wheelchair": "no"}}, {"type": "node", "id": 816993327, "lat": 43.6658033, "lon": 1.4829451, "tags": {"bus": "yes", "highway": "bus_stop", "name": "S\u00e9oune", "public_transport": "platform", "ref": "10481", "ref:FR:Tisseo": "10481", "source": "http://data.grandtoulouse.fr", "source:date": "2012-04-04", "wheelchair": "no"}}, {"type": "node", "id": 816993333, "lat": 43.6665421, "lon": 1.4797451, "tags": {"bus": "yes", "highway": "bus_stop", "name": "Agout", "public_transport": "platform", "ref": "10471", "ref:FR:Tisseo": "10471", "source": "http://data.grandtoulouse.fr", "source:date": "2012-04-04", "wheelchair": "no"}}, {"type": "node", "id": 816993341, "lat": 43.6672936, "lon": 1.4767851, "tags": {"bus": "yes", "highway": "bus_stop", "name": "Pitchounelle", "public_transport": "platform", "ref": "10460", "ref:FR:Tisseo": "10460", "source": "http://data.grandtoulouse.fr", "source:date": "2012-04-04", "wheelchair": "no"}}, {"type": "node", "id": 816993347, "lat": 43.6669258, "lon": 1.4745598, "tags": {"bus": "yes", "highway": "bus_stop", "name": "Geai", "public_transport": "platform", "ref": "10450", "ref:FR:Tisseo": "10450", "source": "http://data.grandtoulouse.fr", "source:date": "2012-04-04", "wheelchair": "yes"}}, {"type": "node", "id": 816993363, "lat": 43.657841, "lon": 1.4893019, "tags": {"bench": "yes", "bin": "yes", "bus": "yes", "highway": "bus_stop", "lit": "no", "name": "Monts du Forez", "public_transport": "platform", "ref": "19411", "ref:FR:Tisseo": "19411", "shelter": "yes", "source": "http://data.grandtoulouse.fr", "source:date": "2012-04-04", "tactile_paving": "no", "wheelchair": "yes"}}, {"type": "node", "id": 816993371, "lat": 43.6586289, "lon": 1.487628, "tags": {"bench": "no", "bin": "no", "bus": "yes", "highway": "bus_stop", "lit": "no", "name": "Vents d'Autan", "public_transport": "platform", "ref": "19400", "ref:FR:Tisseo": "19400", "shelter": "no", "source": "https://data.toulouse-metropole.fr/explore/dataset/tisseo-gtfs/information/", "source:date": "2020-08-31", "tactile_paving": "no", "wheelchair": "yes"}}, {"type": "node", "id": 816993379, "lat": 43.6584183, "lon": 1.4844149, "tags": {"bus": "yes", "highway": "bus_stop", "name": "Grive", "public_transport": "platform", "ref": "10510", "ref:FR:Tisseo": "10510", "ref:FR:aec31": "56107", "source": "http://data.grandtoulouse.fr", "source:date": "2012-04-04", "source:ref:aec31": "Conseil D\u00e9partemental de Haute-Garonne", "source:ref:aec31:date": "2021-08-19", "wheelchair": "no"}}, {"type": "node", "id": 816993399, "lat": 43.6609719, "lon": 1.4835667, "tags": {"bus": "yes", "description": "Terminus du bus 40 pour son dernier trajet le soir au lieu de l'arr\u00eat 10501", "highway": "bus_stop", "name": "L'Union Malbou", "public_transport": "platform", "ref": "10503", "ref:FR:Tisseo": "10503", "source": "https://data.toulouse-metropole.fr/explore/dataset/tisseo-gtfs/information/", "source:date": "2020-08-31", "wheelchair": "yes"}}, {"type": "node", "id": 816993406, "lat": 43.6615061, "lon": 1.4837207, "tags": {"bus": "yes", "highway": "bus_stop", "name": "L'Union Malbou", "public_transport": "platform", "ref": "10501", "ref:FR:Tisseo": "10501", "survey:date": "2012-04-04", "wheelchair": "yes"}}, {"type": "node", "id": 816993430, "lat": 43.6515677, "lon": 1.4975534, "tags": {"bench": "yes", "bus": "yes", "highway": "bus_stop", "name": "Menton", "public_transport": "platform", "ref": "10271", "ref:FR:Tisseo": "10271", "shelter": "yes", "source": "https://www.tisseo.fr", "source:date": "2017-09-04", "wheelchair": "yes"}}, {"type": "node", "id": 816993440, "lat": 43.6522928, "lon": 1.4959612, "tags": {"bus": "yes", "highway": "bus_stop", "mapillary": "135040595314619", "name": "Vence", "public_transport": "platform", "ref": "19441", "ref:FR:Tisseo": "19441", "shelter": "yes", "source": "https://data.toulouse-metropole.fr/explore/dataset/tisseo-gtfs/information/", "source:date": "2020-08-31", "source:location": "BDOrtho IGN", "survey:date": "2019-02-09", "wheelchair": "no"}}, {"type": "node", "id": 816993447, "lat": 43.6537458, "lon": 1.4922846, "tags": {"bus": "yes", "highway": "bus_stop", "name": "Aspin", "public_transport": "platform", "ref": "19430", "ref:FR:Tisseo": "19430", "source": "http://data.grandtoulouse.fr", "source:date": "2012-04-04", "wheelchair": "yes"}}, {"type": "node", "id": 816993453, "lat": 43.6542062, "lon": 1.4914939, "tags": {"bus": "yes", "highway": "bus_stop", "name": "Aspin", "public_transport": "platform", "ref": "19431", "ref:FR:Tisseo": "19431", "source": "http://data.grandtoulouse.fr", "source:date": "2012-04-04", "wheelchair": "yes"}}, {"type": "node", "id": 816993461, "lat": 43.6557488, "lon": 1.4913695, "tags": {"bench": "yes", "bin": "no", "bus": "yes", "highway": "bus_stop", "lit": "no", "name": "Piscine", "public_transport": "platform", "ref": "19421", "ref:FR:Tisseo": "19421", "shelter": "yes", "source": "http://data.grandtoulouse.fr", "source:date": "2012-04-04", "tactile_paving": "no", "wheelchair": "yes"}}, {"type": "node", "id": 816993493, "lat": 43.6482831, "lon": 1.480993, "tags": {"bus": "yes", "highway": "bus_stop", "name": "Orthez", "public_transport": "platform", "ref": "10281", "ref:FR:Tisseo": "10281", "source": "http://data.grandtoulouse.fr", "source:date": "2012-04-04", "source:location": "BDOrtho IGN", "wheelchair": "no"}}, {"type": "node", "id": 816993497, "lat": 43.6487475, "lon": 1.4843908, "tags": {"bus": "yes", "highway": "bus_stop", "name": "Saint-Jean Pied de Port", "public_transport": "platform", "ref": "10291", "ref:FR:Tisseo": "10291", "source": "http://data.grandtoulouse.fr", "source:date": "2012-04-04", "source:location": "BDOrtho IGN", "wheelchair": "yes"}}, {"type": "node", "id": 816993501, "lat": 43.6478979, "lon": 1.4896311, "tags": {"bench": "no", "bus": "yes", "highway": "bus_stop", "mapillary": "1255123551549082", "name": "Antibes", "public_transport": "platform", "ref": "10301", "ref:FR:Tisseo": "10301", "shelter": "yes", "source": "http://data.grandtoulouse.fr", "source:date": "2012-04-04", "tactile_paving": "no", "wheelchair": "no"}}, {"type": "node", "id": 816993503, "lat": 43.6485306, "lon": 1.491793, "tags": {"bus": "yes", "highway": "bus_stop", "mapillary": "1440385116320110", "name": "Mandelieu", "pole": "yes", "public_transport": "platform", "ref": "10311", "ref:FR:Tisseo": "10311", "shelter": "no", "source": "http://data.grandtoulouse.fr", "source:date": "2012-04-04", "survey:date": "2019-02-09", "wheelchair": "yes"}}, {"type": "node", "id": 816993505, "lat": 43.6494544, "lon": 1.4962941, "tags": {"bus": "yes", "highway": "bus_stop", "mapillary": "310103287348834", "name": "Grasse", "public_transport": "platform", "ref": "10321", "ref:FR:Tisseo": "10321", "shelter": "yes", "source": "http://data.grandtoulouse.fr", "source:date": "2012-04-04", "survey:date": "2019-02-09", "wheelchair": "no"}}, {"type": "node", "id": 816993551, "lat": 43.6475247, "lon": 1.4708556, "tags": {"advertising": "poster_box", "bench": "yes", "bin": "yes", "bus": "yes", "highway": "bus_stop", "name": "Saint-Caprais", "public_transport": "platform", "ref": "19070", "ref:FR:Tisseo": "19070", "shelter": "yes", "source": "https://www.tisseo.fr", "source:date": "2017-09-04", "tactile_paving": "no", "wheelchair": "yes"}}, {"type": "node", "id": 816993557, "lat": 43.6463803, "lon": 1.4753686, "tags": {"bus": "yes", "highway": "bus_stop", "name": "La Palme", "public_transport": "platform", "ref": "10250", "ref:FR:Tisseo": "10250", "shelter": "no", "source": "http://data.grandtoulouse.fr", "source:date": "2012-04-04", "wheelchair": "no"}}, {"type": "node", "id": 816993562, "lat": 43.6483491, "lon": 1.4735238, "tags": {"bench": "no", "bus": "yes", "highway": "bus_stop", "name": "Cerb\u00e8re", "public_transport": "platform", "ref": "10240", "ref:FR:Tisseo": "10240", "shelter": "no", "source": "https://www.tisseo.fr", "source:date": "2017-09-04", "wheelchair": "no"}}, {"type": "node", "id": 816993583, "lat": 43.6494339, "lon": 1.4739567, "tags": {"bus": "yes", "highway": "bus_stop", "name": "Val d'Aran", "public_transport": "platform", "ref": "10230", "ref:FR:Tisseo": "10230", "source": "http://data.grandtoulouse.fr", "source:date": "2012-04-04", "wheelchair": "no"}}, {"type": "node", "id": 816993588, "lat": 43.6499422, "lon": 1.4768617, "tags": {"bus": "yes", "highway": "bus_stop", "name": "Bidart", "public_transport": "platform", "ref": "10220", "ref:FR:Tisseo": "10220", "source": "http://data.grandtoulouse.fr", "source:date": "2012-04-04", "wheelchair": "no"}}, {"type": "node", "id": 816993594, "lat": 43.6513464, "lon": 1.4794531, "tags": {"bench": "yes", "bus": "yes", "highway": "bus_stop", "name": "Roncevaux", "public_transport": "platform", "ref": "10211", "ref:FR:Tisseo": "10211", "shelter": "yes", "source": "http://data.grandtoulouse.fr", "source:date": "2012-04-04", "wheelchair": "yes"}}, {"type": "node", "id": 816993615, "lat": 43.6500617, "lon": 1.472333, "tags": {"advertising": "poster_box", "bench": "yes", "bin": "yes", "bus": "yes", "highway": "bus_stop", "name": "Bayonne", "public_transport": "platform", "ref": "10110", "ref:FR:Tisseo": "10110", "shelter": "yes", "source": "https://www.tisseo.fr", "source:date": "2017-09-04", "wheelchair": "yes"}}, {"type": "node", "id": 816993625, "lat": 43.6491695, "lon": 1.4712085, "tags": {"advertising": "poster_box", "bench": "yes", "bus": "yes", "highway": "bus_stop", "name": "Bayonne", "public_transport": "platform", "ref": "10111", "ref:FR:Tisseo": "10111", "shelter": "yes", "source": "https://www.tisseo.fr", "source:date": "2017-09-04", "wheelchair": "yes"}}, {"type": "node", "id": 816993652, "lat": 43.6559427, "lon": 1.4784432, "tags": {"advertising": "poster_box", "bench": "yes", "bin": "yes", "bus": "yes", "highway": "bus_stop", "mapillary": "310374523935487", "name": "Centre Commercial L'Union", "passenger_information_display": "yes", "public_transport": "platform", "ref": "10163", "ref:FR:Tisseo": "10163", "ref:FR:aec31": "56109", "shelter": "yes", "source:ref:aec31": "Conseil D\u00e9partemental de Haute-Garonne", "source:ref:aec31:date": "2021-08-19", "survey:date": "2018-10-05", "wheelchair": "yes"}}, {"type": "node", "id": 816993655, "lat": 43.6557205, "lon": 1.4813378, "tags": {"bus": "yes", "highway": "bus_stop", "mapillary": "1118515901951309", "name": "L'Union Grande Halle", "passenger_information_display": "yes", "public_transport": "platform", "ref": "10181", "ref:FR:Tisseo": "10181", "shelter": "yes", "survey:date": "2018-09-24", "wheelchair": "yes"}}, {"type": "node", "id": 816993660, "lat": 43.6534088, "lon": 1.4847403, "tags": {"bench": "no", "bus": "yes", "highway": "bus_stop", "mapillary": "824863254773897", "name": "Montcalm", "public_transport": "platform", "ref": "10192", "ref:FR:Tisseo": "10192", "shelter": "no", "survey:date": "2018-12-27", "wheelchair": "yes"}}, {"type": "node", "id": 816993666, "lat": 43.6521694, "lon": 1.4833595, "tags": {"bench": "no", "bin": "no", "bus": "yes", "highway": "bus_stop", "name": "Biarritz", "public_transport": "platform", "ref": "10200", "ref:FR:Tisseo": "10200", "shelter": "yes", "source": "http://data.grandtoulouse.fr", "source:date": "2012-04-04", "wheelchair": "no"}}, {"type": "node", "id": 816993685, "lat": 43.6583431, "lon": 1.4766372, "tags": {"bus": "yes", "highway": "bus_stop", "mapillary": "2977250999223078", "name": "Myosotis", "pole": "yes", "public_transport": "platform", "ref": "10101", "ref:FR:Tisseo": "10101", "shelter": "no", "source": "http://data.grandtoulouse.fr", "source:date": "2012-04-04", "survey:date": "2018-10-10", "wheelchair": "no"}}, {"type": "node", "id": 816993692, "lat": 43.659212, "lon": 1.4781808, "tags": {"bus": "yes", "highway": "bus_stop", "mapillary": "4343580778994570", "name": "C\u00e8dres", "pole": "yes", "public_transport": "platform", "ref": "10410", "ref:FR:Tisseo": "10410", "shelter": "no", "source": "https://data.toulouse-metropole.fr/explore/dataset/tisseo-gtfs/information/", "source:date": "2020-08-31", "source:location": "BDOrtho IGN", "survey:date": "2018-10-10", "wheelchair": "no"}}, {"type": "node", "id": 816993699, "lat": 43.661603, "lon": 1.4759934, "tags": {"bus": "yes", "highway": "bus_stop", "name": "C\u00f4te de Cornaudric", "public_transport": "platform", "ref": "10421", "ref:FR:Tisseo": "10421", "source": "http://data.grandtoulouse.fr", "source:date": "2012-04-04", "wheelchair": "yes"}}, {"type": "node", "id": 816993709, "lat": 43.6637792, "lon": 1.4737301, "tags": {"bus": "yes", "highway": "bus_stop", "name": "Tourterelles", "public_transport": "platform", "ref": "10441", "ref:FR:Tisseo": "10441", "source": "http://data.grandtoulouse.fr", "source:date": "2012-04-04", "wheelchair": "yes"}}, {"type": "node", "id": 816993718, "lat": 43.6630418, "lon": 1.4744107, "tags": {"bus": "yes", "highway": "bus_stop", "name": "Jasmin", "public_transport": "platform", "ref": "10430", "ref:FR:Tisseo": "10430", "source": "http://data.grandtoulouse.fr", "source:date": "2012-04-04", "source:location": "ToulouseMetropole - Orthophotoplan 2017", "wheelchair": "yes"}}, {"type": "node", "id": 816993739, "lat": 43.6654115, "lon": 1.4726588, "tags": {"bus": "yes", "highway": "bus_stop", "name": "Cornaudric", "public_transport": "platform", "ref": "10791", "ref:FR:Tisseo": "10791", "source": "http://data.grandtoulouse.fr", "source:date": "2012-04-04", "wheelchair": "no"}}, {"type": "node", "id": 816993742, "lat": 43.6641367, "lon": 1.4715728, "tags": {"bus": "yes", "highway": "bus_stop", "name": "Azal\u00e9es", "public_transport": "platform", "ref": "10781", "ref:FR:Tisseo": "10781", "source": "http://data.grandtoulouse.fr", "source:date": "2012-04-04", "wheelchair": "yes"}}, {"type": "node", "id": 816993746, "lat": 43.6559223, "lon": 1.4709881, "tags": {"bus": "yes", "highway": "bus_stop", "name": "Mimosas", "public_transport": "platform", "ref": "28800", "ref:FR:Tisseo": "28800", "shelter": "no", "source": "https://data.toulouse-metropole.fr/explore/dataset/tisseo-gtfs/information/", "source:date": "2020-08-31", "wheelchair": "yes"}}, {"type": "node", "id": 816993753, "lat": 43.6571198, "lon": 1.4706136, "tags": {"alt_name": "L'Union - Acacias", "bus": "yes", "highway": "bus_stop", "name": "Acacias", "old_name": "Fontanelles", "public_transport": "platform", "ref": "10131", "ref:FR:Tisseo": "10131", "source": "https://data.toulouse-metropole.fr/explore/dataset/tisseo-gtfs/information/", "source:date": "2020-08-31", "wheelchair": "yes"}}, {"type": "node", "id": 816993759, "lat": 43.6566378, "lon": 1.4731261, "tags": {"bus": "yes", "highway": "bus_stop", "mapillary": "316042916539891", "name": "Roses", "pole": "yes", "public_transport": "platform", "ref": "10140", "ref:FR:Tisseo": "10140", "shelter": "no", "source": "http://data.grandtoulouse.fr", "source:date": "2012-04-04", "survey:date": "2018-10-10", "wheelchair": "no"}}, {"type": "node", "id": 816993816, "lat": 43.6593819, "lon": 1.4705362, "tags": {"bus": "yes", "highway": "bus_stop", "name": "Violette", "public_transport": "platform", "ref": "10772", "ref:FR:Tisseo": "10772", "shelter": "yes", "source": "https://data.toulouse-metropole.fr/explore/dataset/tisseo-gtfs/information/", "source:date": "2020-08-31", "wheelchair": "yes"}}, {"type": "node", "id": 817281476, "lat": 43.6501667, "lon": 1.5023656, "tags": {"bench": "yes", "bus": "yes", "highway": "bus_stop", "name": "Saint-Tropez", "public_transport": "platform", "ref": "19461", "ref:FR:Tisseo": "19461", "shelter": "yes", "source": "https://www.tisseo.fr", "source:date": "2017-09-04", "wheelchair": "yes"}}, {"type": "node", "id": 817281482, "lat": 43.6493973, "lon": 1.504148, "tags": {"bench": "no", "bin": "yes", "bus": "yes", "highway": "bus_stop", "lit": "no", "name": "Calic\u00e9o", "public_transport": "platform", "ref": "19471", "ref:FR:Tisseo": "19471", "shelter": "no", "source": "https://www.tisseo.fr", "source:date": "2012-04-04", "tactile_paving": "no", "wheelchair": "yes"}}, {"type": "node", "id": 817281484, "lat": 43.6539229, "lon": 1.503818, "tags": {"bench": "yes", "bus": "yes", "highway": "bus_stop", "name": "A\u00e7ores", "public_transport": "platform", "ref": "10350", "ref:FR:Tisseo": "10350", "shelter": "yes", "source": "https://www.tisseo.fr", "source:date": "2017-09-04", "wheelchair": "yes"}}, {"type": "node", "id": 817281490, "lat": 43.6538482, "lon": 1.5071493, "tags": {"bench": "yes", "bus": "yes", "highway": "bus_stop", "name": "Ren\u00e9e Aspe", "public_transport": "platform", "ref": "10361", "ref:FR:Tisseo": "10361", "shelter": "yes", "source": "https://www.tisseo.fr", "source:date": "2017-09-04", "wheelchair": "yes"}}, {"type": "node", "id": 817281495, "lat": 43.6541519, "lon": 1.5105786, "tags": {"bench": "yes", "bus": "yes", "highway": "bus_stop", "name": "Flotis", "public_transport": "platform", "ref": "10371", "ref:FR:Tisseo": "10371", "shelter": "yes", "source": "https://www.tisseo.fr", "source:date": "2017-09-04", "wheelchair": "no"}}, {"type": "node", "id": 817281510, "lat": 43.6536159, "lon": 1.4992167, "tags": {"bench": "yes", "bus": "yes", "highway": "bus_stop", "name": "Dancelle", "public_transport": "platform", "ref": "10331", "ref:FR:Tisseo": "10331", "shelter": "yes", "source": "https://www.tisseo.fr", "source:date": "2017-09-04", "wheelchair": "yes"}}, {"type": "node", "id": 817281515, "lat": 43.6463852, "lon": 1.4784904, "tags": {"bus": "yes", "highway": "bus_stop", "name": "La Franqui", "public_transport": "platform", "ref": "10261", "ref:FR:Tisseo": "10261", "source": "http://data.grandtoulouse.fr", "source:date": "2012-04-04", "source:location": "BDOrtho IGN", "wheelchair": "no"}}, {"type": "node", "id": 817281520, "lat": 43.6511041, "lon": 1.5000549, "tags": {"bus": "yes", "highway": "bus_stop", "name": "Vallauris", "public_transport": "platform", "ref": "19451", "ref:FR:Tisseo": "19451", "shelter": "yes", "source": "https://www.tisseo.fr", "source:date": "2017-09-04", "wheelchair": "yes"}}, {"type": "node", "id": 817281533, "lat": 43.6679571, "lon": 1.5021655, "tags": {"bus": "yes", "highway": "bus_stop", "name": "Harkis", "public_transport": "platform", "ref": "21730", "ref:FR:Tisseo": "21730", "source": "http://data.grandtoulouse.fr", "source:date": "2012-04-04", "wheelchair": "yes"}}, {"type": "node", "id": 817281534, "lat": 43.6616913, "lon": 1.5039286, "tags": {"bench": "no", "bus": "yes", "disused:ref:FR:Tisseo": "30093", "highway": "bus_stop", "public_transport": "platform", "shelter": "no", "wheelchair": "yes"}}, {"type": "node", "id": 817281536, "lat": 43.6654225, "lon": 1.5067443, "tags": {"alt_name": "F. Mitterrand", "bench": "no", "bin": "yes", "bus": "yes", "highway": "bus_stop", "name": "Fran\u00e7ois Mitterrand", "public_transport": "platform", "ref": "22182", "ref:FR:Tisseo": "22182", "shelter": "no", "source": "https://www.tisseo.fr", "source:date": "2017-09-04", "wheelchair": "yes"}}, {"type": "node", "id": 817281556, "lat": 43.6633269, "lon": 1.4901725, "tags": {"bus": "yes", "highway": "bus_stop", "name": "Verdale", "public_transport": "platform", "ref": "7601", "ref:FR:Tisseo": "7601", "source": "https://data.toulouse-metropole.fr/explore/dataset/tisseo-gtfs/information/", "source:date": "2020-09-06", "wheelchair": "yes"}}, {"type": "node", "id": 817281557, "lat": 43.6648402, "lon": 1.4931303, "tags": {"bus": "yes", "highway": "bus_stop", "name": "Estaquebiau", "public_transport": "platform", "ref": "21711", "ref:FR:Tisseo": "21711", "source": "http://data.grandtoulouse.fr", "source:date": "2012-04-04", "wheelchair": "no"}}, {"type": "node", "id": 817281562, "lat": 43.6649007, "lon": 1.4952377, "tags": {"bus": "yes", "highway": "bus_stop", "name": "N\u00e9grier", "public_transport": "platform", "ref": "21640", "ref:FR:Tisseo": "21640", "source": "http://data.grandtoulouse.fr", "source:date": "2012-04-04", "wheelchair": "no"}}, {"type": "node", "id": 817281573, "lat": 43.6666866, "lon": 1.4979822, "tags": {"bus": "yes", "highway": "bus_stop", "name": "Jean Moulin", "public_transport": "platform", "ref": "21720", "ref:FR:Tisseo": "21720", "source": "http://data.grandtoulouse.fr", "source:date": "2012-04-04", "wheelchair": "no"}}, {"type": "node", "id": 817281577, "lat": 43.668676, "lon": 1.5000837, "tags": {"bus": "yes", "highway": "bus_stop", "name": "\u00c9cole Saint-Jean", "public_transport": "platform", "ref": "10570", "ref:FR:Tisseo": "10570", "source": "Tiss\u00e9o", "source:date": "2022-08-29", "wheelchair": "no"}}, {"type": "node", "id": 817281582, "lat": 43.6608865, "lon": 1.4916193, "tags": {"bench": "yes", "bin": "no", "bus": "yes", "highway": "bus_stop", "name": "Mirabelles", "public_transport": "platform", "ref": "10981", "ref:FR:Tisseo": "10981", "ref:FR:aec31": "56112", "shelter": "yes", "source": "http://data.grandtoulouse.fr", "source:date": "2012-04-04", "source:ref:aec31": "Conseil D\u00e9partemental de Haute-Garonne", "source:ref:aec31:date": "2021-08-19", "tactile_paving": "no", "wheelchair": "no"}}, {"type": "node", "id": 817281589, "lat": 43.6621192, "lon": 1.495066, "tags": {"bench": "yes", "bin": "yes", "bus": "yes", "highway": "bus_stop", "name": "Coteaux", "pole": "yes", "public_transport": "platform", "ref": "10531", "ref:FR:Tisseo": "10531", "shelter": "yes", "source": "http://data.grandtoulouse.fr", "source:date": "2012-04-04", "tactile_paving": "no", "wheelchair": "no"}}, {"type": "node", "id": 817281594, "lat": 43.6638931, "lon": 1.5009367, "tags": {"bench": "yes", "bin": "yes", "bus": "yes", "highway": "bus_stop", "name": "Clair Matin", "public_transport": "platform", "ref": "10541", "ref:FR:Tisseo": "10541", "shelter": "yes", "source": "http://data.grandtoulouse.fr", "source:date": "2012-04-04", "tactile_paving": "no", "wheelchair": "yes"}}, {"type": "node", "id": 817281600, "lat": 43.6670712, "lon": 1.5025983, "tags": {"bus": "yes", "highway": "bus_stop", "name": "\u00c9glise Saint-Jean", "public_transport": "platform", "ref": "10561", "ref:FR:Tisseo": "10561", "source": "http://data.grandtoulouse.fr", "source:date": "2012-04-04", "wheelchair": "yes"}}, {"type": "node", "id": 817281605, "lat": 43.6599498, "lon": 1.4887735, "tags": {"bench": "yes", "bin": "yes", "bus": "yes", "highway": "bus_stop", "name": "Belle H\u00f4tesse", "public_transport": "platform", "ref": "10521", "ref:FR:Tisseo": "10521", "ref:FR:aec31": "56101", "shelter": "yes", "source": "http://data.grandtoulouse.fr", "source:date": "2012-04-04", "source:ref:aec31": "Conseil D\u00e9partemental de Haute-Garonne", "source:ref:aec31:date": "2021-08-19", "tactile_paving": "no", "wheelchair": "no"}}, {"type": "node", "id": 817476565, "lat": 43.6309762, "lon": 1.4452876, "tags": {"bus": "yes", "highway": "bus_stop", "line": "41", "name": "Kahn Klein", "public_transport": "platform", "ref": "3501", "ref:FR:Tisseo": "3501", "shelter": "yes", "source": "http://data.grandtoulouse.fr", "source:date": "2012-04-04", "wheelchair": "yes"}}, {"type": "node", "id": 817476573, "lat": 43.6298639, "lon": 1.4483244, "tags": {"bench": "yes", "bin": "no", "bus": "yes", "highway": "bus_stop", "line": "41", "lit": "yes", "name": "De Pisan", "public_transport": "platform", "ref": "3490", "ref:FR:Tisseo": "3490", "shelter": "yes", "source": "http://data.grandtoulouse.fr", "source:date": "2012-04-04", "tactile_paving": "no", "wheelchair": "yes"}}, {"type": "node", "id": 817476579, "lat": 43.6317779, "lon": 1.4437582, "tags": {"bench": "no", "bin": "yes", "bus": "yes", "highway": "bus_stop", "lit": "no", "name": "Loubiague", "public_transport": "platform", "ref": "4281", "ref:FR:Tisseo": "4281", "shelter": "no", "source": "https://www.tisseo.fr", "source:date": "2017-09-04", "tactile_paving": "no", "wheelchair": "no"}}, {"type": "node", "id": 817476580, "lat": 43.6335696, "lon": 1.4437208, "tags": {"advertising": "poster_box", "bench": "yes", "bin": "yes", "bus": "yes", "highway": "bus_stop", "name": "Renan", "public_transport": "platform", "ref": "1151", "ref:FR:Tisseo": "1151", "shelter": "yes", "source": "https://www.tisseo.fr", "source:date": "2017-09-04", "tactile_paving": "no", "wheelchair": "yes"}}, {"type": "node", "id": 817476584, "lat": 43.6348009, "lon": 1.443715, "tags": {"bench": "no", "bin": "yes", "bus": "yes", "highway": "bus_stop", "lit": "no", "name": "Voivenel", "public_transport": "platform", "ref": "7231", "ref:FR:Tisseo": "7231", "shelter": "no", "source": "https://www.tisseo.fr", "source:date": "2017-09-04", "tactile_paving": "no", "wheelchair": "yes"}}, {"type": "node", "id": 817476603, "lat": 43.6328798, "lon": 1.4504729, "tags": {"bench": "yes", "bin": "yes", "bus": "yes", "check_date:lit": "2023-05-06", "highway": "bus_stop", "line": "36", "lit": "no", "mapillary": "504381357269831", "name": "S\u00e9gla", "public_transport": "platform", "ref": "8091", "ref:FR:Tisseo": "8091", "shelter": "yes", "source": "http://data.grandtoulouse.fr", "source:date": "2012-04-04", "survey:date": "2018-08-02", "tactile_paving": "no", "wheelchair": "yes"}}, {"type": "node", "id": 817476608, "lat": 43.630721, "lon": 1.4495345, "tags": {"bench": "yes", "bin": "yes", "bus": "yes", "highway": "bus_stop", "line": "36", "lit": "yes", "name": "Maourine", "public_transport": "platform", "ref": "8081", "ref:FR:Tisseo": "8081", "shelter": "yes", "source": "http://data.grandtoulouse.fr", "source:date": "2012-04-04", "tactile_paving": "no", "wheelchair": "yes"}}, {"type": "node", "id": 817476619, "lat": 43.62913, "lon": 1.4497198, "tags": {"bench": "yes", "bin": "yes", "bus": "yes", "highway": "bus_stop", "line": "36", "lit": "yes", "mapillary": "488205172383934", "name": "Louin", "public_transport": "platform", "ref": "8070", "ref:FR:Tisseo": "8070", "shelter": "yes", "source": "http://data.grandtoulouse.fr", "source:date": "2012-04-04", "survey:date": "2018-08-02", "tactile_paving": "no", "wheelchair": "yes"}}, {"type": "node", "id": 817476625, "lat": 43.626751, "lon": 1.4535034, "tags": {"bus": "yes", "highway": "bus_stop", "line": "36", "mapillary": "1312360049159848", "name": "Rixens", "public_transport": "platform", "ref": "8011", "ref:FR:Tisseo": "8011", "shelter": "yes", "source": "http://data.grandtoulouse.fr", "source:date": "2012-04-04", "survey:date": "2018-08-02", "wheelchair": "yes"}}, {"type": "node", "id": 817476630, "lat": 43.6242278, "lon": 1.4546802, "tags": {"bench": "no", "bin": "no", "bus": "yes", "highway": "bus_stop", "line": "36", "lit": "no", "name": "Place de l'Arm\u00e9e d'Afrique", "public_transport": "platform", "ref": "8020", "ref:FR:Tisseo": "8020", "shelter": "no", "source": "http://data.grandtoulouse.fr", "source:date": "2012-04-04", "tactile_paving": "no", "wheelchair": "yes"}}, {"type": "node", "id": 817476650, "lat": 43.6355552, "lon": 1.4529064, "tags": {"bench": "yes", "bin": "yes", "bus": "yes", "fixme": "Toute la rue a \u00e9t\u00e9 refa\u00eete il semblerait, l'arr\u00eat de bus n'est plus au m\u00eame endroit. Nouvel emplacement : https://data.toulouse-metropole.fr/explore/dataset/arrets-itineraire/map/?location=20,43.63585,1.45296&basemap=jawg.streets", "highway": "bus_stop", "lit": "yes", "name": "Lanusse", "public_transport": "platform", "ref": "8100", "ref:FR:Tisseo": "8100", "route_ref": "36", "shelter": "yes", "source": "http://data.grandtoulouse.fr", "source:date": "2012-04-04", "tactile_paving": "no", "wheelchair": "yes"}}, {"type": "node", "id": 817476654, "lat": 43.6357229, "lon": 1.4527689, "tags": {"bench": "yes", "bin": "yes", "bus": "yes", "highway": "bus_stop", "lit": "yes", "mapillary": "945906705951637", "name": "Lanusse", "public_transport": "platform", "ref": "8101", "ref:FR:Tisseo": "8101", "route_ref": "19-36", "shelter": "yes", "source": "http://data.grandtoulouse.fr", "source:date": "2012-04-04", "survey:date": "2018-09-01", "tactile_paving": "no", "wheelchair": "yes"}}, {"type": "node", "id": 817476673, "lat": 43.6368989, "lon": 1.4528408, "tags": {"advertising": "poster_box", "bench": "yes", "bin": "yes", "bus": "yes", "highway": "bus_stop", "lit": "yes", "name": "Monloup", "public_transport": "platform", "ref": "8110", "ref:FR:Tisseo": "8110", "route_ref": "19;36", "shelter": "yes", "source": "http://data.grandtoulouse.fr", "source:date": "2012-04-04", "tactile_paving": "no", "wheelchair": "yes"}}, {"type": "node", "id": 817476675, "lat": 43.6375111, "lon": 1.4526923, "tags": {"advertising": "poster_box", "bench": "yes", "bin": "yes", "bus": "yes", "highway": "bus_stop", "lit": "no", "name": "Monloup", "network": "Tiss\u00e9o", "network:wikidata": "Q3529461", "operator": "Tiss\u00e9o", "public_transport": "platform", "ref": "8111", "ref:FR:Tisseo": "8111", "route_ref": "19;36", "shelter": "yes", "source": "http://data.grandtoulouse.fr", "source:date": "2012-04-04", "tactile_paving": "no", "wheelchair": "yes"}}, {"type": "node", "id": 817476696, "lat": 43.6403029, "lon": 1.4660352, "tags": {"advertising": "poster_box", "bench": "yes", "bin": "yes", "bus": "yes", "highway": "bus_stop", "lit": "yes", "name": "Th\u00e9odore de Banville", "public_transport": "platform", "ref": "6941", "ref:FR:Tisseo": "6941", "shelter": "yes", "source": "https://www.tisseo.fr", "source:date": "2017-09-04", "tactile_paving": "no", "wheelchair": "yes"}}, {"type": "node", "id": 817476701, "lat": 43.6382674, "lon": 1.465085, "tags": {"advertising": "poster_box", "bench": "yes", "bin": "yes", "bus": "yes", "highway": "bus_stop", "lit": "yes", "name": "Luchet", "public_transport": "platform", "ref": "4361", "ref:FR:Tisseo": "4361", "shelter": "yes", "source": "https://www.mapillary.com/map/im/1LtOm5PF2RFzBmFfS70QxQ", "source:date": "2020-08-31", "tactile_paving": "yes", "wheelchair": "yes"}}, {"type": "node", "id": 817476702, "lat": 43.6344415, "lon": 1.4600197, "tags": {"bench": "no", "bin": "yes", "bus": "yes", "check_date": "2025-01-10", "check_date:lit": "2025-01-10", "departures_board": "no", "highway": "bus_stop", "lit": "no", "mapillary": "737916280217414", "name": "Cabarette", "pole": "yes", "public_transport": "platform", "ref": "910", "ref:FR:Tisseo": "910", "route_ref": "19", "shelter": "no", "source": "http://data.grandtoulouse.fr", "source:date": "2012-04-04", "source:location": "Toulouse - Orthophotoplan 2017", "tactile_paving": "no", "wheelchair": "no"}}, {"type": "node", "id": 817476712, "lat": 43.6337321, "lon": 1.4573218, "tags": {"bench": "no", "bin": "no", "bus": "yes", "departures_board": "no", "highway": "bus_stop", "lit": "no", "mapillary": "331050248445285", "name": "Petit Castelet", "pole": "yes", "public_transport": "platform", "ref": "4430", "ref:FR:Tisseo": "4430", "route_ref": "19", "shelter": "no", "source": "http://data.grandtoulouse.fr", "source:date": "2012-04-04", "survey:date": "2018-09-01", "tactile_paving": "no", "wheelchair": "no"}}, {"type": "node", "id": 817476718, "lat": 43.6350254, "lon": 1.4554477, "tags": {"bench": "no", "bin": "no", "bus": "yes", "highway": "bus_stop", "lit": "no", "mapillary": "633742834688749", "name": "Pujibet", "pole": "yes", "public_transport": "platform", "ref": "8140", "ref:FR:Tisseo": "8140", "route_ref": "19", "shelter": "no", "source": "http://data.grandtoulouse.fr", "source:date": "2012-04-04", "survey:date": "2018-09-01", "tactile_paving": "no", "wheelchair": "yes"}}, {"type": "node", "id": 817476796, "lat": 43.6210687, "lon": 1.45838, "tags": {"bench": "no", "bin": "yes", "bus": "yes", "highway": "bus_stop", "line": "36", "lit": "no", "mapillary": "492194001834356", "name": "Hauts de Bonnefoy", "pole": "yes", "public_transport": "platform", "ref": "285", "ref:FR:Tisseo": "285", "shelter": "no", "source": "https://www.tisseo.fr", "source:date": "2017-09-04", "survey:date": "2018-08-02", "tactile_paving": "no", "wheelchair": "yes"}}, {"type": "node", "id": 817476804, "lat": 43.6210731, "lon": 1.4577066, "tags": {"advertising": "poster_box", "bench": "yes", "bin": "yes", "bus": "yes", "highway": "bus_stop", "lit": "yes", "name": "Hauts de Bonnefoy", "public_transport": "platform", "ref": "283", "ref:FR:Tisseo": "283", "shelter": "yes", "source": "https://www.tisseo.fr", "source:date": "2017-09-04", "tactile_paving": "no", "wheelchair": "yes"}}, {"type": "node", "id": 817476811, "lat": 43.6272714, "lon": 1.4609506, "tags": {"advertising": "poster_box", "bench": "yes", "bin": "yes", "bus": "yes", "highway": "bus_stop", "name": "Sainte-Augustine", "public_transport": "platform", "ref": "6481", "ref:FR:Tisseo": "6481", "shelter": "yes", "source": "https://www.tisseo.fr", "source:date": "2017-09-04", "wheelchair": "yes"}}, {"type": "node", "id": 817476831, "lat": 43.6283689, "lon": 1.463282, "tags": {"advertising": "poster_box", "bench": "yes", "bin": "yes", "bus": "yes", "highway": "bus_stop", "name": "Roubichou", "public_transport": "platform", "ref": "6181", "ref:FR:Tisseo": "6181", "shelter": "yes", "source": "https://www.tisseo.fr", "source:date": "2017-09-04", "wheelchair": "yes"}}, {"type": "node", "id": 817476836, "lat": 43.6298131, "lon": 1.4664351, "tags": {"advertising": "poster_box", "bench": "yes", "bin": "yes", "bus": "yes", "highway": "bus_stop", "name": "Amouroux", "public_transport": "platform", "ref": "371", "ref:FR:Tisseo": "371", "shelter": "yes", "source": "https://www.tisseo.fr", "source:date": "2017-09-04", "wheelchair": "yes"}}, {"type": "node", "id": 817476855, "lat": 43.6309919, "lon": 1.4620761, "tags": {"bench": "yes", "bin": "yes", "bus": "yes", "highway": "bus_stop", "lit": "yes", "name": "Jaffary", "name:oc": "Jaffary", "public_transport": "platform", "ref": "3691", "ref:FR:Tisseo": "3691", "shelter": "yes", "source": "https://www.mapillary.com/map/im/1LtOm5PF2RFzBmFfS70QxQ", "source:date": "2020-08-31", "source:name:oc": "ieo-bdtopoc", "tactile_paving": "no", "wheelchair": "yes"}}, {"type": "node", "id": 817476870, "lat": 43.6272606, "lon": 1.4590072, "tags": {"advertising": "poster_box", "bench": "yes", "bin": "yes", "bus": "yes", "highway": "bus_stop", "lit": "yes", "name": "Place Bila", "name:oc": "Pla\u00e7a Bila", "public_transport": "platform", "ref": "5431", "ref:FR:Tisseo": "5431", "shelter": "yes", "source": "https://www.tisseo.fr", "source:date": "2017-09-04", "source:name:oc": "ieo-bdtopoc", "tactile_paving": "no", "wheelchair": "yes"}}, {"type": "node", "id": 817476879, "lat": 43.6250145, "lon": 1.4585834, "tags": {"advertising": "poster_box", "bench": "yes", "bin": "yes", "bus": "yes", "check_date:shelter": "2024-09-23", "highway": "bus_stop", "lit": "yes", "name": "Barri\u00e8re de Croix-Daurade", "public_transport": "platform", "ref": "473", "ref:FR:Tisseo": "473", "shelter": "yes", "source": "https://www.tisseo.fr", "source:date": "2017-09-04", "tactile_paving": "no", "wheelchair": "yes"}}, {"type": "node", "id": 817476935, "lat": 43.6336636, "lon": 1.4632496, "tags": {"advertising": "poster_box", "bench": "yes", "bin": "yes", "bus": "yes", "highway": "bus_stop", "lit": "yes", "name": "Croix-Daurade", "public_transport": "platform", "ref": "1831", "ref:FR:Tisseo": "1831", "shelter": "yes", "source": "https://www.tisseo.fr", "source:date": "2017-09-04", "tactile_paving": "no", "wheelchair": "yes"}}, {"type": "node", "id": 817476939, "lat": 43.6342023, "lon": 1.4635487, "tags": {"advertising": "poster_box", "bench": "yes", "bin": "yes", "bus": "yes", "highway": "bus_stop", "lit": "yes", "name": "Croix-Daurade", "public_transport": "platform", "ref": "1830", "ref:FR:Tisseo": "1830", "shelter": "yes", "source": "https://www.tisseo.fr", "source:date": "2017-09-04", "tactile_paving": "no", "wheelchair": "yes"}},