{"version": 0.6, "generator": "Overpass API 0.7.62.5 1bd436f1", "osm3s": {"timestamp_osm_base": "2025-04-09T14:38:15Z", "copyright": "The data included in this document is from www.openstreetmap.org. The data is made available under ODbL."}, "elements": [{"type": "node", "id": 132640826, "lat": 41.7255289, "lon": 1.8218083, "tags": {"bus": "yes", "highway": "bus_stop", "local_ref": "L2, L3, L4", "name": "Pompeu Fabra", "name:ca": "Pompeu Fabra", "public_transport": "stop_position"}}, {"type": "node", "id": 247081332, "lat": 41.818001, "lon": 1.8962702, "tags": {"bench": "yes", "bin": "yes", "bus": "yes", "highway": "bus_stop", "name": "Sallent Sud", "name:ca": "Sallent Sud", "public_transport": "platform", "shelter": "yes"}}, {"type": "node", "id": 253947133, "lat": 41.7066955, "lon": 2.1560681, "tags": {"bus": "yes", "highway": "bus_stop", "name": "El Perer (Club de Golf)", "public_transport": "stop_position", "route_ref": "e9"}}, {"type": "node", "id": 253947164, "lat": 41.6881339, "lon": 2.1647438, "tags": {"bench": "yes", "bus": "yes", "covered": "yes", "highway": "bus_stop", "name": "Pla\u00e7a Dr. Robert (Ajuntament)", "name:ca": "Pla\u00e7a Dr. Robert (Ajuntament)", "operator": "Sagal\u00e9s", "public_transport": "stop_position", "ref": "2296", "route_ref": "e9 260 340", "shelter": "yes"}}, {"type": "node", "id": 253947181, "lat": 41.6686877, "lon": 2.1638212, "tags": {"bus": "yes", "highway": "bus_stop", "name": "C-59 - Prats de Baix", "public_transport": "stop_position", "ref": "3942", "route_ref": "e9 260"}}, {"type": "node", "id": 254625176, "lat": 41.6419868, "lon": 2.1600352, "tags": {"bus": "yes", "highway": "bus_stop", "name": "Passeig del Remei - C\u00e0mping", "name:ca": "Passeig del Remei - C\u00e0mping", "public_transport": "stop_position", "short_name": "P. Remei - C\u00e0mping"}}, {"type": "node", "id": 256680824, "lat": 41.4320735, "lon": 2.0791951, "tags": {"bus": "yes", "highway": "bus_stop", "name": "Carretera de Vallvidrera 325", "public_transport": "stop_position"}}, {"type": "node", "id": 256682364, "lat": 41.463643, "lon": 2.0697648, "tags": {"bus": "yes", "highway": "bus_stop", "local_ref": "L1", "name": "Pg. Olabarria, Pl. Charlie Rivel", "public_transport": "stop_position"}}, {"type": "node", "id": 256682376, "lat": 41.4718071, "lon": 2.0687924, "tags": {"bus": "yes", "highway": "bus_stop", "local_ref": "L2", "name": "Carretera de Vallvidrera, Vallseca", "public_transport": "stop_position"}}, {"type": "node", "id": 269582768, "lat": 41.8268836, "lon": 2.0941345, "tags": {"bus": "yes", "highway": "bus_stop", "name": "Montvi de Baix", "public_transport": "stop_position", "route_ref": "e9"}}, {"type": "node", "id": 269726057, "lat": 41.8092821, "lon": 2.0992242, "tags": {"bus": "yes", "highway": "bus_stop", "name": "Ctra. de Vic 11", "public_transport": "stop_position", "ref": "3881", "route_ref": "260", "shelter": "yes"}}, {"type": "node", "id": 301758681, "lat": 41.5588, "lon": 2.0246901, "tags": {"bus": "yes", "highway": "bus_stop", "name": "Vapor Universitari", "name:ca": "Vapor Universitari", "network": "Bus Urb\u00e0 de Terrassa", "operator": "TMESA", "public_transport": "stop_position", "ref:TMESA": "10303"}}, {"type": "node", "id": 305955916, "lat": 41.5546561, "lon": 2.0550944, "tags": {"bus": "yes", "highway": "bus_stop", "name": "Carretera de Sabadell", "name:ca": "Carretera de Sabadell", "network": "Bus Urb\u00e0 de Terrassa", "operator": "TMESA", "public_transport": "stop_position", "ref:TMESA": "12202"}}, {"type": "node", "id": 306682429, "lat": 41.5576601, "lon": 2.0354818, "tags": {"bus": "yes", "highway": "bus_stop", "name": "Montserrat", "name:ca": "Montserrat", "network": "Bus Urb\u00e0 de Terrassa", "operator": "TMESA", "public_transport": "stop_position", "ref:TMESA": "11902"}}, {"type": "node", "id": 307752828, "lat": 41.4757817, "lon": 2.0823694, "tags": {"bus": "yes", "highway": "bus_stop", "local_ref": "L8, L9", "name": "Salvador Espriu, La Mina (CAP)", "public_transport": "stop_position"}}, {"type": "node", "id": 307752956, "lat": 41.4817109, "lon": 2.0918465, "tags": {"bus": "yes", "highway": "bus_stop", "name": "T, Ferrurons / Adri\u00e1 Gual", "public_transport": "stop_position"}}, {"type": "node", "id": 307753009, "lat": 41.4812445, "lon": 2.0895213, "tags": {"bus": "yes", "highway": "bus_stop", "local_ref": "L1, L2, L8", "name": "Torrent de Ferrussons (Parc)", "public_transport": "stop_position"}}, {"type": "node", "id": 307753483, "lat": 41.4762407, "lon": 2.0857519, "tags": {"bus": "yes", "highway": "bus_stop", "local_ref": "L9", "name": "Francesc Maci\u00e0, Canig\u00f3", "public_transport": "stop_position"}}, {"type": "node", "id": 307869231, "lat": 41.4727477, "lon": 2.0738881, "tags": {"bus": "yes", "highway": "bus_stop", "local_ref": "L2", "name": "Manel Farr\u00e9s, Pere Serra", "name:ca": "Manel Farr\u00e9s, Pere Serra", "public_transport": "stop_position"}}, {"type": "node", "id": 307869271, "lat": 41.4725275, "lon": 2.0771395, "tags": {"bus": "yes", "highway": "bus_stop", "local_ref": "L2", "name": "Manel Farr\u00e9s, Rovellat", "name:ca": "Manel Farr\u00e9s, Rovellat", "public_transport": "stop_position"}}, {"type": "node", "id": 308130520, "lat": 41.4796673, "lon": 1.9495194, "tags": {"bus": "yes", "highway": "bus_stop", "name": "Masia Costablanca", "name:ca": "Masia Costablanca", "network": "AMB Bus Metropolit\u00e0", "operator": "\u00c0rea Metropolitana de Barcelona", "public_transport": "stop_position", "ref": "200196", "route_ref": "CS2", "url": "https://www.ambmobilitat.cat/Principales/DatosParada.aspx?cerca=1&CodParada=200196"}}, {"type": "node", "id": 308130621, "lat": 41.4787672, "lon": 1.9424082, "tags": {"bus": "yes", "highway": "bus_stop", "name": "Rotonda Costablanca", "name:ca": "Rotonda Costablanca", "network": "AMB Bus Metropolit\u00e0", "operator": "\u00c0rea Metropolitana de Barcelona", "public_transport": "stop_position", "ref": "200195", "route_ref": "CS2", "url": "https://www.ambmobilitat.cat/Principales/DatosParada.aspx?cerca=1&CodParada=200195"}}, {"type": "node", "id": 308130646, "lat": 41.4785917, "lon": 1.9419947, "tags": {"bus": "yes", "highway": "bus_stop", "name": "Rotonda Costablanca", "name:ca": "Rotonda Costablanca", "network": "AMB Bus Metropolit\u00e0", "operator": "\u00c0rea Metropolitana de Barcelona", "public_transport": "stop_position", "ref": "201368", "route_ref": "CS2", "url": "https://www.ambmobilitat.cat/Principales/DatosParada.aspx?cerca=1&CodParada=201368"}}, {"type": "node", "id": 308130741, "lat": 41.4760926, "lon": 1.9388492, "tags": {"bus": "yes", "highway": "bus_stop", "name": "FGC Martorell Vila | Castellbisbal", "name:ca": "FGC Martorell Vila | Castellbisbal", "network": "AMB Bus Metropolit\u00e0", "operator": "\u00c0rea Metropolitana de Barcelona", "public_transport": "stop_position", "ref": "201373", "route_ref": "CS2", "url": "https://www.ambmobilitat.cat/Principales/DatosParada.aspx?cerca=1&CodParada=201373"}}, {"type": "node", "id": 309570489, "lat": 41.5587343, "lon": 2.0380487, "tags": {"bus": "yes", "highway": "bus_stop", "name": "La Rioja", "name:ca": "La Rioja", "public_transport": "stop_position"}}, {"type": "node", "id": 310301165, "lat": 41.5681393, "lon": 2.0393269, "tags": {"bus": "yes", "highway": "bus_stop", "name": "Estaci\u00f3 Est", "name:ca": "Estaci\u00f3 Est", "network": "Bus Urb\u00e0 de Terrassa", "operator": "TMESA", "public_transport": "stop_position", "ref:TMESA": "14002"}}, {"type": "node", "id": 310301167, "lat": 41.5684191, "lon": 2.0389835, "tags": {"bus": "yes", "highway": "bus_stop", "name": "Estaci\u00f3 Est", "name:ca": "Estaci\u00f3 Est", "network": "Bus Urb\u00e0 de Terrassa", "operator": "TMESA", "public_transport": "stop_position", "ref:TMESA": "14001"}}, {"type": "node", "id": 310301258, "lat": 41.5787653, "lon": 2.0310398, "tags": {"bus": "yes", "highway": "bus_stop", "name": "Sant Lloren\u00e7", "name:ca": "Sant Lloren\u00e7", "network": "Bus Urb\u00e0 de Terrassa", "operator": "TMESA", "public_transport": "stop_position", "ref:TMESA": "1501"}}, {"type": "node", "id": 310301639, "lat": 41.5486066, "lon": 2.0280262, "tags": {"bus": "yes", "highway": "bus_stop", "name": "Pla\u00e7a de la Tecnologia", "name:ca": "Pla\u00e7a de la Tecnologia", "public_transport": "stop_position"}}, {"type": "node", "id": 311882118, "lat": 41.5639265, "lon": 2.1340633, "tags": {"bus": "yes", "highway": "bus_stop", "name": "Ctra. de Granollers a Sabadell - Urb. Serra Maurina", "public_transport": "stop_position", "ref": "5616", "route_ref": "231"}}, {"type": "node", "id": 311882502, "lat": 41.559706, "lon": 2.1490435, "tags": {"bus": "yes", "highway": "bus_stop", "name": "Rtda. del Cementiri de Poliny\u00e0", "public_transport": "stop_position", "ref": "9795", "route_ref": "231"}}, {"type": "node", "id": 312351923, "lat": 41.4123653, "lon": 1.9688271, "tags": {"bus": "yes", "highway": "bus_stop", "name": "Avinguda de Catalunya 42", "name:ca": "Avinguda de Catalunya 42", "public_transport": "stop_position"}}, {"type": "node", "id": 312412942, "lat": 41.5527237, "lon": 2.0264202, "tags": {"bus": "yes", "highway": "bus_stop", "name": "Santa Eul\u00e0lia", "name:ca": "Santa Eul\u00e0lia", "public_transport": "stop_position"}}, {"type": "node", "id": 312412996, "lat": 41.5452295, "lon": 2.0268065, "tags": {"bus": "yes", "highway": "bus_stop", "name": "Avinguda del T\u00e8xtil", "name:ca": "Avinguda del T\u00e8xtil", "public_transport": "stop_position"}}, {"type": "node", "id": 312650204, "lat": 41.5411662, "lon": 2.2185943, "tags": {"bus": "yes", "highway": "bus_stop", "name": "Pl. Sant Vicen\u00e7", "name:ca": "Pl. Sant Vicen\u00e7", "public_transport": "stop_position"}}, {"type": "node", "id": 312670599, "lat": 41.5584111, "lon": 2.0279245, "tags": {"bus": "yes", "highway": "bus_stop", "name": "Pa\u00efsos Catalans", "name:ca": "Pa\u00efsos Catalans", "network": "Bus Urb\u00e0 de Terrassa", "operator": "TMESA", "public_transport": "stop_position", "ref:TMESA": "11101"}}, {"type": "node", "id": 318313892, "lat": 41.460889, "lon": 2.1831043, "tags": {"bus": "yes", "highway": "bus_stop", "name": "Ctra Nacional 152 - Av l'Alzinar", "public_transport": "stop_position", "ref": "259", "route_ref": "62 96 104 N3"}}, {"type": "node", "id": 318323287, "lat": 41.6527668, "lon": 1.9776105, "tags": {"bus": "yes", "highway": "bus_stop", "name": "Bus Terrassa-Coll d'Estenalles-Mura/talamanca", "public_transport": "stop_position"}}, {"type": "node", "id": 319310007, "lat": 41.5021428, "lon": 2.1027112, "tags": {"bus": "yes", "highway": "bus_stop", "name": "UAB - Escola Postgrau - FGC", "network": "L2, L3 y linias interurbanas", "public_transport": "stop_position", "wheelchair": "limited"}}, {"type": "node", "id": 319311281, "lat": 41.5026702, "lon": 2.1048621, "tags": {"bus": "yes", "highway": "bus_stop", "name": "Pla\u00e7a C\u00edvica", "name:ca": "Pla\u00e7a C\u00edvica", "public_transport": "stop_position", "shelter": "yes"}}, {"type": "node", "id": 339236829, "lat": 41.4178668, "lon": 1.9313054, "tags": {"bus": "yes", "highway": "bus_stop", "name": "Carretera de Barcelona / Can Xorra", "public_transport": "stop_position"}}, {"type": "node", "id": 339236855, "lat": 41.4169931, "lon": 1.925464, "tags": {"bus": "yes", "highway": "bus_stop", "name": "Carretera de Barcelona / Carrer de la Font Vella", "public_transport": "stop_position"}}, {"type": "node", "id": 339236868, "lat": 41.4175152, "lon": 1.9229158, "tags": {"bus": "yes", "highway": "bus_stop", "name": "Carrer d'Andreu Cerd\u00e0 11", "name:ca": "Carrer d'Andreu Cerd\u00e0 11", "public_transport": "stop_position"}}, {"type": "node", "id": 350306669, "lat": 41.5353934, "lon": 1.7345631, "tags": {"bench": "yes", "bus": "yes", "highway": "bus_stop", "name": "Can Mossarro (Virgo-ctra.capellades)", "network": "Autoritat del Transport Metropolit\u00e0 de l\u2019\u00e0rea de Barcelona", "network:short": "ATM", "network:wikidata": "Q1845633", "operator": "La Hispano Igualadina, SAU", "public_transport": "platform", "shelter": "no", "timetable": "http://www.igualadina.com/pdfs/cap_bcn.pdf"}}, {"type": "node", "id": 358869142, "lat": 41.5259586, "lon": 1.7541776, "tags": {"bus": "yes", "highway": "bus_stop", "name": "Estaci\u00f3 FGC", "name:ca": "Estaci\u00f3 FGC", "public_transport": "stop_position"}}, {"type": "node", "id": 361195986, "lat": 41.4263829, "lon": 2.0380962, "tags": {"bus": "yes", "highway": "bus_stop", "name": "Esgl\u00e8sia St. Bartomeu", "name:ca": "Esgl\u00e8sia St. Bartomeu", "network": "AMB Bus Metropolit\u00e0", "operator": "\u00c0rea Metropolitana de Barcelona", "public_transport": "stop_position", "ref": "200152", "route_ref": "MB3"}}, {"type": "node", "id": 364202708, "lat": 41.4858831, "lon": 2.1280032, "tags": {"bench": "no", "bus": "yes", "departures_board": "timetable", "highway": "bus_stop", "name": "Pla\u00e7a Europa", "name:ca": "Pla\u00e7a Europa", "network": "SU1", "operator": "Moventis", "public_transport": "platform", "ref": "9175", "shelter": "no", "wheelchair": "yes"}}, {"type": "node", "id": 364230629, "lat": 41.4943552, "lon": 2.1261415, "tags": {"bench": "no", "bin": "yes", "bus": "yes", "departures_board": "timetable", "highway": "bus_stop", "lit": "yes", "name": "Carrer Serra de Galliners / Carrer Castella", "name:ca": "Carrer Serra de Galliners / Carrer Castella", "network": "SU2 SU3 648", "operator": "Moventis, R.font", "public_transport": "platform", "ref": "5838", "shelter": "no", "tactile_paving": "no"}}, {"type": "node", "id": 364277553, "lat": 41.4904606, "lon": 2.1413088, "tags": {"bench": "yes", "bin": "no", "bus": "yes", "departures_board": "timetable", "highway": "bus_stop", "lit": "yes", "name": "Carrer Altimira", "name:ca": "Carrer Altimira", "network": "SU1 SU2 SU3", "operator": "Moventis", "public_transport": "platform", "ref": "3271", "shelter": "no", "tactile_paving": "no", "wheelchair": "yes"}}, {"type": "node", "id": 365021903, "lat": 41.5119675, "lon": 1.7638507, "tags": {"bus": "yes", "highway": "bus_stop", "name": "parada", "public_transport": "stop_position"}}, {"type": "node", "id": 365021905, "lat": 41.5075866, "lon": 1.7714442, "tags": {"bus": "yes", "highway": "bus_stop", "name": "parada", "public_transport": "stop_position"}}, {"type": "node", "id": 367715785, "lat": 41.5919748, "lon": 1.8363422, "tags": {"check_date:wheelchair": "2022-11-12", "name": "Montserrat", "name:ca": "Montserrat", "public_transport": "station", "railway": "station", "station": "funicular", "wheelchair": "no"}}, {"type": "node", "id": 367715798, "lat": 41.5887646, "lon": 1.8333554, "tags": {"name": "Sant Joan", "name:ca": "Sant Joan", "public_transport": "station", "railway": "station", "station": "funicular", "wheelchair": "no"}}, {"type": "node", "id": 368325559, "lat": 41.4777106, "lon": 2.1297444, "tags": {"bus": "yes", "highway": "bus_stop", "name": "Av Flor de Maig - Carrer Valldaura", "public_transport": "stop_position", "ref": "433", "route_ref": "A7"}}, {"type": "node", "id": 370357533, "lat": 41.4628861, "lon": 2.2081298, "tags": {"bench": "no", "bus": "yes", "highway": "bus_stop", "name": "CF La Ginesta - Singuerl\u00edn", "name:ca": "CF La Ginesta - Singuerl\u00edn", "network": "AMB Bus Metropolit\u00e0", "operator": "\u00c0rea Metropolitana de Barcelona", "public_transport": "stop_position", "ref": "108559", "shelter": "no"}}, {"type": "node", "id": 373377538, "lat": 41.5923076, "lon": 1.8368462, "tags": {"check_date:wheelchair": "2022-11-12", "name": "Montserrat", "name:ca": "Montserrat", "public_transport": "station", "railway": "station", "station": "funicular", "wheelchair": "no"}}, {"type": "node", "id": 373377542, "lat": 41.5924361, "lon": 1.8394195, "tags": {"check_date:wheelchair": "2022-11-12", "funicular": "yes", "name": "Santa Cova", "name:ca": "Santa Cova", "public_transport": "station", "railway": "station", "station": "funicular", "wheelchair": "no"}}, {"type": "node", "id": 373391181, "lat": 41.731902, "lon": 1.8333369, "tags": {"amenity": "bus_station", "bus": "yes", "highway": "bus_stop", "name": "Manresa Estaci\u00f3 d'autobusos", "name:ca": "Manresa Estaci\u00f3 d'autobusos", "public_transport": "platform", "route_ref": "712 715 722 708 752 L1446"}}, {"type": "node", "id": 380761267, "lat": 41.4656732, "lon": 2.2046383, "tags": {"bench": "no", "bus": "yes", "highway": "bus_stop", "name": "Parc Serralada de Marina", "name:ca": "Parc Serralada de Marina", "network": "AMB Bus Metropolit\u00e0", "operator": "\u00c0rea Metropolitana de Barcelona", "public_transport": "stop_position", "ref": "102878", "route_ref": "B14 B80 B81 N8", "shelter": "no"}}, {"type": "node", "id": 380761357, "lat": 41.4650085, "lon": 2.2007071, "tags": {"bench": "yes", "bus": "yes", "highway": "bus_stop", "name": "Can Franquesa - Centre C\u00edvic", "name:ca": "Can Franquesa - Centre C\u00edvic", "network": "AMB Bus Metropolit\u00e0", "operator": "\u00c0rea Metropolitana de Barcelona", "public_transport": "stop_position", "ref": "102879", "route_ref": "B14 B80 B81 N8", "shelter": "yes", "tram": "no"}}, {"type": "node", "id": 382975203, "lat": 41.4905937, "lon": 2.1878017, "tags": {"bus": "yes", "highway": "bus_stop", "name": "Cam\u00ed de la Font Freda - Girona", "name:ca": "Cam\u00ed de la Font Freda - Girona", "network": "AMB Bus Metropolit\u00e0", "operator": "\u00c0rea Metropolitana de Barcelona", "public_transport": "platform", "ref": "003411", "route_ref": "155"}}, {"type": "node", "id": 385328138, "lat": 41.482752, "lon": 2.2372897, "tags": {"bus": "yes", "highway": "bus_stop", "name": "Hospital Can Ruti", "operator": "Moventis", "public_transport": "stop_position", "ref": "5776", "shelter": "no"}}, {"type": "node", "id": 387431028, "lat": 41.4511056, "lon": 1.7018744, "tags": {"bus": "yes", "highway": "bus_stop", "name": "Carrer de la Carretera 83", "name:ca": "Carrer de la Carretera 83", "public_transport": "stop_position"}}, {"type": "node", "id": 387431172, "lat": 41.4208569, "lon": 1.79443, "tags": {"bus": "yes", "highway": "bus_stop", "name": "Estaci\u00f3 de Rodalies", "name:ca": "Estaci\u00f3 de Rodalies", "public_transport": "stop_position"}}, {"type": "node", "id": 387612659, "lat": 41.4847914, "lon": 2.054563, "tags": {"bus": "yes", "highway": "bus_stop", "local_ref": "L7 (CC), L9", "name": "Av. Via Augusta, Av. d'Europa", "public_transport": "stop_position"}}, {"type": "node", "id": 387774016, "lat": 41.433002, "lon": 2.0049878, "tags": {"bus": "yes", "highway": "bus_stop", "name": "Pol\u00edgon Industrial Sud (Av.Generalitat/C.Per\u00fa)", "name:ca": "Pol\u00edgon Industrial Sud (Av.Generalitat/C.Per\u00fa)", "network": "ATM", "operator": "Autos Castellbisbal", "public_transport": "stop_position"}}, {"type": "node", "id": 387774048, "lat": 41.4365629, "lon": 2.0075579, "tags": {"bus": "yes", "highway": "bus_stop", "name": "Av. Generalitat - Dr. Trueta", "name:ca": "Av. Generalitat - Dr. Trueta", "network": "AMB Bus Metropolit\u00e0", "operator": "\u00c0rea Metropolitana de Barcelona", "public_transport": "stop_position", "ref": "200034", "route_ref": "PA1", "url": "https://www.ambmobilitat.cat/Principales/DatosParada.aspx?cerca=1&CodParada=200034"}}, {"type": "node", "id": 387909985, "lat": 41.5787317, "lon": 2.0311051, "tags": {"bench": "yes", "bus": "yes", "covered": "yes", "highway": "bus_stop", "name": "Sant Lloren\u00e7", "name:ca": "Sant Lloren\u00e7", "network": "Xarxa d'autobusos Urbans de Terrassa", "operator": "TMESA", "public_transport": "platform", "ref:TMESA": "1501", "shelter": "yes"}}, {"type": "node", "id": 387909986, "lat": 41.5765533, "lon": 2.0328176, "tags": {"bus": "yes", "highway": "bus_stop", "name": "Pla\u00e7a de la Pola", "name:ca": "Pla\u00e7a de la Pola", "network": "Bus Urb\u00e0 de Terrassa", "operator": "TMESA", "public_transport": "stop_position", "ref:TMESA": "1403"}}, {"type": "node", "id": 387909987, "lat": 41.5765848, "lon": 2.0327415, "tags": {"bench": "yes", "bus": "yes", "highway": "bus_stop", "name": "Pla\u00e7a de la Pola", "name:ca": "Pla\u00e7a de la Pola", "network": "Bus Urb\u00e0 de Terrassa", "operator": "TMESA", "public_transport": "platform", "ref:TMESA": "1403", "shelter": "yes", "tactile_paving": "yes"}}, {"type": "node", "id": 387910000, "lat": 41.5833815, "lon": 2.0391186, "tags": {"bus": "yes", "highway": "bus_stop", "name": "Escola d'Hosteleria", "network": "Bus Urb\u00e0 de Terrassa", "operator": "TMESA", "public_transport": "stop_position", "ref:TMESA": "1301"}}, {"type": "node", "id": 389979963, "lat": 41.4637936, "lon": 1.9903222, "tags": {"bus": "yes", "highway": "bus_stop", "name": "Pol\u00edgon Santa Rita - Benzinera", "name:ca": "Pol\u00edgon Santa Rita - Benzinera", "network": "AMB Bus Metropolit\u00e0", "operator": "\u00c0rea Metropolitana de Barcelona", "public_transport": "stop_position", "ref": "201382", "route_ref": "CS4", "url": "https://www.ambmobilitat.cat/Principales/DatosParada.aspx?cerca=1&CodParada=201382"}}, {"type": "node", "id": 390183476, "lat": 41.5704336, "lon": 2.0092816, "tags": {"bench": "yes", "bus": "yes", "highway": "bus_stop", "name": "Carretera Rellinars", "operator": "TMESA", "public_transport": "platform", "route_ref": "1", "shelter": "yes"}}, {"type": "node", "id": 390183479, "lat": 41.5680499, "lon": 2.0051513, "tags": {"bus": "yes", "highway": "bus_stop", "name": "CAP Rambla", "network": "Bus Urb\u00e0 de Terrassa", "operator": "TMESA", "public_transport": "stop_position"}}, {"type": "node", "id": 390784286, "lat": 41.5634166, "lon": 2.0078113, "tags": {"bus": "yes", "highway": "bus_stop", "name": "Mercat", "name:ca": "Mercat", "network": "Bus Urb\u00e0 de Terrassa", "operator": "TMESA", "public_transport": "stop_position", "ref": "302", "ref:TMESA": "302"}}, {"type": "node", "id": 390784501, "lat": 41.5569154, "lon": 2.0079425, "tags": {"bus": "yes", "highway": "bus_stop", "name": "Autobusos Interurbans", "name:ca": "Autobusos Interurbans", "network": "Bus Urb\u00e0 de Terrassa", "operator": "TMESA", "public_transport": "stop_position", "ref:TMESA": "5601"}}, {"type": "node", "id": 390909355, "lat": 41.5546311, "lon": 1.6779169, "tags": {"name": "la Pobla de Claramunt", "name:ca": "la Pobla de Claramunt", "network": "R6-R60", "public_transport": "stop_position", "railway": "station", "train": "yes", "wikidata": "Q8779983", "wikipedia": "ca:Estaci\u00f3 de la Pobla de Claramunt"}}, {"type": "node", "id": 391083891, "lat": 41.4649933, "lon": 2.1559903, "tags": {"bus": "yes", "highway": "bus_stop", "name": "Resid\u00e8ncia Joan XXIII", "name:ca": "Resid\u00e8ncia Joan XXIII", "public_transport": "stop_position", "ref": "001999", "route_ref": "102"}}, {"type": "node", "id": 391269296, "lat": 41.5577483, "lon": 2.0156923, "tags": {"bus": "yes", "highway": "bus_stop", "name": "Terrassa Industrial", "name:ca": "Terrassa Industrial", "network": "Bus Urb\u00e0 de Terrassa", "operator": "TMESA", "public_transport": "stop_position", "ref:TMESA": "4403"}}, {"type": "node", "id": 391422460, "lat": 41.4816636, "lon": 2.1716827, "tags": {"bus": "yes", "highway": "bus_stop", "name": "Antoni Pujades - Parc de Ca n'Oller", "name:ca": "Antoni Pujades - Parc de Ca n'Oller", "network": "AMB Bus Metropolit\u00e0", "operator": "\u00c0rea Metropolitana de Barcelona", "public_transport": "stop_position", "ref": "003840", "route_ref": "155"}}, {"type": "node", "id": 391423336, "lat": 41.4827527, "lon": 2.1729113, "tags": {"bus": "yes", "highway": "bus_stop", "name": "Av Terra Nostra - CEIP Mitja Costa", "public_transport": "stop_position", "ref": "980", "route_ref": "103"}}, {"type": "node", "id": 391423356, "lat": 41.4826475, "lon": 2.1746827, "tags": {"bus": "yes", "highway": "bus_stop", "name": "Escola Mitja Costa", "name:ca": "Escola Mitja Costa", "network": "AMB Bus Metropolit\u00e0", "operator": "\u00c0rea Metropolitana de Barcelona", "public_transport": "stop_position", "ref": "003839", "route_ref": "155"}}, {"type": "node", "id": 406232596, "lat": 41.6323042, "lon": 2.1707345, "tags": {"bus": "yes", "highway": "bus_stop", "name": "Pl. Llu\u00eds Companys", "name:ca": "Pl. Llu\u00eds Companys", "public_transport": "stop_position", "ref": "3073", "route_ref": "e9 260"}}, {"type": "node", "id": 406303326, "lat": 41.7153011, "lon": 1.9350551, "tags": {"bus": "yes", "highway": "bus_stop", "name": "Pl. Gran", "public_transport": "stop_position", "ref": "4960", "route_ref": "752"}}, {"type": "node", "id": 408740311, "lat": 41.5572694, "lon": 2.0385519, "tags": {"bus": "yes", "highway": "bus_stop", "name": "Vilardell", "name:ca": "Vilardell", "network": "Bus Urb\u00e0 de Terrassa", "operator": "TMESA", "public_transport": "stop_position", "ref:TMESA": "4102"}}, {"type": "node", "id": 408740340, "lat": 41.556428, "lon": 2.0438456, "tags": {"bus": "yes", "highway": "bus_stop", "name": "Complex Funerari", "name:ca": "Complex Funerari", "network": "Bus Urb\u00e0 de Terrassa", "operator": "TMESA", "public_transport": "stop_position", "ref:TMESA": "12101"}}, {"type": "node", "id": 408993935, "lat": 41.5561498, "lon": 2.0524478, "tags": {"bus": "yes", "highway": "bus_stop", "name": "Hospital", "name:ca": "Hospital", "network": "Bus Urb\u00e0 de Terrassa", "operator": "TMESA", "public_transport": "stop_position", "ref:TMESA": "12301"}}, {"type": "node", "id": 409834518, "lat": 41.7307183, "lon": 1.8254753, "tags": {"bus": "yes", "highway": "bus_stop", "local_ref": "L1, L2, L3", "name": "Pla\u00e7a Espanya", "name:ca": "Pla\u00e7a Espanya", "public_transport": "stop_position"}}, {"type": "node", "id": 415279435, "lat": 41.420099, "lon": 2.0185505, "tags": {"bus": "yes", "highway": "bus_stop", "name": "Cementiri - Tanatori", "name:ca": "Cementiri - Tanatori", "network": "AMB Bus Metropolit\u00e0", "operator": "\u00c0rea Metropolitana de Barcelona", "public_transport": "stop_position", "ref": "200149", "route_ref": "MB3"}}, {"type": "node", "id": 416626812, "lat": 41.5728946, "lon": 2.0414452, "tags": {"bus": "yes", "highway": "bus_stop", "name": "Millars", "name:ca": "Millars", "public_transport": "stop_position"}}, {"type": "node", "id": 418647214, "lat": 41.4183038, "lon": 2.0175439, "tags": {"bus": "yes", "highway": "bus_stop", "name": "Rector Colom", "name:ca": "Rector Colom", "network": "AMB Bus Metropolit\u00e0", "operator": "\u00c0rea Metropolitana de Barcelona", "public_transport": "stop_position", "ref": "200148", "route_ref": "MB3"}}, {"type": "node", "id": 418651443, "lat": 41.4174946, "lon": 2.0176462, "tags": {"bus": "yes", "highway": "bus_stop", "name": "Catalunya", "name:ca": "Catalunya", "network": "AMB Bus Metropolit\u00e0", "operator": "\u00c0rea Metropolitana de Barcelona", "public_transport": "stop_position", "ref": "200147", "route_ref": "MB3"}}, {"type": "node", "id": 420058252, "lat": 41.4633357, "lon": 2.1712287, "tags": {"bench": "yes", "bus": "yes", "highway": "bus_stop", "name": "Pet\u00fanies - Circumval\u00b7laci\u00f3", "name:ca": "Pet\u00fanies - Circumval\u00b7laci\u00f3", "network": "AMB Bus Metropolit\u00e0", "operator": "\u00c0rea Metropolitana de Barcelona", "public_transport": "stop_position", "ref": "002623", "route_ref": "76 103 155 N3", "shelter": "yes"}}, {"type": "node", "id": 442979239, "lat": 41.7303377, "lon": 1.826249, "tags": {"bench": "yes", "bin": "yes", "bus": "yes", "highway": "bus_stop", "public_transport": "platform", "shelter": "yes"}}, {"type": "node", "id": 469721553, "lat": 41.4820946, "lon": 2.1885941, "tags": {"bus": "yes", "highway": "bus_stop", "name": "Jaume I - Pl Llu\u00eds Companys", "name:ca": "Jaume I - Pl Llu\u00eds Companys", "network": "AMB Bus Metropolit\u00e0", "operator": "\u00c0rea Metropolitana de Barcelona", "public_transport": "platform", "ref": "001145", "route_ref": "96155 N3"}}, {"type": "node", "id": 470539872, "lat": 41.4912102, "lon": 2.1854704, "tags": {"bench": "yes", "bus": "yes", "highway": "bus_stop", "name": "Rambla dels Pa\u00efsos Catalans - Pl Espanya", "name:ca": "Rambla dels Pa\u00efsos Catalans - Pl Espanya", "network": "AMB Bus Metropolit\u00e0", "operator": "\u00c0rea Metropolitana de Barcelona", "public_transport": "stop_position", "ref": "001717", "route_ref": "96 103 N3", "shelter": "yes"}}, {"type": "node", "id": 473501387, "lat": 41.5637632, "lon": 1.9965955, "tags": {"bus": "yes", "highway": "bus_stop", "name": "Ca n'Aurell", "name:ca": "Ca n'Aurell", "public_transport": "stop_position"}}, {"type": "node", "id": 473575243, "lat": 41.5604791, "lon": 1.9973656, "tags": {"bus": "yes", "highway": "bus_stop", "name": "Sant Mateu", "name:ca": "Sant Mateu", "public_transport": "stop_position"}}, {"type": "node", "id": 492399241, "lat": 41.575915, "lon": 2.0865898, "tags": {"bench": "yes", "bus": "yes", "highway": "bus_stop", "name": "Can Deu", "name:ca": "Can Deu", "network": "Bus de Sabadell", "operator": "Transports Urbans de Sabadell", "public_transport": "platform", "ref": "1", "shelter": "yes"}}, {"type": "node", "id": 500185647, "lat": 41.461266, "lon": 1.9601665, "tags": {"bus": "yes", "highway": "bus_stop", "name": "Ferro - Potassi", "name:ca": "Ferro - Potassi", "network": "AMB Bus Metropolit\u00e0", "operator": "\u00c0rea Metropolitana de Barcelona", "public_transport": "stop_position", "ref": "201374", "route_ref": "CS2", "url": "https://www.ambmobilitat.cat/Principales/DatosParada.aspx?cerca=1&CodParada=201374"}}, {"type": "node", "id": 506212492, "lat": 41.7337452, "lon": 1.8166086, "tags": {"bus": "yes", "highway": "bus_stop", "local_ref": "L3", "name": "Gravera", "name:ca": "Gravera", "public_transport": "stop_position"}}, {"type": "node", "id": 506684494, "lat": 41.722496, "lon": 1.8169076, "tags": {"bus": "yes", "highway": "bus_stop", "name": "Policia Local", "name:ca": "Policia Local", "public_transport": "stop_position"}}, {"type": "node", "id": 506684517, "lat": 41.7292977, "lon": 1.8344538, "tags": {"bench": "yes", "bin": "no", "bus": "yes", "highway": "bus_stop", "lit": "no", "name": "Gaud\u00ed", "name:ca": "Gaud\u00ed", "public_transport": "platform", "shelter": "no", "tactile_paving": "no"}}, {"type": "node", "id": 506684524, "lat": 41.728278, "lon": 1.8215876, "tags": {"bus": "yes", "highway": "bus_stop", "name": "Bruc", "name:ca": "Bruc", "public_transport": "stop_position"}}, {"type": "node", "id": 506684532, "lat": 41.7365573, "lon": 1.8279862, "tags": {"bus": "yes", "highway": "bus_stop", "name": "IES Lacet\u00e0nia", "name:ca": "IES Lacet\u00e0nia", "public_transport": "stop_position"}}, {"type": "node", "id": 506684535, "lat": 41.7366707, "lon": 1.8308087, "tags": {"bus": "yes", "highway": "bus_stop", "name": "la Creu", "name:ca": "la Creu", "public_transport": "stop_position"}}, {"type": "node", "id": 506808724, "lat": 41.5376272, "lon": 2.2019753, "tags": {"bus": "yes", "highway": "bus_stop", "name": "Ronda dels Pinetons - Rtda.del Rellotge", "public_transport": "stop_position", "ref": "7380", "route_ref": "345"}}, {"type": "node", "id": 506808745, "lat": 41.5376502, "lon": 2.2023762, "tags": {"bus": "yes", "highway": "bus_stop", "name": "Ronda dels Pinetons - Rtda. Rellotge", "public_transport": "stop_position", "ref": "2974", "route_ref": "345"}}, {"type": "node", "id": 506821181, "lat": 41.5461832, "lon": 2.2053771, "tags": {"bus": "yes", "highway": "bus_stop", "name": "Pla\u00e7a de Can Borrell", "public_transport": "stop_position"}}, {"type": "node", "id": 509265139, "lat": 41.4599472, "lon": 2.1224957, "tags": {"bus": "yes", "highway": "bus_stop", "name": "Col\u00f2nia Sard\u00e0", "public_transport": "stop_position", "ref": "414", "route_ref": "A7"}}, {"type": "node", "id": 529026367, "lat": 41.4645287, "lon": 2.0884933, "tags": {"bus": "yes", "highway": "bus_stop", "local_ref": "L8", "name": "Llaceres, Sant Josep", "name:ca": "Llaceres, Sant Josep", "public_transport": "stop_position"}}, {"type": "node", "id": 529027068, "lat": 41.4471264, "lon": 2.0943825, "tags": {"bus": "yes", "highway": "bus_stop", "name": "Ctra. de la Floresta", "public_transport": "stop_position", "ref": "5920", "route_ref": "A6"}}, {"type": "node", "id": 534248306, "lat": 41.8053271, "lon": 1.897025, "tags": {"bench": "yes", "bus": "yes", "highway": "bus_stop", "name": "Enlla\u00e7 - Cabrianes", "public_transport": "stop_position", "shelter": "yes"}}, {"type": "node", "id": 534248330, "lat": 41.8064327, "lon": 1.8976908, "tags": {"bus": "yes", "highway": "bus_stop", "public_transport": "stop_position"}}, {"type": "node", "id": 534685996, "lat": 41.4493264, "lon": 2.0907686, "tags": {"bus": "yes", "highway": "bus_stop", "public_transport": "platform"}}, {"type": "node", "id": 534686009, "lat": 41.448427, "lon": 2.0905165, "tags": {"bus": "yes", "highway": "bus_stop", "public_transport": "platform"}}, {"type": "node", "id": 534686040, "lat": 41.4455691, "lon": 2.0907159, "tags": {"bus": "yes", "highway": "bus_stop", "public_transport": "platform"}}, {"type": "node", "id": 534686053, "lat": 41.445541, "lon": 2.0891252, "tags": {"bus": "yes", "highway": "bus_stop", "public_transport": "platform"}}, {"type": "node", "id": 539781823, "lat": 41.4437005, "lon": 2.0699367, "tags": {"bus": "yes", "highway": "bus_stop", "local_ref": "L3, L4", "name": "Av. Verge de Montserrat", "public_transport": "stop_position"}}, {"type": "node", "id": 540772956, "lat": 41.8092333, "lon": 2.0963549, "tags": {"bus": "yes", "highway": "bus_stop", "name": "Ctra. de Manresa - La tosca", "public_transport": "stop_position", "ref": "6110", "route_ref": "722"}}, {"type": "node", "id": 558809047, "lat": 41.594398, "lon": 1.8406855, "tags": {"bench": "yes", "bin": "yes", "bus": "yes", "highway": "bus_stop", "public_transport": "platform", "shelter": "no"}}, {"type": "node", "id": 565002017, "lat": 41.4821029, "lon": 2.1886949, "tags": {"bus": "yes", "highway": "bus_stop", "name": "Jaume I - Pl Llu\u00eds Companys", "name:ca": "Jaume I - Pl Llu\u00eds Companys", "network": "AMB Bus Metropolit\u00e0", "operator": "\u00c0rea Metropolitana de Barcelona", "public_transport": "stop_position", "ref": "001145", "route_ref": "96 155 N3"}}, {"type": "node", "id": 566421009, "lat": 41.592899, "lon": 2.1443979, "tags": {"bus": "yes", "highway": "bus_stop", "name": "Carretera de Setmenat / Can Costet", "public_transport": "stop_position"}}, {"type": "node", "id": 566664248, "lat": 41.489383, "lon": 2.186952, "tags": {"bench": "yes", "bus": "yes", "highway": "bus_stop", "name": "Rambla dels Pa\u00efsos Catalans - Torras i Bages", "name:ca": "Rambla dels Pa\u00efsos Catalans - Torras i Bages", "network": "AMB Bus Metropolit\u00e0", "operator": "\u00c0rea Metropolitana de Barcelona", "public_transport": "platform", "ref": "001716", "route_ref": "96 103 155 N3", "shelter": "yes"}}, {"type": "node", "id": 569279636, "lat": 41.4827628, "lon": 2.2373777, "tags": {"bench": "no", "bus": "yes", "highway": "bus_stop", "name": "Hospital Can Ruti", "network": "ATM (Autoritat del Transport Metropolit\u00e0 de l\u2019\u00e0rea de Barcelona)", "operator": "ATM (Autoritat del Transport Metropolit\u00e0 de l\u2019\u00e0rea de Barcelona)", "public_transport": "stop_position", "ref": "110051", "route_ref": "B12", "shelter": "no"}}, {"type": "node", "id": 574830343, "lat": 41.5535765, "lon": 2.154888, "tags": {"bus": "yes", "highway": "bus_stop", "name": "Av. Llu\u00eds Companys - Balmes", "public_transport": "stop_position", "ref": "8731", "route_ref": "231"}}, {"type": "node", "id": 574830366, "lat": 41.553561, "lon": 2.1569011, "tags": {"bus": "yes", "highway": "bus_stop", "name": "Rambla - Ernest Lluch", "public_transport": "stop_position", "ref": "6753", "route_ref": "231"}}, {"type": "node", "id": 577396315, "lat": 41.5492672, "lon": 2.2249117, "tags": {"bus": "yes", "highway": "bus_stop", "name": "F. W. Set\u00fcrner - Rec de Dalt", "public_transport": "stop_position"}}, {"type": "node", "id": 597296620, "lat": 41.5476331, "lon": 1.8881668, "tags": {"bus": "yes", "highway": "bus_stop", "name": "Pavell\u00f3 i Camp", "public_transport": "stop_position"}}, {"type": "node", "id": 601114083, "lat": 41.5846652, "lon": 2.1803911, "tags": {"bus": "yes", "highway": "bus_stop", "name": "Av. de Catalunya - Can Cort\u00e8s", "public_transport": "stop_position"}}, {"type": "node", "id": 611039275, "lat": 41.4323716, "lon": 2.0161334, "tags": {"bus": "yes", "highway": "bus_stop", "name": "Pi - Vinya", "name:ca": "Pi - Vinya", "network": "AMB Bus Metropolit\u00e0", "operator": "\u00c0rea Metropolitana de Barcelona", "public_transport": "stop_position", "ref": "200040", "route_ref": "PA1", "url": "https://www.ambmobilitat.cat/Principales/DatosParada.aspx?cerca=1&CodParada=200040"}}, {"type": "node", "id": 611068969, "lat": 41.4684656, "lon": 1.9829052, "tags": {"bus": "yes", "highway": "bus_stop", "name": "Marinada - Gregal", "name:ca": "Marinada - Gregal", "network": "AMB Bus Metropolit\u00e0", "operator": "\u00c0rea Metropolitana de Barcelona", "public_transport": "stop_position", "ref": "201378", "route_ref": "CS4 CS6", "url": "https://www.ambmobilitat.cat/Principales/DatosParada.aspx?cerca=1&CodParada=201378"}}, {"type": "node", "id": 611068970, "lat": 41.4683453, "lon": 1.9830648, "tags": {"bus": "yes", "highway": "bus_stop", "name": "Marinada - Gregal", "name:ca": "Marinada - Gregal", "network": "AMB Bus Metropolit\u00e0", "operator": "\u00c0rea Metropolitana de Barcelona", "public_transport": "stop_position", "ref": "201380", "route_ref": "CS4 CS6", "url": "https://www.ambmobilitat.cat/Principales/DatosParada.aspx?cerca=1&CodParada=201380"}}, {"type": "node", "id": 611068982, "lat": 41.4666663, "lon": 1.9839887, "tags": {"bus": "yes", "highway": "bus_stop", "name": "Marinada - Tramuntana", "name:ca": "Marinada - Tramuntana", "network": "AMB Bus Metropolit\u00e0", "operator": "\u00c0rea Metropolitana de Barcelona", "public_transport": "stop_position", "ref": "200198", "route_ref": "CS4 CS6", "url": "https://www.ambmobilitat.cat/Principales/DatosParada.aspx?cerca=1&CodParada=200198"}}, {"type": "node", "id": 611080162, "lat": 41.467763, "lon": 1.9868654, "tags": {"bus": "yes", "highway": "bus_stop", "name": "Roman\u00ed", "name:ca": "Roman\u00ed", "network": "AMB Bus Metropolit\u00e0", "operator": "\u00c0rea Metropolitana de Barcelona", "public_transport": "stop_position", "ref": "201384", "route_ref": "CS4", "url": "https://www.ambmobilitat.cat/Principales/DatosParada.aspx?cerca=1&CodParada=201384"}}, {"type": "node", "id": 611101996, "lat": 41.4734475, "lon": 1.9787267, "tags": {"bus": "yes", "highway": "bus_stop", "name": "Carrer Estaci\u00f3", "name:ca": "Carrer Estaci\u00f3", "network": "AMB Bus Metropolit\u00e0", "operator": "\u00c0rea Metropolitana de Barcelona", "public_transport": "stop_position", "ref": "200200", "route_ref": "CS1 CS2 CS5 CS6", "url": "https://www.ambmobilitat.cat/Principales/DatosParada.aspx?cerca=1&CodParada=200200"}}, {"type": "node", "id": 612996407, "lat": 41.5365963, "lon": 2.2356999, "tags": {"bus": "yes", "highway": "bus_stop", "name": "Sant Mart\u00ed - Can Fenosa", "public_transport": "stop_position"}}, {"type": "node", "id": 631422467, "lat": 41.6025754, "lon": 2.023503, "tags": {"bus": "yes", "highway": "bus_stop", "public_transport": "stop_position"}}, {"type": "node", "id": 632386709, "lat": 41.4921264, "lon": 2.0564338, "tags": {"bus": "yes", "highway": "bus_stop", "name": "Deutsche Bank", "name:ca": "Deutsche Bank", "public_transport": "platform"}}, {"type": "node", "id": 634146580, "lat": 41.4905475, "lon": 2.0633961, "tags": {"bus": "yes", "highway": "bus_stop", "name": "HP", "public_transport": "stop_position", "wheelchair": "yes"}}, {"type": "node", "id": 634146581, "lat": 41.4903948, "lon": 2.0636321, "tags": {"bus": "yes", "highway": "bus_stop", "name": "HP", "public_transport": "stop_position", "wheelchair": "yes"}}, {"type": "node", "id": 639198281, "lat": 41.5343546, "lon": 2.1754373, "tags": {"bus": "yes", "highway": "bus_stop", "name": "Sant Isidre / Cam\u00ed del Cementiri", "name:ca": "Sant Isidre / Cam\u00ed del Cementiri", "public_transport": "stop_position", "ref": "5154", "route_ref": "345"}}, {"type": "node", "id": 639198300, "lat": 41.5367496, "lon": 2.179395, "tags": {"bus": "yes", "highway": "bus_stop", "name": "Av. Santiga - Amadeu Vives", "public_transport": "stop_position", "ref": "2828", "route_ref": "345"}}, {"type": "node", "id": 639203132, "lat": 41.5352933, "lon": 2.1837026, "tags": {"bus": "yes", "highway": "bus_stop", "name": "Avinguda de Jacint Verdaguer / Rambla", "name:ca": "Avinguda de Jacint Verdaguer / Rambla", "public_transport": "stop_position", "ref": "2271", "route_ref": "345"}}, {"type": "node", "id": 639223549, "lat": 41.5203292, "lon": 2.1943981, "tags": {"bus": "yes", "highway": "bus_stop", "name": "Av. 3 - C. 14 - Estaci\u00f3 de rodalies Sta Perp\u00e8tua", "public_transport": "stop_position"}}, {"type": "node", "id": 653335277, "lat": 41.5311988, "lon": 2.1843862, "tags": {"bus": "yes", "highway": "bus_stop", "public_transport": "stop_position"}}, {"type": "node", "id": 654114838, "lat": 41.4863763, "lon": 2.0314255}, {"type": "node", "id": 654114839, "lat": 41.4861566, "lon": 2.0320104}, {"type": "node", "id": 654114840, "lat": 41.4859752, "lon": 2.0318891}, {"type": "node", "id": 654114841, "lat": 41.4861949, "lon": 2.0313041}, {"type": "node", "id": 656963074, "lat": 41.5216584, "lon": 2.1930911, "tags": {"bus": "yes", "highway": "bus_stop", "name": "Pla\u00e7a Central", "public_transport": "stop_position"}}, {"type": "node", "id": 659596189, "lat": 41.4875136, "lon": 2.1882348, "tags": {"bench": "no", "bus": "yes", "highway": "bus_stop", "name": "Av Moss\u00e8n Joaquim Castellv\u00ed - Rbla Pa\u00efsos Catalans", "name:ca": "Av Moss\u00e8n Joaquim Castellv\u00ed - Rbla Pa\u00efsos Catalans", "network": "AMB Bus Metropolit\u00e0", "operator": "\u00c0rea Metropolitana de Barcelona", "public_transport": "platform", "ref": "000639", "route_ref": "96 103 155 N3", "shelter": "no", "tactile_paving": "no"}}, {"type": "node", "id": 663191389, "lat": 41.4688477, "lon": 2.0363486, "tags": {"bus": "yes", "highway": "bus_stop", "local_ref": "L1", "name": "Pl. dels Pins", "public_transport": "stop_position"}}, {"type": "node", "id": 663205733, "lat": 41.5335368, "lon": 2.2081958}, {"type": "node", "id": 672952563, "lat": 41.4828468, "lon": 2.2386214, "tags": {"bench": "yes", "bus": "yes", "highway": "bus_stop", "name": "Hospital Can Ruti", "network": "Autoritat del Transport Metropolit\u00e0 de l\u2019\u00e0rea de Barcelona", "network:short": "ATM", "network:wikidata": "Q1845633", "operator": "ATM (Autoritat del Transport Metropolit\u00e0 de l\u2019\u00e0rea de Barcelona)", "public_transport": "stop_position", "ref": "109967", "route_ref": "B24", "shelter": "yes", "source": "Tusgsal"}}, {"type": "node", "id": 677482949, "lat": 41.4471653, "lon": 2.1404978, "tags": {"bus": "yes", "highway": "bus_stop", "name": "Forat del Vent", "public_transport": "stop_position", "ref": "415", "route_ref": "A7"}}, {"type": "node", "id": 727618718, "lat": 41.4733993, "lon": 1.9127577, "tags": {"bus": "yes", "highway": "bus_stop", "public_transport": "stop_position"}}, {"type": "node", "id": 728395001, "lat": 41.5490705, "lon": 2.0194512, "tags": {"bus": "yes", "highway": "bus_stop", "name": "Can Jofresa", "name:ca": "Can Jofresa", "public_transport": "platform"}}, {"type": "node", "id": 728395608, "lat": 41.5495229, "lon": 2.0187043, "tags": {"bus": "yes", "highway": "bus_stop", "name": "Can Jofresa", "name:ca": "Can Jofresa", "public_transport": "platform"}}, {"type": "node", "id": 728396268, "lat": 41.5491278, "lon": 2.0178644, "tags": {"bus": "yes", "highway": "bus_stop", "name": "Escola Oficial d'Idiomes", "name:ca": "Escola Oficial d'Idiomes", "public_transport": "platform"}}, {"type": "node", "id": 728396662, "lat": 41.5483136, "lon": 2.0216447, "tags": {"bus": "yes", "highway": "bus_stop", "name": "Pavell\u00f3", "name:ca": "Pavell\u00f3", "public_transport": "platform"}}, {"type": "node", "id": 728397005, "lat": 41.5504924, "lon": 2.0169874, "tags": {"bus": "yes", "highway": "bus_stop", "name": "Badalona", "name:ca": "Badalona", "public_transport": "platform"}}, {"type": "node", "id": 728397752, "lat": 41.5506424, "lon": 2.0218793, "tags": {"bus": "yes", "highway": "bus_stop", "name": "CAP Sud", "name:ca": "CAP Sud", "public_transport": "platform"}}, {"type": "node", "id": 728400938, "lat": 41.5508713, "lon": 2.0225522, "tags": {"bus": "yes", "highway": "bus_stop", "name": "CAP Sud", "name:ca": "CAP Sud", "public_transport": "platform"}}, {"type": "node", "id": 759517399, "lat": 41.4147987, "lon": 1.917779, "tags": {"bus": "yes", "highway": "bus_stop", "name": "Carretera de l'Amunt / Cotxeres", "public_transport": "stop_position"}}, {"type": "node", "id": 761543394, "lat": 41.5433586, "lon": 1.8871386, "tags": {"bus": "yes", "highway": "bus_stop", "name": "Rotonda dels Closos", "public_transport": "platform"}}, {"type": "node", "id": 761543395, "lat": 41.5424374, "lon": 1.8929085, "tags": {"bus": "yes", "highway": "bus_stop", "name": "Monbus (Manresa - Olesa - Barcelona)", "public_transport": "stop_position", "website": "https://www.monbus.es/es"}}, {"type": "node", "id": 828215735, "lat": 41.4932376, "lon": 2.1780693, "tags": {"bus": "yes", "highway": "bus_stop", "name": "Ctra BV 1411 - Pau Casals", "name:ca": "Ctra BV 1411 - Pau Casals", "network": "AMB Bus Metropolit\u00e0", "operator": "\u00c0rea Metropolitana de Barcelona", "public_transport": "platform", "ref": "002408", "route_ref": "96 155"}}, {"type": "node", "id": 834395442, "lat": 41.4644818, "lon": 2.1750129, "tags": {"bus": "yes", "highway": "bus_stop", "name": "Fusters - Ctra Nacional 150", "name:ca": "Fusters - Ctra Nacional 150", "network": "AMB Bus Metropolit\u00e0", "operator": "\u00c0rea Metropolitana de Barcelona", "public_transport": "stop_position", "ref": "001701", "route_ref": "103 104 155 N3"}}, {"type": "node", "id": 834395699, "lat": 41.4660922, "lon": 2.1859923, "tags": {"bus": "yes", "highway": "bus_stop", "name": "Pl Primer de Maig", "public_transport": "stop_position", "ref": "2718", "route_ref": "97180"}}, {"type": "node", "id": 857613463, "lat": 41.5532688, "lon": 2.0593032, "tags": {"bus": "yes", "highway": "bus_stop", "name": "Mercat Comarcal", "name:ca": "Mercat Comarcal", "network": "Bus Urb\u00e0 de Terrassa", "operator": "TMESA", "public_transport": "stop_position", "ref:TMESA": "12401"}}, {"type": "node", "id": 881165034, "lat": 41.4476689, "lon": 2.0496118, "tags": {"bus": "yes", "highway": "bus_stop", "name": "Col\u00f2nia Montserrat", "name:ca": "Col\u00f2nia Montserrat", "public_transport": "platform"}}, {"type": "node", "id": 890695931, "lat": 41.7969066, "lon": 1.9548404, "tags": {"bus": "yes", "highway": "bus_stop", "name": "Pg. Diagonal - Balmes", "public_transport": "platform", "ref": "3423", "route_ref": "712 715 722"}}, {"type": "node", "id": 933346497, "lat": 41.5827283, "lon": 2.013415, "tags": {"bench": "yes", "bus": "yes", "covered": "no", "highway": "bus_stop", "name": "Nacions Unides", "name:ca": "Nacions Unides", "network": "Xarxa d'autobusos Urbans de Terrassa", "operator": "TMESA", "public_transport": "platform", "ref": "FIXME", "shelter": "yes", "tactile_paving": "yes", "uic_name": "FIXME", "uic_ref": "FIXME"}}, {"type": "node", "id": 933346504, "lat": 41.5822285, "lon": 2.0166876, "tags": {"bench": "yes", "bus": "yes", "covered": "no", "highway": "bus_stop", "name": "Pla\u00e7a de la Sardana", "name:ca": "Pla\u00e7a de la Sardana", "network": "Xarxa d'autobusos Urbans de Terrassa", "operator": "TMESA", "public_transport": "platform", "ref": "FIXME", "shelter": "yes", "tactile_paving": "yes", "uic_name": "FIXME", "uic_ref": "FIXME"}}, {"type": "node", "id": 933346522, "lat": 41.5806326, "lon": 2.0117501, "tags": {"bus": "yes", "highway": "bus_stop", "name": "Sant Eloi", "name:ca": "Sant Eloi", "network": "Xarxa d'autobusos Urbans de Terrassa", "operator": "TMESA", "public_transport": "stop_position", "uic_name": "FIXME", "uic_ref": "FIXME"}}, {"type": "node", "id": 933346543, "lat": 41.582691, "lon": 2.0134246, "tags": {"bus": "yes", "highway": "bus_stop", "name": "Nacions Unides", "name:ca": "Nacions Unides", "network": "Xarxa d'autobusos Urbans de Terrassa", "operator": "TMESA", "public_transport": "stop_position", "uic_name": "FIXME", "uic_ref": "FIXME"}}, {"type": "node", "id": 933346570, "lat": 41.5806287, "lon": 2.0117046, "tags": {"bench": "yes", "bus": "yes", "covered": "no", "highway": "bus_stop", "name": "Sant Eloi", "name:ca": "Sant Eloi", "network": "Xarxa d'autobusos Urbans de Terrassa", "operator": "TMESA", "public_transport": "platform", "ref": "FIXME", "shelter": "yes", "tactile_paving": "yes", "uic_name": "FIXME", "uic_ref": "FIXME"}}, {"type": "node", "id": 933346595, "lat": 41.5826383, "lon": 2.0180394, "tags": {"bus": "yes", "highway": "bus_stop", "name": "Pla del Bonaire", "name:ca": "Pla del Bonaire", "network": "Xarxa d'autobusos Urbans de Terrassa", "operator": "TMESA", "public_transport": "stop_position", "uic_name": "FIXME", "uic_ref": "FIXME"}}, {"type": "node", "id": 933363608, "lat": 41.5791993, "lon": 2.0118317, "tags": {"bench": "no", "bus": "yes", "covered": "no", "highway": "bus_stop", "name": "Alcoi", "name:ca": "Alcoi", "network": "Xarxa d'autobusos Urbans de Terrassa", "operator": "TMESA", "public_transport": "platform", "ref": "FIXME", "shelter": "no", "tactile_paving": "no", "uic_name": "FIXME", "uic_ref": "FIXME"}}, {"type": "node", "id": 933363614, "lat": 41.5791988, "lon": 2.0118816, "tags": {"bus": "yes", "highway": "bus_stop", "name": "Alcoi", "name:ca": "Alcoi", "network": "Xarxa d'autobusos Urbans de Terrassa", "operator": "TMESA", "public_transport": "stop_position", "uic_name": "FIXME", "uic_ref": "FIXME"}}, {"type": "node", "id": 938886537, "lat": 41.5770792, "lon": 2.0120508, "tags": {"bus": "yes", "highway": "bus_stop", "name": "Voluntaris", "network": "Xarxa d'autobusos Urbans de Terrassa", "operator": "TMESA", "public_transport": "stop_position", "uic_name": "FIXME", "uic_ref": "FIXME"}}, {"type": "node", "id": 938886540, "lat": 41.5745932, "lon": 2.0122424, "tags": {"bus": "yes", "highway": "bus_stop", "name": "\u00c0rea Ol\u00edmpica", "name:ca": "\u00c0rea Ol\u00edmpica", "network": "Xarxa d'autobusos Urbans de Terrassa", "operator": "TMESA", "public_transport": "stop_position", "uic_name": "FIXME", "uic_ref": "FIXME"}}, {"type": "node", "id": 938886541, "lat": 41.577077, "lon": 2.0119969, "tags": {"bench": "yes", "bus": "yes", "covered": "no", "highway": "bus_stop", "name": "Voluntaris", "network": "Xarxa d'autobusos Urbans de Terrassa", "operator": "TMESA", "public_transport": "platform", "ref": "FIXME", "shelter": "yes", "tactile_paving": "no", "uic_name": "FIXME", "uic_ref": "FIXME"}}, {"type": "node", "id": 941973109, "lat": 41.567948, "lon": 2.0137049, "tags": {"bench": "yes", "bin": "yes", "bus": "yes", "covered": "no", "highway": "bus_stop", "lit": "no", "name": "Sant Ignasi", "name:ca": "Sant Ignasi", "network": "Xarxa d'autobusos Urbans de Terrassa", "operator": "TMESA", "public_transport": "platform", "ref": "FIXME", "shelter": "yes", "tactile_paving": "no", "uic_name": "FIXME", "uic_ref": "FIXME"}}, {"type": "node", "id": 941973155, "lat": 41.572121, "lon": 2.0122669, "tags": {"bench": "yes", "bus": "yes", "covered": "no", "highway": "bus_stop", "name": "Mercat del Triomf", "name:ca": "Mercat del Triomf", "network": "Xarxa d'autobusos Urbans de Terrassa", "operator": "TMESA", "public_transport": "platform", "ref": "FIXME", "shelter": "yes", "tactile_paving": "no", "uic_name": "FIXME", "uic_ref": "FIXME"}}, {"type": "node", "id": 941973163, "lat": 41.5679406, "lon": 2.0137417, "tags": {"bus": "yes", "highway": "bus_stop", "name": "Sant Ignasi", "name:ca": "Sant Ignasi", "network": "Xarxa d'autobusos Urbans de Terrassa", "operator": "TMESA", "public_transport": "stop_position", "uic_name": "FIXME", "uic_ref": "FIXME"}}, {"type": "node", "id": 941973174, "lat": 41.5745925, "lon": 2.0121915, "tags": {"bench": "no", "bus": "yes", "covered": "no", "highway": "bus_stop", "name": "\u00c0rea Ol\u00edmpica", "name:ca": "\u00c0rea Ol\u00edmpica", "network": "Xarxa d'autobusos Urbans de Terrassa", "operator": "TMESA", "public_transport": "platform", "ref": "FIXME", "shelter": "no", "tactile_paving": "no", "uic_name": "FIXME", "uic_ref": "FIXME"}}, {"type": "node", "id": 941973209, "lat": 41.5721116, "lon": 2.0123068, "tags": {"bus": "yes", "highway": "bus_stop", "name": "Mercat del Triomf", "name:ca": "Mercat del Triomf", "network": "Xarxa d'autobusos Urbans de Terrassa", "operator": "TMESA", "public_transport": "stop_position", "uic_name": "FIXME", "uic_ref": "FIXME"}}, {"type": "node", "id": 947196730, "lat": 41.4588588, "lon": 2.1803926, "tags": {"bus": "yes", "highway": "bus_stop", "name": "Metro Torre Bar\u00f3 - Vallbona", "public_transport": "stop_position", "ref": "3053", "route_ref": "180 183"}}, {"type": "node", "id": 948979642, "lat": 41.4633951, "lon": 2.1686251, "tags": {"bench": "no", "bus": "yes", "highway": "bus_stop", "name": "Pl de Mourenx", "name:ca": "Pl de Mourenx", "network": "AMB Bus Metropolit\u00e0", "operator": "\u00c0rea Metropolitana de Barcelona", "public_transport": "stop_position", "ref": "002146", "route_ref": "62 76 103 155 N3", "shelter": "no"}}, {"type": "node", "id": 966023977, "lat": 41.5029747, "lon": 2.0435016, "tags": {"bus": "yes", "highway": "bus_stop", "name": "Can Ros\u00e9s", "name:ca": "Can Ros\u00e9s", "public_transport": "platform"}}, {"type": "node", "id": 966658538, "lat": 41.4989579, "lon": 2.037591, "tags": {"bus": "yes", "highway": "bus_stop", "name": "Sevilla", "public_transport": "platform"}}, {"type": "node", "id": 970263633, "lat": 41.5563669, "lon": 2.0841325, "tags": {"bench": "yes", "bus": "yes", "highway": "bus_stop", "name": "Juvenal", "network": "Bus de Sabadell", "operator": "Transports Urbans de Sabadell", "public_transport": "platform", "ref": "246", "shelter": "yes"}}, {"type": "node", "id": 970263807, "lat": 41.5547573, "lon": 2.0874667, "tags": {"bench": "yes", "bus": "yes", "highway": "bus_stop", "name": "Sant Isidor", "name:ca": "Sant Isidor", "network": "Bus de Sabadell", "operator": "Transports Urbans de Sabadell", "public_transport": "platform", "ref": "204", "shelter": "yes"}}, {"type": "node", "id": 970263928, "lat": 41.5553556, "lon": 2.0899743, "tags": {"bench": "yes", "bus": "yes", "highway": "bus_stop", "name": "Galileu", "network": "Bus de Sabadell", "operator": "Transports Urbans de Sabadell", "public_transport": "platform", "ref": "205", "shelter": "yes"}}, {"type": "node", "id": 970264270, "lat": 41.5534196, "lon": 2.0911124, "tags": {"bench": "yes", "bus": "yes", "highway": "bus_stop", "name": "Ol\u00edmpia - Trenet del Parc", "network": "Bus de Sabadell", "operator": "Transports Urbans de Sabadell", "public_transport": "platform", "ref": "206", "shelter": "yes"}}, {"type": "node", "id": 970264527, "lat": 41.554706, "lon": 2.0944633, "tags": {"bench": "yes", "bus": "yes", "covered": "no", "highway": "bus_stop", "name": "Paraires", "network": "Bus de Sabadell", "operator": "Transports Urbans de Sabadell", "public_transport": "platform", "ref": "207", "shelter": "yes"}}, {"type": "node", "id": 970264669, "lat": 41.5549962, "lon": 2.0943237, "tags": {"bench": "no", "bus": "yes", "covered": "no", "highway": "bus_stop", "name": "Paraires", "network": "Bus de Sabadell", "operator": "Transports Urbans de Sabadell", "public_transport": "platform", "ref": "232", "shelter": "no"}}, {"type": "node", "id": 970264918, "lat": 41.5544732, "lon": 2.0974245, "tags": {"bench": "yes", "bus": "yes", "check_date:bench": "2023-01-11", "covered": "no", "description": "Parada bus B2 hacia Cerdanyola.", "highway": "bus_stop", "name": "Eix Maci\u00e0 / Avinguda dels Paraires", "network": "TUS", "operator": "Ajuntament de Sabadell", "public_transport": "platform", "shelter": "yes"}}, {"type": "node", "id": 970265815, "lat": 41.5502515, "lon": 2.0992692, "tags": {"bench": "yes", "bin": "yes", "bus": "yes", "highway": "bus_stop", "lit": "yes", "name": "Catalunya", "name:ca": "Catalunya", "network": "Bus de Sabadell", "operator": "Transports Urbans de Sabadell", "public_transport": "platform", "ref": "4470", "route_ref": "231", "shelter": "yes", "tactile_paving": "no"}}, {"type": "node", "id": 970266089, "lat": 41.5544652, "lon": 2.0977141, "tags": {"bench": "yes", "bus": "yes", "covered": "no", "description": "Parada B2, llegada desde Cerdanyola.", "highway": "bus_stop", "name": "Eix Maci\u00e0 / Carrer de Pi i Margall", "network": "TUS + Transports interurbans", "operator": "Ajuntament de Sabadell", "public_transport": "platform", "shelter": "yes"}}, {"type": "node", "id": 979754787, "lat": 41.4478738, "lon": 2.0867401, "tags": {"bus": "yes", "highway": "bus_stop", "local_ref": "L3, L4", "name": "Pla\u00e7a dels Porters", "name:ca": "Pla\u00e7a dels Porters", "public_transport": "stop_position"}}, {"type": "node", "id": 979754854, "lat": 41.4497779, "lon": 2.0910304, "tags": {"bus": "yes", "highway": "bus_stop", "name": "Ctra. de la Rabassada (La Floresta)", "public_transport": "stop_position", "ref": "3060", "route_ref": "A6"}}, {"type": "node", "id": 979762536, "lat": 41.4442816, "lon": 2.0876801, "tags": {"bus": "yes", "highway": "bus_stop", "local_ref": "L3, L4", "name": "Av. Montseny", "public_transport": "stop_position"}}, {"type": "node", "id": 979790985, "lat": 41.4447466, "lon": 2.0585139, "tags": {"bus": "yes", "highway": "bus_stop", "name": "Associaci\u00f3 de Ve\u00efns Vallpineda", "name:ca": "Associaci\u00f3 de Ve\u00efns Vallpineda", "network": "AMB Bus Metropolit\u00e0", "operator": "\u00c0rea Metropolitana de Barcelona", "public_transport": "stop_position", "ref": "200161", "route_ref": "MB3"}}, {"type": "node", "id": 979812619, "lat": 41.4532638, "lon": 2.07527, "tags": {"bus": "yes", "highway": "bus_stop", "local_ref": "L3, L4", "name": "Golf de Biscaia", "public_transport": "stop_position"}}, {"type": "node", "id": 980179470, "lat": 41.4494946, "lon": 2.0777137, "tags": {"bus": "yes", "highway": "bus_stop", "local_ref": "L3, L4", "name": "Passeig dels \u00c0lbers, Passeig dels Til\u00b7lers", "name:ca": "Passeig dels \u00c0lbers, Passeig dels Til\u00b7lers", "public_transport": "stop_position"}}, {"type": "node", "id": 1007863803, "lat": 41.5117219, "lon": 2.244285, "tags": {"bus": "yes", "highway": "bus_stop", "public_transport": "stop_position"}}, {"type": "node", "id": 1078584752, "lat": 41.6176244, "lon": 2.0036648, "tags": {"bus": "yes", "highway": "bus_stop", "public_transport": "stop_position"}}, {"type": "node", "id": 1086662853, "lat": 41.8015813, "lon": 2.0208316, "tags": {"bus": "yes", "highway": "bus_stop", "name": "Ctra. N-141 - Urbisol", "public_transport": "stop_position", "ref": "5426", "route_ref": "722"}}, {"type": "node", "id": 1105456582, "lat": 41.5363525, "lon": 2.0406299, "tags": {"bus": "yes", "highway": "bus_stop", "name": "It\u00e0lia", "public_transport": "stop_position"}}, {"type": "node", "id": 1106531643, "lat": 41.6143997, "lon": 2.0114749, "tags": {"bus": "yes", "highway": "bus_stop", "public_transport": "platform", "shelter": "yes"}}, {"type": "node", "id": 1136389434, "lat": 41.4836667, "lon": 2.030051, "tags": {"bus": "yes", "highway": "bus_stop", "name": "Edison", "public_transport": "stop_position"}}, {"type": "node", "id": 1150128819, "lat": 41.526495, "lon": 2.0388949, "tags": {"bus": "yes", "highway": "bus_stop", "public_transport": "stop_position"}}, {"type": "node", "id": 1201507431, "lat": 41.4490907, "lon": 1.960585, "tags": {"bus": "yes", "highway": "bus_stop", "name": "Pau Negre - Cam\u00e8lia", "name:ca": "Pau Negre - Cam\u00e8lia", "network": "Valldaina \u2013 Can Sunyer \u2013 Sant Andreu de la Barca", "operator": "Soler i Sauret", "public_transport": "stop_position", "shelter": "no"}}, {"type": "node", "id": 1202082020, "lat": 41.4492935, "lon": 1.9667531, "tags": {"bus": "yes", "highway": "bus_stop", "name": "Av. Constituci\u00f3 - Pl\u00e7a. Charlie Rivel", "public_transport": "platform", "shelter": "no"}}, {"type": "node", "id": 1202082032, "lat": 41.4540957, "lon": 1.9592363, "tags": {"bus": "yes", "highway": "bus_stop", "name": "Constituci\u00f3 - Maresme", "public_transport": "platform", "shelter": "yes"}}, {"type": "node", "id": 1202082036, "lat": 41.4539545, "lon": 1.9591771, "tags": {"bus": "yes", "highway": "bus_stop", "name": "Constituci\u00f3 - Pirineus", "public_transport": "platform", "shelter": "yes"}}, {"type": "node", "id": 1202082039, "lat": 41.4493313, "lon": 1.9670427, "tags": {"alt_name": "Av. Constituci\u00f3 (Biblioteca)", "bus": "yes", "highway": "bus_stop", "name": "Av. Constituci\u00f3 / Vall\u00e8s", "name:ca": "Av. Constituci\u00f3 / Vall\u00e8s", "public_transport": "platform"}}, {"type": "node", "id": 1202082222, "lat": 41.4478795, "lon": 1.9650054, "tags": {"bus": "yes", "highway": "bus_stop", "name": "Can Salvi", "name:ca": "Can Salvi", "network": "Valldaina \u2013 Can Sunyer \u2013 Sant Andreu de la Barca", "operator": "Soler i Sauret", "public_transport": "stop_position", "shelter": "no"}}, {"type": "node", "id": 1241876168, "lat": 41.5167336, "lon": 2.1264283, "tags": {"bench": "yes", "bus": "yes", "highway": "bus_stop", "name": "Barber\u00e0 Centre", "name:ca": "Barber\u00e0 Centre", "public_transport": "platform", "shelter": "yes"}}, {"type": "node", "id": 1241876170, "lat": 41.5170281, "lon": 2.1260537, "tags": {"bus": "yes", "highway": "bus_stop", "name": "Barber\u00e0 Centre", "name:ca": "Barber\u00e0 Centre", "public_transport": "platform"}}, {"type": "node", "id": 1249047462, "lat": 41.560117, "lon": 2.0949225, "tags": {"bench": "yes", "bus": "yes", "highway": "bus_stop", "name": "la Conc\u00f2rdia", "name:ca": "la Conc\u00f2rdia", "network": "Bus de Sabadell", "operator": "Transports Urbans de Sabadell", "public_transport": "platform", "ref": "86", "shelter": "yes"}}, {"type": "node", "id": 1249051960, "lat": 41.5602123, "lon": 2.0944759, "tags": {"bench": "yes", "bus": "yes", "highway": "bus_stop", "name": "la Conc\u00f2rdia", "name:ca": "la Conc\u00f2rdia", "network": "Bus de Sabadell", "operator": "Transports Urbans de Sabadell", "public_transport": "platform", "ref": "68", "shelter": "yes"}}, {"type": "node", "id": 1251016668, "lat": 41.4862507, "lon": 2.0569819, "tags": {"bus": "yes", "highway": "bus_stop", "local_ref": "L7 (CC), L9", "name": "Av. Via Augusta (Oficines)", "public_transport": "stop_position"}}, {"type": "node", "id": 1251016724, "lat": 41.4858481, "lon": 2.0558595, "tags": {"bus": "yes", "highway": "bus_stop", "local_ref": "L7 (CC), L9", "name": "Av. Via Augusta (Oficines)", "public_transport": "stop_position"}}, {"type": "node", "id": 1251237562, "lat": 41.4783109, "lon": 2.2378917, "tags": {"bench": "yes", "bus": "yes", "highway": "bus_stop", "name": "Institut Guttmann", "network": "Autoritat del Transport Metropolit\u00e0 de l\u2019\u00e0rea de Barcelona", "network:short": "ATM", "network:wikidata": "Q1845633", "operator": "ATM (Autoritat del Transport Metropolit\u00e0 de l\u2019\u00e0rea de Barcelona)", "public_transport": "stop_position", "ref": "107187", "route_ref": "B6, B12 i B24 E33 M6", "shelter": "yes"}}, {"type": "node", "id": 1252467950, "lat": 41.4850826, "lon": 2.1833062, "tags": {"bus": "yes", "highway": "bus_stop", "name": "Quarters - Ctra Nacional 152", "public_transport": "stop_position", "ref": "986", "route_ref": "103"}}, {"type": "node", "id": 1254096223, "lat": 41.4785736, "lon": 2.1932116, "tags": {"bus": "yes", "highway": "bus_stop", "name": "Ctra. de la Vallensana - Villa Carriles", "name:ca": "Ctra. de la Vallensana - Villa Carriles", "network": "AMB Bus Metropolit\u00e0", "operator": "\u00c0rea Metropolitana de Barcelona", "public_transport": "platform", "ref": "109051"}}, {"type": "node", "id": 1254096224, "lat": 41.4790659, "lon": 2.1926807, "tags": {"bus": "yes", "highway": "bus_stop", "name": "Ctra. de la Vallensana - Ctra. de la Roca", "name:ca": "Ctra. de la Vallensana - Ctra. de la Roca", "network": "AMB Bus Metropolit\u00e0", "operator": "\u00c0rea Metropolitana de Barcelona", "public_transport": "stop_position", "ref": "109052"}}, {"type": "node", "id": 1265973209, "lat": 41.5715581, "lon": 2.1828477, "tags": {"bus": "yes", "highway": "bus_stop", "name": "Av. Catalunya - Can Maiol", "public_transport": "stop_position", "ref": "2332", "route_ref": "231"}}, {"type": "node", "id": 1265973313, "lat": 41.5723044, "lon": 2.1829572, "tags": {"bus": "yes", "highway": "bus_stop", "name": "Av. Catalunya - Can Maiol", "public_transport": "stop_position", "ref": "2279", "route_ref": "231"}}, {"type": "node", "id": 1265973334, "lat": 41.5770519, "lon": 2.1822163, "tags": {"bus": "yes", "highway": "bus_stop", "name": "Av. Catalunya - Cam\u00ed de Can Llonc - Tenda Nova", "public_transport": "stop_position", "ref": "2331", "route_ref": "231"}}, {"type": "node", "id": 1265973378, "lat": 41.5782438, "lon": 2.1818508, "tags": {"bus": "yes", "highway": "bus_stop", "name": "Av. Catalunya - Arimon", "public_transport": "stop_position", "ref": "2281", "route_ref": "231"}}, {"type": "node", "id": 1268102824, "lat": 41.5209379, "lon": 1.8959863, "tags": {"bus": "yes", "highway": "bus_stop", "name": "Pla\u00e7a del Rebato", "name:ca": "Pla\u00e7a del Rebato", "public_transport": "stop_position", "ref": "MB0232"}}, {"type": "node", "id": 1275875103, "lat": 41.474962, "lon": 2.2345649, "tags": {"bench": "yes", "bus": "yes", "highway": "bus_stop", "name": "Diagonal Costa Brava", "network": "Autoritat del Transport Metropolit\u00e0 de l\u2019\u00e0rea de Barcelona", "network:short": "ATM", "network:wikidata": "Q1845633", "operator": "ATM (Autoritat del Transport Metropolit\u00e0 de l\u2019\u00e0rea de Barcelona)", "public_transport": "platform", "ref": "105359", "route_ref": "M19 M26 N11", "shelter": "yes", "tactile_paving": "no", "wheelchair": "yes"}}, {"type": "node", "id": 1288280134, "lat": 41.582197, "lon": 2.0166479, "tags": {"bus": "yes", "highway": "bus_stop", "name": "Pla\u00e7a de la Sardana", "name:ca": "Pla\u00e7a de la Sardana", "network": "Xarxa d'autobusos Urbans de Terrassa", "operator": "TMESA", "public_transport": "stop_position", "uic_name": "FIXME", "uic_ref": "FIXME"}}, {"type": "node", "id": 1291703884, "lat": 41.4591292, "lon": 2.1548427, "tags": {"bus": "yes", "highway": "bus_stop", "name": "Ctra del Cementiri de Collserola - Recinte Hebreu", "public_transport": "stop_position", "ref": "001759", "route_ref": "102"}}, {"type": "node", "id": 1295458782, "lat": 41.5725022, "lon": 2.0144442, "tags": {"bench": "no", "bus": "yes", "covered": "no", "highway": "bus_stop", "name": "Mercat del Triomf", "name:ca": "Mercat del Triomf", "network": "Xarxa d'autobusos Urbans de Terrassa", "operator": "TMESA", "public_transport": "platform", "ref": "FIXME", "shelter": "no", "tactile_paving": "no", "uic_name": "FIXME", "uic_ref": "FIXME"}}, {"type": "node", "id": 1295458793, "lat": 41.5811405, "lon": 2.0173364, "tags": {"bench": "no", "bus": "yes", "covered": "no", "highway": "bus_stop", "name": "Pla\u00e7a de la Sardana", "name:ca": "Pla\u00e7a de la Sardana", "network": "Xarxa d'autobusos Urbans de Terrassa", "operator": "TMESA", "public_transport": "platform", "ref": "FIXME", "shelter": "no", "tactile_paving": "no", "uic_name": "FIXME", "uic_ref": "FIXME"}}, {"type": "node", "id": 1295458795, "lat": 41.5810661, "lon": 2.0142169, "tags": {"bus": "yes", "highway": "bus_stop", "name": "Nacions Unides", "name:ca": "Nacions Unides", "network": "Xarxa d'autobusos Urbans de Terrassa", "operator": "TMESA", "public_transport": "stop_position", "uic_name": "FIXME", "uic_ref": "FIXME"}}, {"type": "node", "id": 1295458799, "lat": 41.5810342, "lon": 2.0142552, "tags": {"bus": "yes", "covered": "no", "highway": "bus_stop", "name": "Nacions Unides", "name:ca": "Nacions Unides", "network": "Xarxa d'autobusos Urbans de Terrassa", "operator": "TMESA", "public_transport": "platform"}}, {"type": "node", "id": 1295458807, "lat": 41.5747467, "lon": 2.0139022, "tags": {"bench": "no", "bus": "yes", "covered": "no", "highway": "bus_stop", "name": "\u00c0rea Ol\u00edmpica", "name:ca": "\u00c0rea Ol\u00edmpica", "network": "Xarxa d'autobusos Urbans de Terrassa", "operator": "TMESA", "public_transport": "platform", "ref": "FIXME", "shelter": "no", "tactile_paving": "no", "uic_name": "FIXME", "uic_ref": "FIXME"}}, {"type": "node", "id": 1295458813, "lat": 41.579689, "lon": 2.0133911, "tags": {"bus": "yes", "highway": "bus_stop", "name": "Can Roca", "name:ca": "Can Roca", "network": "Xarxa d'autobusos Urbans de Terrassa", "operator": "TMESA", "public_transport": "stop_position", "uic_name": "FIXME", "uic_ref": "FIXME"}}, {"type": "node", "id": 1295458819, "lat": 41.572487, "lon": 2.0144156, "tags": {"bus": "yes", "highway": "bus_stop", "name": "Mercat del Triomf", "name:ca": "Mercat del Triomf", "network": "Xarxa d'autobusos Urbans de Terrassa", "operator": "TMESA", "public_transport": "stop_position", "uic_name": "FIXME", "uic_ref": "FIXME"}}, {"type": "node", "id": 1295458821, "lat": 41.5776275, "lon": 2.0135697, "tags": {"bus": "yes", "highway": "bus_stop", "name": "Voluntaris", "network": "Xarxa d'autobusos Urbans de Terrassa", "operator": "TMESA", "public_transport": "stop_position", "uic_name": "FIXME", "uic_ref": "FIXME"}}, {"type": "node", "id": 1295458828, "lat": 41.5811803, "lon": 2.017269, "tags": {"bus": "yes", "highway": "bus_stop", "name": "Pla\u00e7a de la Sardana", "name:ca": "Pla\u00e7a de la Sardana", "network": "Xarxa d'autobusos Urbans de Terrassa", "operator": "TMESA", "public_transport": "stop_position", "uic_name": "FIXME", "uic_ref": "FIXME"}}, {"type": "node", "id": 1295458832, "lat": 41.5747439, "lon": 2.0138757, "tags": {"bus": "yes", "highway": "bus_stop", "name": "\u00c0rea Ol\u00edmpica", "name:ca": "\u00c0rea Ol\u00edmpica", "network": "Xarxa d'autobusos Urbans de Terrassa", "operator": "TMESA", "public_transport": "stop_position", "uic_name": "FIXME", "uic_ref": "FIXME"}}, {"type": "node", "id": 1295458836, "lat": 41.5796924, "lon": 2.0134424, "tags": {"bench": "no", "bus": "yes", "covered": "no", "highway": "bus_stop", "name": "Can Roca", "name:ca": "Can Roca", "network": "Xarxa d'autobusos Urbans de Terrassa", "operator": "TMESA", "public_transport": "platform", "ref": "FIXME", "shelter": "no", "tactile_paving": "no", "uic_name": "FIXME", "uic_ref": "FIXME"}}, {"type": "node", "id": 1295458844, "lat": 41.5776598, "lon": 2.0136067, "tags": {"bench": "yes", "bus": "yes", "covered": "no", "highway": "bus_stop", "name": "Voluntaris", "network": "Xarxa d'autobusos Urbans de Terrassa", "operator": "TMESA", "public_transport": "platform", "ref": "FIXME", "shelter": "yes", "tactile_paving": "no", "uic_name": "FIXME", "uic_ref": "FIXME"}}, {"type": "node", "id": 1295973498, "lat": 41.5818919, "lon": 2.0096744, "tags": {"bus": "yes", "highway": "bus_stop", "name": "Sant Eloi", "name:ca": "Sant Eloi", "network": "Xarxa d'autobusos Urbans de Terrassa", "operator": "TMESA", "public_transport": "stop_position", "uic_name": "FIXME", "uic_ref": "FIXME"}}, {"type": "node", "id": 1295973520, "lat": 41.5799827, "lon": 2.0097458, "tags": {"bench": "no", "bus": "yes", "covered": "no", "highway": "bus_stop", "name": "Can Roca", "name:ca": "Can Roca", "network": "Xarxa d'autobusos Urbans de Terrassa", "operator": "TMESA", "public_transport": "platform", "ref": "FIXME", "shelter": "no", "tactile_paving": "no", "uic_name": "FIXME", "uic_ref": "FIXME"}}, {"type": "node", "id": 1295973521, "lat": 41.5797589, "lon": 2.0076226, "tags": {"bus": "yes", "highway": "bus_stop", "name": "La Manxa", "name:ca": "La Manxa", "network": "Xarxa d'autobusos Urbans de Terrassa", "operator": "TMESA", "public_transport": "stop_position", "uic_name": "FIXME", "uic_ref": "FIXME"}}, {"type": "node", "id": 1295973541, "lat": 41.5731002, "lon": 2.0026088, "tags": {"bus": "yes", "highway": "bus_stop", "name": "Eugeni d'Ors", "name:ca": "Eugeni d'Ors", "network": "Xarxa d'autobusos Urbans de Terrassa", "operator": "TMESA", "public_transport": "stop_position", "uic_name": "FIXME", "uic_ref": "FIXME"}}, {"type": "node", "id": 1295973546, "lat": 41.5800149, "lon": 2.009804, "tags": {"bus": "yes", "highway": "bus_stop", "name": "Can Roca", "name:ca": "Can Roca", "network": "Xarxa d'autobusos Urbans de Terrassa", "operator": "TMESA", "public_transport": "stop_position", "uic_name": "FIXME", "uic_ref": "FIXME"}}, {"type": "node", "id": 1295973573, "lat": 41.5819122, "lon": 2.0096401, "tags": {"bench": "yes", "bus": "yes", "covered": "no", "highway": "bus_stop", "name": "Sant Eloi", "name:ca": "Sant Eloi", "network": "Xarxa d'autobusos Urbans de Terrassa", "operator": "TMESA", "public_transport": "platform", "ref": "FIXME", "shelter": "yes", "tactile_paving": "yes", "uic_name": "FIXME", "uic_ref": "FIXME"}}, {"type": "node", "id": 1295973595, "lat": 41.58, "lon": 2.0076065, "tags": {"bench": "no", "bus": "yes", "covered": "no", "highway": "bus_stop", "name": "La Manxa", "name:ca": "La Manxa", "network": "Xarxa d'autobusos Urbans de Terrassa", "operator": "TMESA", "public_transport": "platform", "ref": "FIXME", "shelter": "no", "tactile_paving": "no", "uic_name": "FIXME", "uic_ref": "FIXME"}}, {"type": "node", "id": 1295973597, "lat": 41.5798069, "lon": 2.0075792, "tags": {"bench": "no", "bus": "yes", "covered": "no", "highway": "bus_stop", "name": "La Manxa", "name:ca": "La Manxa", "network": "Xarxa d'autobusos Urbans de Terrassa", "operator": "TMESA", "public_transport": "platform", "ref": "FIXME", "shelter": "no", "tactile_paving": "no", "uic_name": "FIXME", "uic_ref": "FIXME"}}, {"type": "node", "id": 1296252950, "lat": 41.5707993, "lon": 2.0033503, "tags": {"bench": "yes", "bus": "yes", "covered": "no", "highway": "bus_stop", "name": "Pla\u00e7a Llu\u00eds Companys", "name:ca": "Pla\u00e7a Llu\u00eds Companys", "network": "Xarxa d'autobusos Urbans de Terrassa", "operator": "TMESA", "public_transport": "platform", "ref": "FIXME", "shelter": "no", "tactile_paving": "no", "uic_name": "FIXME", "uic_ref": "FIXME"}}, {"type": "node", "id": 1296252955, "lat": 41.5706423, "lon": 2.0035939, "tags": {"bus": "yes", "highway": "bus_stop", "name": "Pla\u00e7a Llu\u00eds Companys", "name:ca": "Pla\u00e7a Llu\u00eds Companys", "network": "Xarxa d'autobusos Urbans de Terrassa", "operator": "TMESA", "public_transport": "stop_position", "uic_name": "FIXME", "uic_ref": "FIXME"}}, {"type": "node", "id": 1296252969, "lat": 41.5751716, "lon": 2.0024019, "tags": {"bench": "no", "bus": "yes", "covered": "no", "highway": "bus_stop", "name": "Josep Llimona", "network": "Xarxa d'autobusos Urbans de Terrassa", "operator": "TMESA", "public_transport": "platform", "ref": "FIXME", "shelter": "no", "tactile_paving": "no", "uic_name": "FIXME", "uic_ref": "FIXME"}}, {"type": "node", "id": 1296252970, "lat": 41.5786949, "lon": 2.0050465, "tags": {"bus": "yes", "highway": "bus_stop", "name": "Pla\u00e7a Canj\u00e1yar", "name:ca": "Pla\u00e7a Canj\u00e1yar", "network": "Xarxa d'autobusos Urbans de Terrassa", "operator": "TMESA", "public_transport": "stop_position", "uic_name": "FIXME", "uic_ref": "FIXME"}}, {"type": "node", "id": 1296252975, "lat": 41.5787155, "lon": 2.0050008, "tags": {"bench": "no", "bus": "yes", "covered": "no", "highway": "bus_stop", "name": "Pla\u00e7a Canj\u00e1yar", "name:ca": "Pla\u00e7a Canj\u00e1yar", "network": "Xarxa d'autobusos Urbans de Terrassa", "operator": "TMESA", "public_transport": "platform", "ref": "FIXME", "shelter": "no", "tactile_paving": "no", "uic_name": "FIXME", "uic_ref": "FIXME"}}, {"type": "node", "id": 1296252976, "lat": 41.5730904, "lon": 2.0025607, "tags": {"bench": "no", "bus": "yes", "covered": "no", "highway": "bus_stop", "name": "Eugeni d'Ors", "name:ca": "Eugeni d'Ors", "network": "Xarxa d'autobusos Urbans de Terrassa", "operator": "TMESA", "public_transport": "platform", "ref": "FIXME", "shelter": "yes", "tactile_paving": "no", "uic_name": "FIXME", "uic_ref": "FIXME"}}, {"type": "node", "id": 1296252991, "lat": 41.5706471, "lon": 2.0036498, "tags": {"bench": "no", "bus": "yes", "covered": "no", "highway": "bus_stop", "name": "Pla\u00e7a Llu\u00eds Companys", "name:ca": "Pla\u00e7a Llu\u00eds Companys", "network": "Xarxa d'autobusos Urbans de Terrassa", "operator": "TMESA", "public_transport": "platform", "ref": "FIXME", "shelter": "yes", "tactile_paving": "no", "uic_name": "FIXME", "uic_ref": "FIXME"}}, {"type": "node", "id": 1296252995, "lat": 41.5751617, "lon": 2.0024461, "tags": {"bus": "yes", "highway": "bus_stop", "name": "Josep Llimona", "network": "Xarxa d'autobusos Urbans de Terrassa", "operator": "TMESA", "public_transport": "stop_position", "uic_name": "FIXME", "uic_ref": "FIXME"}}, {"type": "node", "id": 1342703742, "lat": 41.535995, "lon": 2.1927826, "tags": {"bus": "yes", "highway": "bus_stop", "name": "C-59 - La Caranaisa", "public_transport": "stop_position"}}, {"type": "node", "id": 1343918461, "lat": 41.5367272, "lon": 2.1956742, "tags": {"bus": "yes", "highway": "bus_stop", "name": "Alstom", "public_transport": "stop_position", "ref": "2864", "route_ref": "345"}}, {"type": "node", "id": 1347066542, "lat": 41.5512713, "lon": 2.0085883, "tags": {"bus": "yes", "highway": "bus_stop", "name": "Jutjats", "name:ca": "Jutjats", "public_transport": "stop_position"}}, {"type": "node", "id": 1374275337, "lat": 41.4353817, "lon": 2.0475956, "tags": {"bus": "yes", "highway": "bus_stop", "name": "Can Santoi", "name:ca": "Can Santoi", "network": "AMB Bus Metropolit\u00e0", "operator": "\u00c0rea Metropolitana de Barcelona", "public_transport": "stop_position", "ref": "200156", "route_ref": "MB3"}}, {"type": "node", "id": 1374308473, "lat": 41.4442192, "lon": 2.0555062, "tags": {"bus": "yes", "highway": "bus_stop", "name": "Av. Montserrat c. Barranc del Llop 2", "name:ca": "Av. Montserrat c. Barranc del Llop 2", "network": "AMB Bus Metropolit\u00e0", "operator": "\u00c0rea Metropolitana de Barcelona", "public_transport": "stop_position", "ref": "200160", "route_ref": "MB3"}}, {"type": "node", "id": 1374370640, "lat": 41.4338025, "lon": 2.0880941, "tags": {"bus": "yes", "highway": "bus_stop", "name": "Pla\u00e7a Maria Antonia", "name:ca": "Pla\u00e7a Maria Antonia", "public_transport": "stop_position"}}, {"type": "node", "id": 1376653242, "lat": 41.4167397, "lon": 1.9939973, "tags": {"bus": "yes", "highway": "bus_stop", "name": "Escola \u00c0ngel Guimer\u00e0", "name:ca": "Escola \u00c0ngel Guimer\u00e0", "network": "AMB Bus Metropolit\u00e0", "operator": "\u00c0rea Metropolitana de Barcelona", "public_transport": "stop_position", "ref": "201331", "route_ref": "PF1"}}, {"type": "node", "id": 1376653328, "lat": 41.4190589, "lon": 1.9980393, "tags": {"bus": "yes", "highway": "bus_stop", "name": "Av. Prat de la Riba - Moreres", "name:ca": "Av. Prat de la Riba - Moreres", "network": "AMB Bus Metropolit\u00e0", "operator": "\u00c0rea Metropolitana de Barcelona", "public_transport": "stop_position", "ref": "201297", "route_ref": "PF1 PF2"}}, {"type": "node", "id": 1386871667, "lat": 41.4858159, "lon": 2.0628279, "tags": {"bus": "yes", "highway": "bus_stop", "local_ref": "L9", "name": "Av. Can Bellet, Roc Cod\u00f3", "public_transport": "stop_position"}}, {"type": "node", "id": 1386871723, "lat": 41.4870352, "lon": 2.0672135, "tags": {"bus": "yes", "highway": "bus_stop", "local_ref": "L7 (CC)", "name": "Av. Via Augusta, Av. de Can Clota", "public_transport": "stop_position"}}, {"type": "node", "id": 1388971038, "lat": 41.4807966, "lon": 2.0695336, "tags": {"bus": "yes", "highway": "bus_stop", "local_ref": "L7", "name": "Av. de la Clota, (Escola l'Olivera)", "public_transport": "stop_position"}}, {"type": "node", "id": 1390694280, "lat": 41.4779571, "lon": 2.0688479, "tags": {"bus": "yes", "highway": "bus_stop", "name": "Rotonda Xic", "name:ca": "Rotonda Xic", "public_transport": "stop_position"}}, {"type": "node", "id": 1390915957, "lat": 41.4744728, "lon": 2.0741199, "tags": {"bus": "yes", "highway": "bus_stop", "local_ref": "L2", "name": "Pere Serra", "name:ca": "Pere Serra", "public_transport": "stop_position"}}, {"type": "node", "id": 1392465091, "lat": 41.4681459, "lon": 2.0784063, "tags": {"bus": "yes", "highway": "bus_stop", "local_ref": "L1, L2, L3, L8, A4, A6, N61", "name": "FGC Sant Cugat", "name:ca": "FGC Sant Cugat", "public_transport": "stop_position", "wheelchair": "yes"}}, {"type": "node", "id": 1393780050, "lat": 41.4790554, "lon": 2.0911716, "tags": {"bus": "yes", "highway": "bus_stop", "local_ref": "L8", "name": "Av. Ragull", "public_transport": "stop_position"}}, {"type": "node", "id": 1393880118, "lat": 41.4789678, "lon": 2.0713381, "tags": {"bus": "yes", "highway": "bus_stop", "local_ref": "L2", "name": "Av. Graells, V\u00edctor Catal\u00e0", "public_transport": "stop_position"}}, {"type": "node", "id": 1394240887, "lat": 41.4696834, "lon": 2.0419442, "tags": {"bus": "yes", "highway": "bus_stop", "local_ref": "L1", "name": "Av. de Can Cabassa, Arag\u00f3", "public_transport": "stop_position"}}, {"type": "node", "id": 1395447666, "lat": 41.4921863, "lon": 2.0566465, "tags": {"bus": "yes", "highway": "bus_stop", "name": "Deutsche Bank", "name:ca": "Deutsche Bank", "public_transport": "platform"}}, {"type": "node", "id": 1395447681, "lat": 41.491564, "lon": 2.0578377, "tags": {"bus": "yes", "highway": "bus_stop", "public_transport": "platform"}}, {"type": "node", "id": 1396201529, "lat": 41.4580391, "lon": 2.0686047, "tags": {"bus": "yes", "highway": "bus_stop", "name": "FGC Valldoreix", "name:ca": "FGC Valldoreix", "public_transport": "stop_position"}}, {"type": "node", "id": 1396578633, "lat": 41.4806007, "lon": 2.0483213, "tags": {"bus": "yes", "highway": "bus_stop", "name": "Cam\u00ed de Ca n'Atmeller", "name:ca": "Cam\u00ed de Ca n'Atmeller", "public_transport": "stop_position"}}, {"type": "node", "id": 1400541015, "lat": 41.4696471, "lon": 2.0776291, "tags": {"bus": "yes", "highway": "bus_stop", "local_ref": "L2", "name": "Martorell", "name:ca": "FGC Sant Cugat / Martorell", "public_transport": "stop_position"}}, {"type": "node", "id": 1404185218, "lat": 41.4769407, "lon": 2.0888829, "tags": {"bus": "yes", "highway": "bus_stop", "local_ref": "L1", "name": "Pl. Sant Francesc, Joan XXIII", "public_transport": "stop_position"}}, {"type": "node", "id": 1404185221, "lat": 41.4720378, "lon": 2.0813905, "tags": {"bus": "yes", "highway": "bus_stop", "local_ref": "L1, L2, L3, L8, A4, A6", "name": "Av. Rius i Taulet, Enric Granados", "public_transport": "stop_position"}}, {"type": "node", "id": 1404185222, "lat": 41.4798249, "lon": 2.089433, "tags": {"bus": "yes", "highway": "bus_stop", "local_ref": "L1, L2, L8", "name": "Clementina Arderiu", "public_transport": "stop_position"}}, {"type": "node", "id": 1404185223, "lat": 41.4717083, "lon": 2.0857159, "tags": {"bus": "yes", "highway": "bus_stop", "name": "Rbla. del Celler, Sant Medir", "public_transport": "stop_position", "ref": "5085", "route_ref": "L1, L2, L3, L7, L8, L9, A4, A6, B7"}}, {"type": "node", "id": 1404185237, "lat": 41.4769125, "lon": 2.0908314, "tags": {"bus": "yes", "highway": "bus_stop", "local_ref": "L1, L8", "name": "Rbla. Torrent d'en Xandri", "public_transport": "stop_position", "shelter": "no"}}, {"type": "node", "id": 1404185239, "lat": 41.4732767, "lon": 2.0899867, "tags": {"bus": "yes", "highway": "bus_stop", "local_ref": "L1", "name": "Passeig de la Torre Blanca, Vall\u00e8s", "name:ca": "Passeig de la Torre Blanca, Vall\u00e8s", "public_transport": "stop_position"}}, {"type": "node", "id": 1404185242, "lat": 41.4831726, "lon": 2.0896261, "tags": {"bus": "yes", "highway": "bus_stop", "local_ref": "L1, L2, L8", "name": "Torrent de Ferrussons, Adri\u00e0 Gual", "public_transport": "stop_position"}}, {"type": "node", "id": 1404185251, "lat": 41.4793026, "lon": 2.0877715, "tags": {"bus": "yes", "highway": "bus_stop", "local_ref": "L1", "name": "Pau VI", "public_transport": "stop_position"}}, {"type": "node", "id": 1404185255, "lat": 41.4740431, "lon": 2.0798972, "tags": {"bus": "yes", "highway": "bus_stop", "local_ref": "L1, L3", "name": "Passeig de Sant Mag\u00ed", "name:ca": "Passeig de Sant Mag\u00ed", "public_transport": "stop_position"}}, {"type": "node", "id": 1404185260, "lat": 41.4711613, "lon": 2.0789549, "tags": {"bus": "yes", "highway": "bus_stop", "name": "Av. Llu\u00eds Companys", "public_transport": "stop_position", "ref": "5090", "route_ref": "L1, L2, L3, L8, A4, A6"}}, {"type": "node", "id": 1404185267, "lat": 41.4751257, "lon": 2.0814029, "tags": {"bus": "yes", "highway": "bus_stop", "local_ref": "L1, L2, L3, L9", "name": "La Mina (CAP)", "public_transport": "stop_position"}}, {"type": "node", "id": 1404185270, "lat": 41.4712141, "lon": 2.0822741, "tags": {"bus": "yes", "highway": "bus_stop", "local_ref": "L1, L2, L3, L8", "name": "Pla\u00e7a dels Quatre Cantons", "name:ca": "Pla\u00e7a dels Quatre Cantons", "public_transport": "stop_position"}}, {"type": "node", "id": 1404185273, "lat": 41.4765188, "lon": 2.0833649, "tags": {"bus": "yes", "highway": "bus_stop", "local_ref": "L1, L8", "name": "Salvador Espriu, Passeig de Francesc Maci\u00e0", "public_transport": "stop_position"}}, {"type": "node", "id": 1404185275, "lat": 41.4660882, "lon": 2.0740431, "tags": {"bus": "yes", "highway": "bus_stop", "local_ref": "L1", "name": "Pg. Olabarria, Av. de Can Picanyol", "public_transport": "stop_position"}}, {"type": "node", "id": 1404185277, "lat": 41.4775546, "lon": 2.0879552, "tags": {"bus": "yes", "highway": "bus_stop", "local_ref": "L1, L8", "name": "Joan XXIII", "public_transport": "stop_position"}}, {"type": "node", "id": 1404185285, "lat": 41.4699681, "lon": 2.0895117, "tags": {"bus": "yes", "highway": "bus_stop", "local_ref": "L1, L2, L3, L8", "name": "Avinguda Pla del Vinyet, Mercat Torre Blanca", "name:ca": "Avinguda Pla del Vinyet, Mercat Torre Blanca", "public_transport": "stop_position", "wheelchair": "yes"}}, {"type": "node", "id": 1404185287, "lat": 41.4793228, "lon": 2.08695, "tags": {"bus": "yes", "highway": "bus_stop", "local_ref": "L1, L2, L8", "name": "Salvador Espriu, Joan Alcover", "public_transport": "stop_position"}}, {"type": "node", "id": 1404185288, "lat": 41.4807299, "lon": 2.0910452, "tags": {"bus": "yes", "highway": "bus_stop", "local_ref": "L1", "name": "Avinguda de Can Mag\u00ed (Camp de Futbol)", "name:ca": "Avinguda de Can Mag\u00ed (Camp de Futbol)", "public_transport": "stop_position"}}, {"type": "node", "id": 1404185291, "lat": 41.4738542, "lon": 2.0902205, "tags": {"bus": "yes", "highway": "bus_stop", "local_ref": "L1, L8, L9", "name": "Av. de Cerdanyola", "public_transport": "stop_position"}}, {"type": "node", "id": 1404786981, "lat": 41.474914, "lon": 2.0706642, "tags": {"bus": "yes", "highway": "bus_stop", "local_ref": "L2", "name": "Josep Vidal i Gran\u00e9s", "public_transport": "stop_position"}}, {"type": "node", "id": 1404786983, "lat": 41.4705696, "lon": 2.0713034, "tags": {"bus": "yes", "highway": "bus_stop", "local_ref": "L2", "name": "Vallseca", "name:ca": "Vallseca", "public_transport": "stop_position", "wheelchair": "no"}}, {"type": "node", "id": 1404786984, "lat": 41.4699076, "lon": 2.0751478, "tags": {"bus": "yes", "highway": "bus_stop", "local_ref": "L2", "name": "Sant Celoni", "name:ca": "Sant Celoni", "public_transport": "stop_position"}}, {"type": "node", "id": 1404786985, "lat": 41.4717781, "lon": 2.0724628, "tags": {"bus": "yes", "highway": "bus_stop", "local_ref": "L2", "name": "Cam\u00ed de Can Minguet, Pere Serra", "name:ca": "Cam\u00ed de Can Minguet, Pere Serra", "public_transport": "stop_position"}}, {"type": "node", "id": 1404786986, "lat": 41.4775265, "lon": 2.0691466, "tags": {"bus": "yes", "highway": "bus_stop", "local_ref": "L2", "name": "Carretera de Vallvidrera, Cap Tur\u00f3 de Can Matas", "public_transport": "stop_position"}}, {"type": "node", "id": 1404786987, "lat": 41.4703809, "lon": 2.0573662, "tags": {"bus": "yes", "highway": "bus_stop", "local_ref": "L2", "name": "Vallseca, Bonaventura de G.", "name:ca": "Vallseca, Bonaventura de G.", "public_transport": "stop_position"}}, {"type": "node", "id": 1404786989, "lat": 41.4774498, "lon": 2.0725107, "tags": {"bus": "yes", "highway": "bus_stop", "local_ref": "L2", "name": "Avinguda Graells", "name:ca": "Avinguda Graells", "public_transport": "stop_position"}}, {"type": "node", "id": 1404787003, "lat": 41.4706398, "lon": 2.0677177, "tags": {"bus": "yes", "highway": "bus_stop", "local_ref": "L2", "name": "Vallseca, C. de la Coma", "name:ca": "Vallseca, C. de la Coma", "public_transport": "stop_position"}}, {"type": "node", "id": 1404787008, "lat": 41.4686479, "lon": 2.0760538, "tags": {"bus": "yes", "highway": "bus_stop", "local_ref": "L1, L2, L3, A4, A6", "name": "Avinguda de l'Enlla\u00e7", "public_transport": "stop_position"}}, {"type": "node", "id": 1404787015, "lat": 41.4725063, "lon": 2.0547486, "tags": {"bus": "yes", "highway": "bus_stop", "local_ref": "L2", "name": "Josep Irla, J. de Montcorb", "public_transport": "stop_position"}}, {"type": "node", "id": 1404791116, "lat": 41.4740887, "lon": 2.0698527, "tags": {"bus": "yes", "highway": "bus_stop", "local_ref": "L2", "name": "Manel Farr\u00e9s, Alella", "name:ca": "Manel Farr\u00e9s, Alella", "public_transport": "stop_position"}}, {"type": "node", "id": 1404791117, "lat": 41.4742801, "lon": 2.066688, "tags": {"bus": "yes", "highway": "bus_stop", "local_ref": "L2", "name": "Josep Irla, Carrer de la Coma", "public_transport": "stop_position"}}, {"type": "node", "id": 1404791119, "lat": 41.4721282, "lon": 2.0603482, "tags": {"bus": "yes", "highway": "bus_stop", "local_ref": "L2", "name": "Josep Irla, Avinguda del Bell Indret", "public_transport": "stop_position"}}, {"type": "node", "id": 1405789166, "lat": 41.4600889, "lon": 2.066137, "tags": {"bus": "yes", "highway": "bus_stop", "local_ref": "L1", "name": "Pg. d'Olabarria, CAP Valldoreix", "public_transport": "stop_position"}}, {"type": "node", "id": 1405835132, "lat": 41.4689582, "lon": 2.0616394, "tags": {"bus": "yes", "highway": "bus_stop", "local_ref": "L1", "name": "Pla\u00e7a J. Borr\u00e0s, FGC Mira-Sol", "name:ca": "Pla\u00e7a J. Borr\u00e0s, FGC Mira-Sol", "public_transport": "stop_position", "wheelchair": "yes"}}, {"type": "node", "id": 1405835135, "lat": 41.4671225, "lon": 2.0615601, "tags": {"bus": "yes", "highway": "bus_stop", "local_ref": "L1", "name": "Pla\u00e7a d'Espanya", "name:ca": "Pla\u00e7a d'Espanya", "public_transport": "stop_position", "wheelchair": "yes"}}, {"type": "node", "id": 1405835138, "lat": 41.4659657, "lon": 2.0475613, "tags": {"bus": "yes", "highway": "bus_stop", "local_ref": "L1", "name": "Av. Madrid, Pg. del Nard", "public_transport": "stop_position", "wheelchair": "limited"}}, {"type": "node", "id": 1405835141, "lat": 41.4687285, "lon": 2.0501471, "tags": {"bus": "yes", "highway": "bus_stop", "local_ref": "L1", "name": "Cam\u00ed de Sant Cugat al Papiol, CEIP Catalunya", "name:ca": "Cam\u00ed de Sant Cugat al Papiol, CEIP Catalunya", "public_transport": "stop_position"}}, {"type": "node", "id": 1405835144, "lat": 41.4666309, "lon": 2.0543842, "tags": {"bus": "yes", "highway": "bus_stop", "local_ref": "L1", "name": "Pg. del Baixador, Saragossa", "public_transport": "stop_position"}}, {"type": "node", "id": 1405835146, "lat": 41.4700489, "lon": 2.0484971, "tags": {"bus": "yes", "highway": "bus_stop", "local_ref": "L1", "name": "Pompeu Fabra", "name:ca": "Pompeu Fabra", "public_transport": "stop_position"}}, {"type": "node", "id": 1405835149, "lat": 41.4655804, "lon": 2.0623507, "tags": {"bus": "yes", "highway": "bus_stop", "local_ref": "L1", "name": "Pl. de Mira-sol", "public_transport": "stop_position", "wheelchair": "yes"}}, {"type": "node", "id": 1405835156, "lat": 41.4694019, "lon": 2.0467805, "tags": {"bus": "yes", "highway": "bus_stop", "local_ref": "L1", "name": "Pompeu Fabra, Pg. del Roser", "name:ca": "Pompeu Fabra, Pg. del Roser", "public_transport": "stop_position"}}, {"type": "node", "id": 1405835159, "lat": 41.4683795, "lon": 2.0528457, "tags": {"bus": "yes", "highway": "bus_stop", "local_ref": "L1", "name": "Cam\u00ed de Sant Cugat al Papiol, Saragossa", "name:ca": "Cam\u00ed de Sant Cugat al Papiol, Saragossa", "public_transport": "stop_position"}}, {"type": "node", "id": 1405835162, "lat": 41.467683, "lon": 2.0580754, "tags": {"bus": "yes", "highway": "bus_stop", "local_ref": "L1", "name": "Pg. del Baixador, Terol", "public_transport": "stop_position"}}, {"type": "node", "id": 1405835164, "lat": 41.4623396, "lon": 2.0642537, "tags": {"bus": "yes", "highway": "bus_stop", "local_ref": "L1", "name": "Av. Bilbao", "public_transport": "stop_position", "wheelchair": "yes"}}, {"type": "node", "id": 1405835167, "lat": 41.471716, "lon": 2.044358, "tags": {"bus": "yes", "highway": "bus_stop", "local_ref": "L1", "name": "Av. de Can Cabassa, Josep Valls", "public_transport": "stop_position"}}, {"type": "node", "id": 1405835169, "lat": 41.4678574, "lon": 2.0437777, "tags": {"bus": "yes", "highway": "bus_stop", "local_ref": "L1", "name": "Pg. del Nard", "public_transport": "stop_position"}}, {"type": "node", "id": 1405835172, "lat": 41.4684288, "lon": 2.0411486, "tags": {"bus": "yes", "highway": "bus_stop", "local_ref": "L1", "name": "Fuerteventura", "public_transport": "stop_position"}}, {"type": "node", "id": 1405835175, "lat": 41.4667305, "lon": 2.0502957, "tags": {"bus": "yes", "highway": "bus_stop", "local_ref": "L1", "name": "Av. Madrid, Vit\u00f2ria", "public_transport": "stop_position"}}, {"type": "node", "id": 1406178558, "lat": 41.4924282, "lon": 2.0740984, "tags": {"bus": "yes", "highway": "bus_stop", "local_ref": "L6, L7", "name": "Pla\u00e7a Xavier Cugat", "name:ca": "Pla\u00e7a Xavier Cugat", "public_transport": "stop_position"}}, {"type": "node", "id": 1406178559, "lat": 41.4906836, "lon": 2.0765933, "tags": {"bus": "yes", "highway": "bus_stop", "local_ref": "L6, L7", "name": "FGC Can Sant Joan", "name:ca": "FGC Can Sant Joan", "public_transport": "stop_position"}}, {"type": "node", "id": 1406178561, "lat": 41.4889308, "lon": 2.0777147, "tags": {"bus": "yes", "highway": "bus_stop", "local_ref": "L6, L7", "name": "Avinguda Alcalde Barnils (Asepeyo)", "name:ca": "Avinguda Alcalde Barnils (Asepeyo)", "public_transport": "stop_position"}}, {"type": "node", "id": 1406189249, "lat": 41.4789849, "lon": 2.0941104, "tags": {"bus": "yes", "highway": "bus_stop", "local_ref": "L6", "name": "Pol\u00edgon Can Mag\u00ed", "name:ca": "Pol\u00edgon Can Mag\u00ed", "public_transport": "stop_position"}}, {"type": "node", "id": 1406189250, "lat": 41.4855227, "lon": 2.0863098, "tags": {"bus": "yes", "highway": "bus_stop", "local_ref": "L6", "name": "Avinguda Roquetes 63", "name:ca": "Avinguda Roquetes 63", "public_transport": "stop_position"}}, {"type": "node", "id": 1406189251, "lat": 41.473689, "lon": 2.0955336, "tags": {"bus": "yes", "highway": "bus_stop", "local_ref": "L6", "name": "Cam\u00ed de Can Calders, Av. de Cerdanyola", "name:ca": "Cam\u00ed de Can Calders, Av. de Cerdanyola", "public_transport": "stop_position"}}, {"type": "node", "id": 1406189252, "lat": 41.4832055, "lon": 2.0906682, "tags": {"bus": "yes", "highway": "bus_stop", "local_ref": "L6, L8", "name": "Av. Roquetes, Campoamor", "public_transport": "stop_position"}}, {"type": "node", "id": 1406189253, "lat": 41.4743755, "lon": 2.0974728, "tags": {"bus": "yes", "highway": "bus_stop", "local_ref": "L6, L8", "name": "Can Calders", "name:ca": "Can Calders", "public_transport": "stop_position"}}, {"type": "node", "id": 1406189255, "lat": 41.4830703, "lon": 2.0907075, "tags": {"bus": "yes", "highway": "bus_stop", "local_ref": "L6", "name": "Av. Roquetes, Torrent de Ferrussons", "public_transport": "stop_position"}}, {"type": "node", "id": 1406241817, "lat": 41.4421836, "lon": 2.0897305, "tags": {"bus": "yes", "highway": "bus_stop", "local_ref": "L3, L4", "name": "Av. Pere Planes, Cam\u00ed de Can Flo", "public_transport": "stop_position"}}, {"type": "node", "id": 1406241835, "lat": 41.4443668, "lon": 2.0751376, "tags": {"bus": "yes", "highway": "bus_stop", "local_ref": "L3, L4", "name": "Pl. Doctor Villar", "public_transport": "stop_position"}}, {"type": "node", "id": 1406268054, "lat": 41.4469552, "lon": 2.0802242, "tags": {"bus": "yes", "highway": "bus_stop", "local_ref": "L3", "name": "Av. Emeterio Escudero", "public_transport": "stop_position"}}, {"type": "node", "id": 1406268056, "lat": 41.4460203, "lon": 2.0873104, "tags": {"bus": "yes", "highway": "bus_stop", "local_ref": "L3, L4", "name": "Avinguda Montseny, Niu Ferrer", "name:ca": "Avinguda Montseny, Niu Ferrer", "public_transport": "stop_position"}}, {"type": "node", "id": 1406268065, "lat": 41.4482128, "lon": 2.0749987, "tags": {"bus": "yes", "highway": "bus_stop", "local_ref": "L3, L4", "name": "Pla\u00e7a del Pont del Diari", "name:ca": "Pla\u00e7a del Pont del Diari", "public_transport": "stop_position"}}, {"type": "node", "id": 1406268067, "lat": 41.4412382, "lon": 2.080402, "tags": {"bus": "yes", "highway": "bus_stop", "local_ref": "L3, L4", "name": "Av. Pere Planes, Adri\u00e0 Pardos", "public_transport": "stop_position"}}, {"type": "node", "id": 1406268070, "lat": 41.4601523, "lon": 2.0746633, "tags": {"bus": "yes", "highway": "bus_stop", "local_ref": "L3, L4", "name": "Col\u00b7legi el Pinar", "name:ca": "Col\u00b7legi el Pinar", "public_transport": "stop_position"}}, {"type": "node", "id": 1406268078, "lat": 41.4436734, "lon": 2.0765689, "tags": {"bus": "yes", "highway": "bus_stop", "local_ref": "L3, L4", "name": "Pg. de la Floresta, Ptge. Dalmau", "public_transport": "stop_position"}}, {"type": "node", "id": 1406268081, "lat": 41.4478891, "lon": 2.0817301, "tags": {"bus": "yes", "highway": "bus_stop", "local_ref": "L3, L4", "name": "Passeig del \u00c0lbers, Carrer Escudero", "name:ca": "Passeig del \u00c0lbers, Carrer Escudero", "public_transport": "stop_position"}}, {"type": "node", "id": 1406268087, "lat": 41.4476264, "lon": 2.0780135, "tags": {"bus": "yes", "highway": "bus_stop", "local_ref": "L3", "name": "Av. Emeterio Escudero, Ptge. Bonfill", "public_transport": "stop_position"}}, {"type": "node", "id": 1406268089, "lat": 41.4641685, "lon": 2.0772056, "tags": {"bus": "yes", "highway": "bus_stop", "local_ref": "L3", "name": "Vill\u00e0 - Golf", "public_transport": "stop_position"}}, {"type": "node", "id": 1406268091, "lat": 41.4478172, "lon": 2.0839695, "tags": {"bus": "yes", "highway": "bus_stop", "local_ref": "L3", "name": "Av. Emeterio Escudero - Tur\u00f3", "public_transport": "stop_position"}}, {"type": "node", "id": 1406268092, "lat": 41.4446392, "lon": 2.0735829, "tags": {"bus": "yes", "highway": "bus_stop", "local_ref": "L3, L4", "name": "FGC La Floresta", "public_transport": "stop_position"}}, {"type": "node", "id": 1406268093, "lat": 41.440053, "lon": 2.0825043, "tags": {"bus": "yes", "highway": "bus_stop", "local_ref": "L3, L4", "name": "Av. Pere Planas", "public_transport": "stop_position"}}, {"type": "node", "id": 1406268094, "lat": 41.4423008, "lon": 2.0779172, "tags": {"bus": "yes", "highway": "bus_stop", "local_ref": "L3, L4", "name": "Pl. de Pere Planas", "public_transport": "stop_position"}}, {"type": "node", "id": 1406268095, "lat": 41.439453, "lon": 2.0862847, "tags": {"bus": "yes", "highway": "bus_stop", "local_ref": "L3, L4", "name": "Av. Pere Planes, Ptge. del Sanatori del Fumet", "public_transport": "stop_position"}}, {"type": "node", "id": 1406268099, "lat": 41.4480791, "lon": 2.0757751, "tags": {"bus": "yes", "highway": "bus_stop", "local_ref": "L3, L4", "name": "Pla\u00e7a del Pont del Diari", "name:ca": "Pla\u00e7a del Pont del Diari", "public_transport": "stop_position"}}, {"type": "node", "id": 1406271230, "lat": 41.4747786, "lon": 2.0861349, "tags": {"bus": "yes", "highway": "bus_stop", "local_ref": "L3, L7, L9", "name": "Pg. de Francesc maci\u00e0, Monestir", "public_transport": "stop_position"}},