{"version": 0.6, "generator": "Overpass API 0.7.62.5 1bd436f1", "osm3s": {"timestamp_osm_base": "2025-04-09T14:59:39Z", "copyright": "The data included in this document is from www.openstreetmap.org. The data is made available under ODbL."}, "elements": [{"type": "node", "id": 1816994999, "lat": 36.0385151, "lon": 6.586705, "tags": {"name": "A\u00efn M'lila", "name:ar": "\u0639\u064a\u0646 \u0645\u0644\u064a\u0644\u0629", "name:en": "Ain M'lila", "name:fr": "A\u00efn M'lila", "operator": "SNTF", "public_transport": "station", "railway": "station", "train": "yes", "wikidata": "Q116780255", "wikipedia": "fr:Gare de A\u00efn M'lila"}}, {"type": "node", "id": 2573289151, "lat": 35.9700054, "lon": 6.8548115, "tags": {"level": "0", "name": "A\u00efn Fakroun", "name:ar": "\u0639\u064a\u0646 \u0641\u0643\u0631\u0648\u0646", "name:en": "Ain Fakroun", "name:fr": "A\u00efn Fakroun", "public_transport": "station", "railway": "station", "train": "yes", "wikidata": "Q116920138", "wikipedia": "fr:Gare d'A\u00efn Fakroun"}}, {"type": "node", "id": 3917374658, "lat": 36.1367001, "lon": 6.6083019}, {"type": "node", "id": 3961837203, "lat": 35.8880137, "lon": 6.4998256, "tags": {"name": "Sebbakh", "public_transport": "station", "railway": "station", "train": "yes"}}, {"type": "node", "id": 4249363402, "lat": 36.0652748, "lon": 6.5798977, "tags": {"bus": "yes", "highway": "bus_stop", "public_transport": "platform"}}, {"type": "node", "id": 4290849124, "lat": 36.033496, "lon": 6.5757797, "tags": {"bus": "yes", "highway": "bus_stop", "name": "taxi", "public_transport": "platform"}}, {"type": "node", "id": 4760556321, "lat": 35.9703582, "lon": 6.8761208, "tags": {"bus": "yes", "highway": "bus_stop", "public_transport": "platform"}}, {"type": "node", "id": 10966751596, "lat": 36.1366559, "lon": 6.6083639}, {"type": "node", "id": 10966753189, "lat": 36.1362397, "lon": 6.6080215}, {"type": "node", "id": 10966753624, "lat": 36.1362621, "lon": 6.6079754}, {"type": "node", "id": 10966754289, "lat": 36.1366215, "lon": 6.6084348}, {"type": "node", "id": 10966755090, "lat": 36.1361882, "lon": 6.6081118}, {"type": "node", "id": 10966755346, "lat": 36.1362341, "lon": 6.6080173}, {"type": "node", "id": 10966755818, "lat": 36.1366663, "lon": 6.6083716}, {"type": "way", "id": 1180830474, "nodes": [10966753624, 10966753189, 10966755346, 10966755090, 10966754289, 10966751596, 10966755818, 3917374658, 10966753624], "tags": {"addr:city": "\u0627\u0644\u0642\u0631\u0627\u062d", "addr:city:ar": "\u0627\u0644\u0642\u0631\u0627\u062d", "building": "yes", "name": "El Guerrah", "name:ar": "\u0627\u0644\u0642\u0631\u0627\u062d", "name:en": "El Guerrah", "name:fr": "El Guerrah", "name:kab": "\u0627\u0644\u06a4\u0631\u0627\u062d", "operator": "\u0627\u0644\u0634\u0631\u0643\u0629 \u0627\u0644\u0648\u0637\u0646\u064a\u0629 \u0644\u0644\u0646\u0642\u0644 \u0628\u0627\u0644\u0633\u0643\u0643 \u0627\u0644\u062d\u062f\u064a\u062f\u064a\u0629", "operator:ar": "\u0627\u0644\u0634\u0631\u0643\u0629 \u0627\u0644\u0648\u0637\u0646\u064a\u0629 \u0644\u0644\u0646\u0642\u0644 \u0628\u0627\u0644\u0633\u0643\u0643 \u0627\u0644\u062d\u062f\u064a\u062f\u064a\u0629", "operator:wikidata": "Q1275038", "operator:wikipedia": "ar:\u0627\u0644\u0634\u0631\u0643\u0629 \u0627\u0644\u0648\u0637\u0646\u064a\u0629 \u0644\u0644\u0646\u0642\u0644 \u0628\u0627\u0644\u0633\u0643\u0643 \u0627\u0644\u062d\u062f\u064a\u062f\u064a\u0629", "public_transport": "station", "railway": "station", "source": "FB: Algerie Mapper Team", "train": "yes", "wikidata": "Q116780218", "wikipedia": "fr:Gare d'El Guerrah"}}]}