{"version": 0.6, "generator": "Overpass API 0.7.62.5 1bd436f1", "osm3s": {"timestamp_osm_base": "2025-04-09T14:34:15Z", "copyright": "The data included in this document is from www.openstreetmap.org. The data is made available under ODbL."}, "elements": [{"type": "node", "id": 305360106, "lat": 42.5749959, "lon": 1.0906742, "tags": {"bus": "yes", "highway": "bus_stop", "name": "Espot", "public_transport": "stop_position", "route_ref": "L1645"}}, {"type": "node", "id": 305395785, "lat": 42.6341165, "lon": 1.1106569, "tags": {"bus": "yes", "highway": "bus_stop", "name": "Val\u00e8ncia d'\u00c0neu", "public_transport": "stop_position", "route_ref": "L1645"}}, {"type": "node", "id": 3682896010, "lat": 42.9383824, "lon": 1.0326634, "tags": {"alt_name": "Bus Ari\u00e8ge Cescau", "bus": "yes", "highway": "bus_stop", "name": "Arrout - Cescau", "pole": "no", "public_transport": "platform", "shelter": "no"}}, {"type": "node", "id": 3682896011, "lat": 42.9213614, "lon": 1.031479, "tags": {"alt_name": "Bus Ari\u00e8ge Castillon en Couserans", "bus": "yes", "highway": "bus_stop", "name": "Centre - Castillon-En-Couserans", "pole": "no", "public_transport": "platform", "shelter": "no"}}, {"type": "node", "id": 3682900229, "lat": 42.9009216, "lon": 1.029161, "tags": {"alt_name": "Les Bordes sur Lez - Place Mairie", "bench": "no", "bin": "no", "bus": "yes", "highway": "bus_stop", "name": "Place Mairie - Bordes-Uchentein", "pole": "no", "public_transport": "platform", "shelter": "no", "tactile_paving": "no"}}, {"type": "node", "id": 3682901852, "lat": 42.8744497, "lon": 0.95589, "tags": {"bench": "no", "bin": "no", "bus": "yes", "highway": "bus_stop", "lit": "no", "name": "Bus Ari\u00e8ge Sentein", "public_transport": "platform", "shelter": "no", "tactile_paving": "no"}}, {"type": "node", "id": 3682906740, "lat": 42.876695, "lon": 0.9737634, "tags": {"alt_name": "Bus Ari\u00e8ge Bonac Lavoir", "bus": "yes", "highway": "bus_stop", "name": "Lavoir - Bonac-Irazein", "pole": "no", "public_transport": "platform", "shelter": "no"}}, {"type": "node", "id": 4542672852, "lat": 42.6340638, "lon": 1.1107413, "tags": {"bus": "yes", "highway": "bus_stop", "name": "Val\u00e8ncia d'\u00c0neu", "public_transport": "platform", "route_ref": "L1645"}}, {"type": "node", "id": 4545223765, "lat": 42.6649034, "lon": 0.978431, "tags": {"bus": "yes", "highway": "bus_stop", "name": "Port de la Bonaigua", "public_transport": "stop_position", "route_ref": "L1645"}}, {"type": "node", "id": 5858990254, "lat": 42.5941364, "lon": 1.1317539, "tags": {"bench": "yes", "bus": "yes", "highway": "bus_stop", "name": "la Guingueta d'\u00c0neu", "name:ca": "la Guingueta d'\u00c0neu", "note": "and opposite (unmarked) for northbound", "passenger_information_display": "no", "public_transport": "platform", "route_ref": "L1645 L0092", "shelter": "yes", "tactile_paving": "incorrect"}}, {"type": "node", "id": 5858994218, "lat": 42.6244547, "lon": 1.1240332, "tags": {"bus": "yes", "highway": "bus_stop", "name": "Esterri d'\u00c0neu", "name:ca": "Esterri d'\u00c0neu", "public_transport": "platform"}}, {"type": "node", "id": 7295003184, "lat": 42.6242196, "lon": 1.1236228, "tags": {"bus": "yes", "highway": "bus_stop", "name": "Esterri d'\u00c0neu", "public_transport": "platform", "ref": "68", "route_ref": "L1645 L0092"}}, {"type": "node", "id": 7341487148, "lat": 42.6466192, "lon": 1.0826216, "tags": {"bus": "yes", "highway": "bus_stop", "name": "Els Avets", "public_transport": "stop_position", "route_ref": "L1645"}}, {"type": "node", "id": 7341487166, "lat": 42.6467578, "lon": 1.0825874, "tags": {"bus": "yes", "highway": "bus_stop", "name": "Els Avets", "public_transport": "stop_position", "route_ref": "L1645"}}, {"type": "node", "id": 9967080131, "lat": 42.5771098, "lon": 1.1406863, "tags": {"bus": "yes", "highway": "bus_stop", "name": "Cru\u00eflla d'Espot i Berr\u00f3s", "public_transport": "stop_position"}}, {"type": "node", "id": 10001135986, "lat": 42.577124, "lon": 1.1407272, "tags": {"bench": "yes", "bus": "yes", "highway": "bus_stop", "name": "Cru\u00eflla d'Espot i Berr\u00f3s", "public_transport": "platform", "route_ref": "L1645", "shelter": "yes"}}, {"type": "node", "id": 10001135987, "lat": 42.5765169, "lon": 1.141286, "tags": {"bus": "yes", "highway": "bus_stop", "name": "Espot (embrancament)", "public_transport": "stop_position", "route_ref": "L1645"}}, {"type": "node", "id": 10012232685, "lat": 42.9214614, "lon": 1.0317692, "tags": {"alt_name": "Bus Ari\u00e8ge Castillon en Couserans", "bench": "yes", "bin": "no", "bus": "yes", "highway": "bus_stop", "name": "Centre - Castillon-En-Couserans", "pole": "yes", "public_transport": "platform", "shelter": "no"}}, {"type": "node", "id": 10012241818, "lat": 42.9010478, "lon": 1.0292818, "tags": {"alt_name": "Les Bordes sur Lez - Place Mairie", "bench": "no", "bin": "no", "bus": "yes", "highway": "bus_stop", "name": "Place Mairie - Bordes-Uchentein", "pole": "yes", "public_transport": "platform", "shelter": "no", "tactile_paving": "no"}}, {"type": "node", "id": 10012245064, "lat": 42.8743164, "lon": 0.955868, "tags": {"bench": "no", "bin": "no", "bus": "yes", "highway": "bus_stop", "lit": "no", "name": "Bus Ari\u00e8ge Sentein", "public_transport": "platform", "shelter": "no", "tactile_paving": "no"}}, {"type": "node", "id": 10012248271, "lat": 42.8765969, "lon": 0.9737185, "tags": {"alt_name": "Bus Ari\u00e8ge Bonac Lavoir", "bus": "yes", "highway": "bus_stop", "name": "Lavoir - Bonac-Irazein", "pole": "yes", "public_transport": "platform", "shelter": "no"}}, {"type": "node", "id": 10013830315, "lat": 42.9382856, "lon": 1.0328188, "tags": {"alt_name": "Bus Ari\u00e8ge Cescau", "bench": "yes", "bus": "yes", "highway": "bus_stop", "name": "Arrout - Cescau", "public_transport": "platform", "shelter": "yes"}}, {"type": "node", "id": 10014711604, "lat": 42.8762701, "lon": 0.9921373, "tags": {"alt_name": "Bus Ari\u00e8ge Bonac Uchentein", "bus": "yes", "highway": "bus_stop", "name": "Lascoux Uchentein - Bonac-Irazein", "pole": "no", "public_transport": "platform", "shelter": "no"}}, {"type": "node", "id": 10014711605, "lat": 42.8763187, "lon": 0.992105, "tags": {"alt_name": "Bus Ari\u00e8ge Bonac Uchentein", "bus": "yes", "highway": "bus_stop", "name": "Lascoux Uchentein - Bonac-Irazein", "pole": "no", "public_transport": "platform", "shelter": "no"}}, {"type": "node", "id": 10015136334, "lat": 42.884978, "lon": 1.019553, "tags": {"alt_name": "Les Bordes sur Lez - Rib\u00e9rot", "bench": "yes", "bus": "yes", "highway": "bus_stop", "name": "Riberot - Bordes-Uchentein", "public_transport": "platform", "shelter": "yes"}}, {"type": "node", "id": 10015142194, "lat": 42.8849871, "lon": 1.0193292, "tags": {"alt_name": "Les Bordes sur Lez - Rib\u00e9rot", "bus": "yes", "highway": "bus_stop", "name": "Riberot - Bordes-Uchentein", "pole": "no", "public_transport": "platform", "shelter": "no"}}, {"type": "node", "id": 11241277807, "lat": 42.5941419, "lon": 1.1318509, "tags": {"bus": "yes", "highway": "bus_stop", "name": "La Guingueta d'\u00c0neu", "public_transport": "stop_position", "route_ref": "L1645 L0092"}}, {"type": "node", "id": 11564886080, "lat": 42.8738557, "lon": 0.9553193, "tags": {"highway": "bus_stop", "name": "Place - Sentein", "public_transport": "platform", "shelter": "separate"}}, {"type": "node", "id": 11577294730, "lat": 42.9278017, "lon": 1.0242391, "tags": {"bench": "yes", "highway": "bus_stop", "name": "Audressein - Mairie", "public_transport": "platform", "shelter": "yes"}}, {"type": "node", "id": 11577294731, "lat": 42.9302713, "lon": 0.9935345, "tags": {"bench": "yes", "highway": "bus_stop", "name": "Argein - Village", "public_transport": "platform", "shelter": "yes"}}, {"type": "node", "id": 11577294732, "lat": 42.9356315, "lon": 0.9740429, "tags": {"highway": "bus_stop", "name": "Aucazein - Mairie", "public_transport": "platform"}}, {"type": "node", "id": 11577294733, "lat": 42.9369029, "lon": 0.966074, "tags": {"bus": "yes", "highway": "bus_stop", "name": "Illartein - Place de l'\u00c9glise", "pole": "yes", "public_transport": "platform", "shelter": "no"}}, {"type": "node", "id": 11577294738, "lat": 42.9351943, "lon": 0.9444427, "tags": {"bus": "yes", "highway": "bus_stop", "name": "Orgibet - Augistrou", "pole": "no", "public_transport": "platform", "shelter": "no"}}, {"type": "node", "id": 11577294740, "lat": 42.9341117, "lon": 0.9381472, "tags": {"bench": "yes", "highway": "bus_stop", "name": "Orgibet - Mairie", "public_transport": "platform", "shelter": "yes"}}, {"type": "node", "id": 11577294743, "lat": 42.9322968, "lon": 0.9191848, "tags": {"bench": "yes", "highway": "bus_stop", "name": "Augirein - Rd618 Cimeti\u00e8re", "public_transport": "platform", "shelter": "yes"}}, {"type": "node", "id": 11581520734, "lat": 42.9324256, "lon": 0.9193566, "tags": {"bench": "no", "bin": "no", "bus": "yes", "highway": "bus_stop", "name": "Augirein - Rd618 Cimeti\u00e8re", "pole": "yes", "public_transport": "platform", "shelter": "no"}}, {"type": "node", "id": 11581520736, "lat": 42.9341945, "lon": 0.9380657, "tags": {"highway": "bus_stop", "name": "Orgibet - Mairie", "public_transport": "platform", "stop_sequence": "18"}}, {"type": "node", "id": 11581520737, "lat": 42.9352412, "lon": 0.9444695, "tags": {"bus": "yes", "highway": "bus_stop", "name": "Orgibet - Augistrou", "pole": "no", "public_transport": "platform", "shelter": "no"}}, {"type": "node", "id": 11581520740, "lat": 42.9369947, "lon": 0.9661605, "tags": {"bus": "yes", "highway": "bus_stop", "name": "Illartein - Place de l'\u00c9glise", "pole": "no", "public_transport": "platform", "shelter": "no"}}, {"type": "node", "id": 11581520741, "lat": 42.9357277, "lon": 0.9741756, "tags": {"bus": "yes", "highway": "bus_stop", "name": "Aucazein - Mairie", "pole": "no", "public_transport": "platform", "shelter": "no"}}, {"type": "node", "id": 11581520742, "lat": 42.9303764, "lon": 0.9936002, "tags": {"bus": "yes", "highway": "bus_stop", "name": "Argein - Village", "pole": "no", "public_transport": "platform", "shelter": "no"}}, {"type": "node", "id": 11581520743, "lat": 42.9279028, "lon": 1.024231, "tags": {"bus": "yes", "highway": "bus_stop", "name": "Audressein - Mairie", "pole": "no", "public_transport": "platform", "shelter": "no"}}, {"type": "node", "id": 12048903537, "lat": 42.5750285, "lon": 1.0907038, "tags": {"bus": "yes", "highway": "bus_stop", "name": "Espot", "public_transport": "platform", "route_ref": "L1645"}}, {"type": "node", "id": 12048903538, "lat": 42.5770665, "lon": 1.1405941, "tags": {"bus": "yes", "highway": "bus_stop", "name": "Cru\u00eflla d'Espot i Berr\u00f3s", "public_transport": "stop_position", "route_ref": "L1645"}}, {"type": "node", "id": 12048903539, "lat": 42.5941781, "lon": 1.1318417, "tags": {"bus": "yes", "highway": "bus_stop", "name": "La Guingueta d'\u00c0neu", "public_transport": "stop_position", "route_ref": "L1645 L0092"}}, {"type": "node", "id": 12048903540, "lat": 42.5941882, "lon": 1.1319228, "tags": {"bus": "yes", "highway": "bus_stop", "name": "La Guingueta d'\u00c0neu", "public_transport": "platform", "route_ref": "L1645 L0092"}}, {"type": "node", "id": 12048903541, "lat": 42.624218, "lon": 1.1235343, "tags": {"bus": "yes", "highway": "bus_stop", "name": "Esterri d'\u00c0neu", "public_transport": "stop_position", "route_ref": "L1645 L0092"}}, {"type": "node", "id": 12048903542, "lat": 42.6467961, "lon": 1.0826183, "tags": {"bus": "yes", "highway": "bus_stop", "name": "Els Avets", "public_transport": "platform", "route_ref": "L1645"}}, {"type": "node", "id": 12048903543, "lat": 42.6537386, "lon": 1.0000057, "tags": {"bus": "yes", "highway": "bus_stop", "name": "Aparcament de Gerber", "public_transport": "stop_position", "route_ref": "L1645"}}, {"type": "node", "id": 12048903544, "lat": 42.6536904, "lon": 1.0000837, "tags": {"bus": "yes", "highway": "bus_stop", "name": "Aparcament de Gerber", "public_transport": "platform", "route_ref": "L1645"}}, {"type": "node", "id": 12048903545, "lat": 42.6648992, "lon": 0.9784962, "tags": {"bus": "yes", "highway": "bus_stop", "name": "Port de la Bonaigua", "public_transport": "platform", "route_ref": "L1645"}}, {"type": "node", "id": 12054687423, "lat": 42.6649053, "lon": 0.978344, "tags": {"bus": "yes", "highway": "bus_stop", "name": "Port de la Bonaigua", "public_transport": "stop_position", "route_ref": "L1645"}}, {"type": "node", "id": 12054687424, "lat": 42.6648974, "lon": 0.9782177, "tags": {"bus": "yes", "highway": "bus_stop", "name": "Port de la Bonaigua", "public_transport": "platform", "route_ref": "L1645"}}, {"type": "node", "id": 12054687425, "lat": 42.6537776, "lon": 1.000037, "tags": {"bus": "yes", "highway": "bus_stop", "name": "Aparcament de Gerber", "public_transport": "stop_position", "route_ref": "L1645"}}, {"type": "node", "id": 12054687426, "lat": 42.6537953, "lon": 0.9999673, "tags": {"bus": "yes", "highway": "bus_stop", "name": "Aparcament de Gerber", "public_transport": "platform", "route_ref": "L1645"}}, {"type": "node", "id": 12054687979, "lat": 42.6465856, "lon": 1.0825285, "tags": {"bus": "yes", "highway": "bus_stop", "name": "Els Avets", "public_transport": "platform", "route_ref": "L1645"}}, {"type": "node", "id": 12054687980, "lat": 42.5764895, "lon": 1.1412108, "tags": {"bus": "yes", "highway": "bus_stop", "name": "Espot (embrancament)", "public_transport": "platform", "route_ref": "L1645"}}]}