{"version": 0.6, "generator": "Overpass API 0.7.62.5 1bd436f1", "osm3s": {"timestamp_osm_base": "2025-04-09T14:45:30Z", "copyright": "The data included in this document is from www.openstreetmap.org. The data is made available under ODbL."}, "elements": [{"type": "node", "id": 494164640, "lat": 43.9254184, "lon": 2.1472326, "tags": {"highway": "bus_stop", "public_transport": "stop_position", "source": "cadastre-dgi-fr source : Direction G\u00e9n\u00e9rale des Imp\u00f4ts - Cadastre. Mise \u00e0 jour : 2009"}}, {"type": "node", "id": 497481468, "lat": 44.092652, "lon": 2.2949977, "tags": {"highway": "bus_stop"}}, {"type": "node", "id": 497481469, "lat": 43.9920267, "lon": 2.1750536, "tags": {"highway": "bus_stop"}}, {"type": "node", "id": 497481470, "lat": 43.98633, "lon": 2.1742163, "tags": {"bench": "no", "bin": "no", "highway": "bus_stop", "shelter": "no", "tactile_paving": "no"}}, {"type": "node", "id": 497481471, "lat": 43.9782467, "lon": 2.1767597, "tags": {"bench": "yes", "bus": "yes", "highway": "bus_stop", "public_transport": "platform", "shelter": "yes", "source": "survey 2017;BDOrtho IGN 2016"}}, {"type": "node", "id": 497481472, "lat": 43.9614684, "lon": 2.1780719, "tags": {"bench": "yes", "bus": "yes", "highway": "bus_stop", "public_transport": "platform", "shelter": "yes", "source": "survey 2017;BDOrtho IGN 2016"}}, {"type": "node", "id": 497481473, "lat": 43.8992178, "lon": 2.1486188, "tags": {"highway": "bus_stop"}}, {"type": "node", "id": 497481475, "lat": 43.883511, "lon": 2.1688954, "tags": {"bench": "yes", "bin": "no", "highway": "bus_stop", "network": "TarnBus", "shelter": "yes", "source": "survey 2016"}}, {"type": "node", "id": 497481476, "lat": 43.875042, "lon": 2.1784446, "tags": {"bench": "no", "bin": "no", "highway": "bus_stop", "network": "TarnBus", "shelter": "no", "source": "survey 2016;BDOrtho IGN 2016"}}, {"type": "node", "id": 497481477, "lat": 43.8653236, "lon": 2.1870404, "tags": {"bench": "yes", "highway": "bus_stop", "shelter": "yes"}}, {"type": "node", "id": 497481508, "lat": 43.7953458, "lon": 2.1441178, "tags": {"bench": "no", "highway": "bus_stop", "name": "Les Lizes", "network": "Tarn Bus", "operator": "CG 81", "shelter": "no", "source": "survey"}}, {"type": "node", "id": 497481509, "lat": 43.7804446, "lon": 2.1049457, "tags": {"bench": "no", "bin": "no", "highway": "bus_stop", "lit": "yes", "name": "La Sagnette", "network": "Tarn Bus", "shelter": "no", "source": "survey", "tactile_paving": "no"}}, {"type": "node", "id": 497481510, "lat": 43.7758822, "lon": 2.0795903, "tags": {"highway": "bus_stop", "name": "Le Bruc", "network": "Tarn Bus", "shelter": "yes", "source": "survey"}}, {"type": "node", "id": 651948859, "lat": 43.918458, "lon": 2.1075866, "tags": {"bench": "no", "bin": "no", "bus": "yes", "covered": "no", "departures_board": "timetable", "highway": "bus_stop", "name": "Stade de Fonlabour", "public_transport": "platform", "shelter": "no", "tactile_paving": "no"}}, {"type": "node", "id": 669092213, "lat": 43.9198332, "lon": 2.1386238, "tags": {"bench": "yes", "bus": "yes", "covered": "no", "departures_board": "timetable", "highway": "bus_stop", "name": "Universit\u00e9", "public_transport": "platform", "ref": "98101", "route_ref": "702;TEX", "shelter": "yes", "tactile_paving": "yes"}}, {"type": "node", "id": 675653293, "lat": 43.9221102, "lon": 2.1381916, "tags": {"bench": "yes", "bin": "no", "bus": "yes", "covered": "no", "highway": "bus_stop", "lit": "no", "local_ref": "Albi Gare 921", "name": "Gare Albi-Ville", "public_transport": "platform", "ref": "219500", "shelter": "yes", "tactile_paving": "no"}}, {"type": "node", "id": 675669590, "lat": 43.9248876, "lon": 2.1450434, "tags": {"bench": "yes", "bin": "yes", "bus": "yes", "covered": "no", "departures_board": "timetable", "highway": "bus_stop", "name": "H\u00f4pital - M\u00e9diath\u00e8que", "public_transport": "platform", "route_ref": "TEX", "shelter": "yes", "tactile_paving": "yes"}}, {"type": "node", "id": 707202786, "lat": 43.913741, "lon": 2.0439604, "tags": {"bench": "yes", "highway": "bus_stop", "name": "Lamartine", "passenger_information_display": "yes", "public_transport": "platform", "ref": "123700", "shelter": "yes"}}, {"type": "node", "id": 761650927, "lat": 43.943157, "lon": 2.1587553, "tags": {"bench": "no", "bin": "no", "bus": "yes", "covered": "no", "departures_board": "timetable", "highway": "bus_stop", "name": "Jean-Louis Fieu", "public_transport": "platform", "shelter": "no", "tactile_paving": "yes"}}, {"type": "node", "id": 834709440, "lat": 43.706468, "lon": 2.1371675, "tags": {"highway": "bus_stop", "name": "Lautrec Village", "network": "Tarn Bus", "operator": "CG 81", "route_ref": "704", "source": "survey"}}, {"type": "node", "id": 834709909, "lat": 43.7068941, "lon": 2.1374128, "tags": {"check_date:shelter": "2022-06-19", "highway": "bus_stop", "name": "Lautrec Village", "network": "Tarn Bus", "operator": "CG 81", "route_ref": "704", "shelter": "yes", "source": "survey"}}, {"type": "node", "id": 846358714, "lat": 43.7032645, "lon": 2.130439, "tags": {"highway": "bus_stop", "route_ref": "704", "source": "survey"}}, {"type": "node", "id": 963048316, "lat": 43.7705404, "lon": 2.0594611}, {"type": "node", "id": 963050736, "lat": 43.7705594, "lon": 2.0594555}, {"type": "node", "id": 963187010, "lat": 43.7705692, "lon": 2.0595185}, {"type": "node", "id": 963196080, "lat": 43.7705496, "lon": 2.0595205}, {"type": "node", "id": 1106649555, "lat": 43.9171795, "lon": 2.1171301, "tags": {"bench": "yes", "bin": "yes", "bus": "yes", "covered": "no", "departures_board": "timetable", "highway": "bus_stop", "name": "Rond-Point du S\u00e9questre", "public_transport": "platform", "ref": "141303", "shelter": "yes", "tactile_paving": "yes"}}, {"type": "node", "id": 1123341389, "lat": 43.9164504, "lon": 2.1100415, "tags": {"bench": "yes", "bin": "no", "bus": "yes", "covered": "no", "departures_board": "timetable", "highway": "bus_stop", "lit": "yes", "name": "La Baute", "public_transport": "platform", "shelter": "yes", "tactile_paving": "no"}}, {"type": "node", "id": 1123465491, "lat": 43.9184961, "lon": 2.1105593, "tags": {"bench": "yes", "bin": "yes", "bus": "yes", "covered": "no", "departures_board": "timetable", "highway": "bus_stop", "name": "Portes d'Albi", "public_transport": "platform", "shelter": "yes"}}, {"type": "node", "id": 1123465497, "lat": 43.9176984, "lon": 2.1137489, "tags": {"bench": "no", "bin": "no", "bus": "yes", "covered": "no", "departures_board": "timetable", "highway": "bus_stop", "name": "Parc des Expositions", "public_transport": "platform", "shelter": "no", "tactile_paving": "no"}}, {"type": "node", "id": 1123465502, "lat": 43.9187796, "lon": 2.1192837, "tags": {"bench": "no", "bin": "no", "bus": "yes", "covered": "no", "departures_board": "timetable", "highway": "bus_stop", "name": "Route de Toulouse", "public_transport": "platform", "shelter": "no", "tactile_paving": "yes"}}, {"type": "node", "id": 1123467538, "lat": 43.9180268, "lon": 2.0953694, "tags": {"highway": "bus_stop"}}, {"type": "node", "id": 1123467540, "lat": 43.9188649, "lon": 2.0927565, "tags": {"highway": "bus_stop"}}, {"type": "node", "id": 1123467543, "lat": 43.9174912, "lon": 2.0828676, "tags": {"bench": "no", "departures_board": "timetable", "highway": "bus_stop", "name": "Albip\u00f4le", "pole": "yes", "public_transport": "platform", "shelter": "no"}}, {"type": "node", "id": 1123467551, "lat": 43.9174238, "lon": 2.0722088, "tags": {"bench": "no", "highway": "bus_stop", "name": "Pontet", "pole": "yes", "public_transport": "platform", "shelter": "no"}}, {"type": "node", "id": 1123467557, "lat": 43.9177595, "lon": 2.09843, "tags": {"bench": "no", "bin": "yes", "bus": "yes", "covered": "no", "departures_board": "timetable", "highway": "bus_stop", "name": "Lyc\u00e9e Fonlabour", "public_transport": "platform", "shelter": "no", "tactile_paving": "no"}}, {"type": "node", "id": 1123467564, "lat": 43.9170426, "lon": 2.0977662, "tags": {"highway": "bus_stop"}}, {"type": "node", "id": 1123469780, "lat": 43.9247637, "lon": 2.0763455, "tags": {"bus": "yes", "highway": "bus_stop", "name": "Terssac", "public_transport": "platform"}}, {"type": "node", "id": 1123469781, "lat": 43.9261077, "lon": 2.0773375, "tags": {"bench": "yes", "highway": "bus_stop", "name": "Guyot", "public_transport": "platform", "shelter": "yes"}}, {"type": "node", "id": 1123469782, "lat": 43.9283704, "lon": 2.0730293, "tags": {"bench": "yes", "highway": "bus_stop", "name": "Terssac Mairie", "public_transport": "platform", "shelter": "yes"}}, {"type": "node", "id": 1123469783, "lat": 43.9250339, "lon": 2.0728979, "tags": {"bench": "yes", "highway": "bus_stop", "name": "Colombier", "public_transport": "platform", "shelter": "yes"}}, {"type": "node", "id": 1123473025, "lat": 43.9151576, "lon": 2.0268912, "tags": {"name": "Marssac-sur-Tarn", "operator": "SNCF", "public_transport": "station", "railway": "station", "train": "yes", "uic_ref": "8761541", "wikidata": "Q3096988", "wikipedia": "fr:Gare de Marssac-sur-Tarn"}}, {"type": "node", "id": 1123473031, "lat": 43.9152669, "lon": 2.0297158, "tags": {"bus": "yes", "highway": "bus_stop", "name": "\u00c9cole Mairie", "public_transport": "platform"}}, {"type": "node", "id": 1123473032, "lat": 43.9114665, "lon": 2.0407532, "tags": {"bus": "yes", "highway": "bus_stop", "name": "Saint-Exup\u00e9ry", "network": "14", "operator": "Lib\u00e9a", "public_transport": "platform", "shelter": "yes", "tactile_paving": "yes"}}, {"type": "node", "id": 1123473043, "lat": 43.9100555, "lon": 2.0365302, "tags": {"bench": "yes", "bus": "yes", "highway": "bus_stop", "name": "Trincade", "public_transport": "platform", "shelter": "yes"}}, {"type": "node", "id": 1123478890, "lat": 43.9101232, "lon": 2.1017655, "tags": {"bus": "yes", "highway": "bus_stop", "name": "Bondanci\u00e9", "public_transport": "platform"}}, {"type": "node", "id": 1123478935, "lat": 43.9150244, "lon": 2.1068271, "tags": {"bus": "yes", "highway": "bus_stop", "name": "Les Marranes", "public_transport": "platform"}}, {"type": "node", "id": 1123478947, "lat": 43.9109725, "lon": 2.1123553, "tags": {"bus": "yes", "highway": "bus_stop", "name": "Saint-Exup\u00e9ry", "public_transport": "platform"}}, {"type": "node", "id": 1123478961, "lat": 43.9082517, "lon": 2.1153487, "tags": {"bus": "yes", "highway": "bus_stop", "name": "Pendari\u00e8s", "public_transport": "platform"}}, {"type": "node", "id": 1123478970, "lat": 43.9090239, "lon": 2.117611, "tags": {"bus": "yes", "highway": "bus_stop", "name": "Genevoix", "public_transport": "platform"}}, {"type": "node", "id": 1123478987, "lat": 43.9097172, "lon": 2.1066982, "tags": {"bus": "yes", "highway": "bus_stop", "name": "Sav\u00e8nes", "public_transport": "platform"}}, {"type": "node", "id": 1123479016, "lat": 43.9184454, "lon": 2.0319449, "tags": {"highway": "bus_stop"}}, {"type": "node", "id": 1123479025, "lat": 43.9091016, "lon": 2.1146995, "tags": {"bus": "yes", "highway": "bus_stop", "name": "Pagnol", "public_transport": "platform"}}, {"type": "node", "id": 1123479046, "lat": 43.914707, "lon": 2.1036145, "tags": {"bus": "yes", "highway": "bus_stop", "name": "Le Stade", "public_transport": "platform", "shelter": "no"}}, {"type": "node", "id": 1123483656, "lat": 43.9124573, "lon": 2.1308708, "tags": {"bench": "no", "bin": "no", "bus": "yes", "covered": "no", "departures_board": "timetable", "highway": "bus_stop", "name": "Taillades", "public_transport": "platform", "shelter": "no", "tactile_paving": "no"}}, {"type": "node", "id": 1123483658, "lat": 43.9083785, "lon": 2.12362, "tags": {"bus": "yes", "highway": "bus_stop", "name": "Lilas", "public_transport": "platform"}}, {"type": "node", "id": 1123483665, "lat": 43.9151741, "lon": 2.1322641, "tags": {"bench": "yes", "bus": "yes", "covered": "yes", "departures_board": "timetable", "highway": "bus_stop", "name": "Mar\u00e9chal Juin", "public_transport": "platform", "shelter": "yes", "tactile_paving": "yes"}}, {"type": "node", "id": 1123483667, "lat": 43.9191654, "lon": 2.1256826, "tags": {"bench": "no", "bin": "no", "bus": "yes", "covered": "no", "departures_board": "timetable", "highway": "bus_stop", "name": "Les Brus", "public_transport": "platform", "shelter": "no", "tactile_paving": "yes"}}, {"type": "node", "id": 1123483669, "lat": 43.8914136, "lon": 2.1700267, "tags": {"bus": "yes", "covered": "yes", "highway": "bus_stop", "name": "La Cayri\u00e9", "public_transport": "platform", "shelter": "yes"}}, {"type": "node", "id": 1123483679, "lat": 43.9163141, "lon": 2.1330271, "tags": {"bus": "yes", "highway": "bus_stop", "name": "Moli\u00e8re", "public_transport": "platform"}}, {"type": "node", "id": 1123483685, "lat": 43.9165453, "lon": 2.1315044, "tags": {"bench": "yes", "bus": "yes", "covered": "no", "departures_board": "timetable", "highway": "bus_stop", "name": "Rayssac", "public_transport": "platform", "shelter": "yes", "tactile_paving": "yes"}}, {"type": "node", "id": 1123483689, "lat": 43.9184051, "lon": 2.1307778, "tags": {"bench": "yes", "bus": "yes", "covered": "no", "departures_board": "timetable", "highway": "bus_stop", "name": "Jouvet", "public_transport": "platform", "shelter": "yes", "tactile_paving": "yes"}}, {"type": "node", "id": 1123483690, "lat": 43.9095212, "lon": 2.1255836, "tags": {"bus": "yes", "highway": "bus_stop", "name": "Bel Air", "public_transport": "platform"}}, {"type": "node", "id": 1123483693, "lat": 43.9189481, "lon": 2.1220584, "tags": {"bench": "no", "bin": "no", "bus": "yes", "covered": "no", "departures_board": "timetable", "highway": "bus_stop", "name": "S\u00e9rieyssols", "public_transport": "platform", "shelter": "no", "tactile_paving": "yes"}}, {"type": "node", "id": 1123483694, "lat": 43.8924116, "lon": 2.1660854, "tags": {"bench": "no", "bus": "yes", "covered": "yes", "highway": "bus_stop", "name": "Europe", "public_transport": "platform", "shelter": "yes"}}, {"type": "node", "id": 1129759079, "lat": 43.8984118, "lon": 2.1619951, "tags": {"bench": "no", "bus": "yes", "covered": "yes", "highway": "bus_stop", "name": "Foun Dabal", "public_transport": "platform", "shelter": "yes"}}, {"type": "node", "id": 1129759131, "lat": 43.913827, "lon": 2.135819, "tags": {"bench": "yes", "bus": "yes", "departures_board": "timetable", "highway": "bus_stop", "name": "Colonel Rolland", "public_transport": "platform", "shelter": "yes", "tactile_paving": "yes"}}, {"type": "node", "id": 1129759194, "lat": 43.8987718, "lon": 2.1694861, "tags": {"bench": "no", "bus": "yes", "covered": "no", "highway": "bus_stop", "name": "Chemin des Cr\u00eates", "public_transport": "platform", "shelter": "no"}}, {"type": "node", "id": 1129759227, "lat": 43.8966388, "lon": 2.1784582, "tags": {"bench": "yes", "bus": "yes", "covered": "yes", "highway": "bus_stop", "name": "Creyssens", "public_transport": "platform", "shelter": "yes"}}, {"type": "node", "id": 1129759298, "lat": 43.9025695, "lon": 2.1624933, "tags": {"highway": "bus_stop"}}, {"type": "node", "id": 1129759318, "lat": 43.9132022, "lon": 2.1407881, "tags": {"bench": "no", "bus": "yes", "departures_board": "timetable", "highway": "bus_stop", "name": "Veyri\u00e8res", "public_transport": "platform", "shelter": "no", "tactile_paving": "yes"}}, {"type": "node", "id": 1129759446, "lat": 43.9135919, "lon": 2.1386813, "tags": {"bench": "no", "bus": "yes", "covered": "no", "departures_board": "timetable", "highway": "bus_stop", "name": "Mistral", "public_transport": "platform", "shelter": "no", "tactile_paving": "yes"}}, {"type": "node", "id": 1129759517, "lat": 43.9149713, "lon": 2.1394802, "tags": {"highway": "bus_stop"}}, {"type": "node", "id": 1129759545, "lat": 43.9151647, "lon": 2.1410517, "tags": {"highway": "bus_stop"}}, {"type": "node", "id": 1129759608, "lat": 43.8919199, "lon": 2.1786612, "tags": {"bus": "yes", "highway": "bus_stop", "name": "Al Vign\u00e9", "public_transport": "platform"}}, {"type": "node", "id": 1132105395, "lat": 43.9169598, "lon": 2.1485042, "tags": {"bench": "no", "bus": "yes", "covered": "no", "departures_board": "timetable", "highway": "bus_stop", "name": "Lavazi\u00e8re", "public_transport": "platform", "shelter": "no", "tactile_paving": "no"}}, {"type": "node", "id": 1132105427, "lat": 43.9206344, "lon": 2.1459516, "tags": {"bench": "no", "bin": "yes", "bus": "yes", "covered": "no", "departures_board": "timetable", "highway": "bus_stop", "name": "Foch", "public_transport": "platform", "shelter": "no"}}, {"type": "node", "id": 1132105514, "lat": 43.9220173, "lon": 2.1466864, "tags": {"bench": "yes", "bus": "yes", "covered": "no", "departures_board": "timetable", "highway": "bus_stop", "name": "Rochegude", "public_transport": "platform", "shelter": "no"}}, {"type": "node", "id": 1132105545, "lat": 43.9189321, "lon": 2.1544717, "tags": {"bench": "no", "bus": "yes", "covered": "no", "highway": "bus_stop", "name": "Kennedy", "public_transport": "platform", "shelter": "no", "tactile_paving": "yes"}}, {"type": "node", "id": 1132105552, "lat": 43.9203893, "lon": 2.1617458, "tags": {"bench": "yes", "bus": "yes", "covered": "no", "departures_board": "timetable", "highway": "bus_stop", "name": "Roc", "public_transport": "platform", "shelter": "no"}}, {"type": "node", "id": 1133840962, "lat": 43.8999588, "lon": 2.1846083, "tags": {"highway": "bus_stop"}}, {"type": "node", "id": 1253889134, "lat": 44.067189, "lon": 1.900229, "tags": {"name": "Cordes-Vindrac", "official_name": "Cordes-Vindrac", "operator": "SNCF", "public_transport": "station", "railway": "station", "train": "yes", "uic_ref": "8761380", "wikidata": "Q3096287", "wikipedia": "fr:Gare de Cordes - Vindrac"}}, {"type": "node", "id": 1357798221, "lat": 43.8299528, "lon": 2.1914738, "tags": {"bench": "yes", "bin": "no", "bus": "yes", "highway": "bus_stop", "name": "D\u00e9nat - Mousquette", "network": "Tarnbus", "public_transport": "platform", "shelter": "no", "source": "survey 2016;BDotho IGN"}}, {"type": "node", "id": 1357798320, "lat": 43.7681447, "lon": 2.2279299, "tags": {"bench": "yes", "highway": "bus_stop", "shelter": "yes", "source": "survey"}}, {"type": "node", "id": 1357798702, "lat": 43.8564609, "lon": 2.1882529, "tags": {"bench": "yes", "highway": "bus_stop", "network": "TarnBus", "shelter": "yes", "source": "survey 2016"}}, {"type": "node", "id": 1357798722, "lat": 43.8896552, "lon": 2.1635088, "tags": {"bench": "no", "highway": "bus_stop", "network": "TarnBus", "shelter": "yes", "source": "survey 2016"}}, {"type": "node", "id": 1357855971, "lat": 43.957172, "lon": 2.1589602, "tags": {"highway": "bus_stop"}}, {"type": "node", "id": 1396538105, "lat": 43.8331902, "lon": 2.1902837, "tags": {"highway": "bus_stop", "name": "Denat - Las Vergnes", "shelter": "yes", "source": "survey"}}, {"type": "node", "id": 1731189449, "lat": 43.8358228, "lon": 1.8665826, "tags": {"bench": "no", "highway": "bus_stop", "shelter": "no", "tactile_paving": "yes"}}, {"type": "node", "id": 1731189452, "lat": 43.8365616, "lon": 1.8669071, "tags": {"bench": "no", "highway": "bus_stop", "shelter": "no", "tactile_paving": "yes"}}, {"type": "node", "id": 1731223500, "lat": 43.8655604, "lon": 1.8850976, "tags": {"highway": "bus_stop", "shelter": "yes"}}, {"type": "node", "id": 1824843330, "lat": 43.9003336, "lon": 1.9015322, "tags": {"bench": "yes", "bus": "yes", "departures_board": "timetable", "highway": "bus_stop", "name": "Centre Poste", "network": "liO", "note:network": "ancienement liO Tarn", "operator": "SPL D'un point \u00e0 l'autre", "public_transport": "platform", "shelter": "yes"}}, {"type": "node", "id": 1855503037, "lat": 43.9022568, "lon": 1.8924664, "tags": {"bus": "yes", "departures_board": "timetable", "highway": "bus_stop", "name": "St-Jean", "network": "La Navette", "operator": "SPL D'un point \u00e0 l'autre", "public_transport": "platform"}}, {"type": "node", "id": 1855503049, "lat": 43.9023692, "lon": 1.892125, "tags": {"bus": "yes", "departures_board": "timetable", "highway": "bus_stop", "name": "St-Jean", "network": "La Navette", "operator": "SPL D'un point \u00e0 l'autre", "public_transport": "platform"}}, {"type": "node", "id": 1867856381, "lat": 43.7050429, "lon": 2.2068068, "tags": {"highway": "bus_stop", "name": "Rodi\u00e8re", "network": "Tarn Bus", "operator": "CG 81", "shelter": "yes", "source": "survey"}}, {"type": "node", "id": 1868212999, "lat": 43.7028266, "lon": 2.2090588, "tags": {"highway": "bus_stop", "name": "Borie Basse", "network": "Tarn Bus", "note": "Le panneau indique \"Magn\u00e9\" qui est en fait l'arr\u00eat suivant", "operator": "CG 81", "shelter": "yes", "source": "survey 2016;bing 2016"}}, {"type": "node", "id": 1868213000, "lat": 43.7030005, "lon": 2.2090869, "tags": {"bench": "no", "bin": "no", "highway": "bus_stop", "name": "Borie Basse", "network": "Tarn Bus", "operator": "CG 81", "shelter": "no", "source": "survey 2016;bing 2016"}}, {"type": "node", "id": 1889005200, "lat": 43.7264986, "lon": 2.1925872, "tags": {"highway": "bus_stop", "name": "Centre-Ville", "network": "Tarn Bus", "operator": "CG 81", "shelter": "yes", "source": "survey"}}, {"type": "node", "id": 1893898256, "lat": 43.7280113, "lon": 2.191225, "tags": {"bench": "yes", "bin": "no", "highway": "bus_stop", "name": "Venes Centre-Ville", "network": "Tarn Bus", "operator": "CG 81", "shelter": "yes", "source": "survey 2016"}}, {"type": "node", "id": 1902392083, "lat": 43.9043968, "lon": 1.8958851, "tags": {"bench": "yes", "bin": "yes", "bus": "yes", "highway": "bus_stop", "lit": "yes", "name": "\u00c9cole la Clavelle - Vend\u00f4me", "public_transport": "platform", "shelter": "yes", "tactile_paving": "no"}}, {"type": "node", "id": 1902393924, "lat": 43.9000298, "lon": 1.898048, "tags": {"bench": "yes", "bin": "yes", "bus": "yes", "highway": "bus_stop", "name": "Place de la Lib\u00e9ration", "public_transport": "platform", "shelter": "yes"}}, {"type": "node", "id": 1902405689, "lat": 43.891498, "lon": 1.8787183, "tags": {"bench": "yes", "bin": "yes", "highway": "bus_stop", "name": "Longueville - Colle\u0300ge Rene\u0301e Taillefer", "public_transport": "platform", "ref": "112403", "shelter": "yes"}}, {"type": "node", "id": 1902406006, "lat": 43.8944136, "lon": 1.881643, "tags": {"bench": "yes", "bin": "yes", "bus": "yes", "departures_board": "timetable", "highway": "bus_stop", "name": "Piquerouge", "network": "La Navette", "operator": "SPL D'un point \u00e0 l'autre", "public_transport": "platform", "shelter": "separate"}}, {"type": "node", "id": 1902406546, "lat": 43.8965425, "lon": 1.8848988, "tags": {"highway": "bus_stop", "name": "Camping"}}, {"type": "node", "id": 1902408369, "lat": 43.9001606, "lon": 1.8895658, "tags": {"highway": "bus_stop", "name": "Catalanis"}}, {"type": "node", "id": 1902408993, "lat": 43.9002998, "lon": 1.8914434, "tags": {"highway": "bus_stop", "name": "Rue du The\u0301ron"}}, {"type": "node", "id": 2011563164, "lat": 43.7182864, "lon": 2.0730945, "tags": {"highway": "bus_stop", "name": "Village", "network": "Tarn Bus", "shelter": "yes", "source": "survey"}}, {"type": "node", "id": 2012995886, "lat": 43.775804, "lon": 2.0790845, "tags": {"highway": "bus_stop", "name": "Le Bruc", "network": "Tarn Bus", "shelter": "no", "source": "survey"}}, {"type": "node", "id": 2012995915, "lat": 43.7706711, "lon": 2.0591619, "tags": {"bench": "no", "bin": "no", "highway": "bus_stop", "name": "Saint-Hilaire", "network": "Tarn Bus", "shelter": "no", "source": "survey"}}, {"type": "node", "id": 2013319399, "lat": 43.7804607, "lon": 2.103643, "tags": {"bench": "yes", "bin": "no", "check_date:shelter": "2022-07-17", "highway": "bus_stop", "name": "La Sagnette", "network": "Tarn Bus", "shelter": "yes", "source": "survey"}}, {"type": "node", "id": 2014685031, "lat": 43.7743837, "lon": 2.1027057, "tags": {"highway": "bus_stop", "name": "Centre", "network": "Tarn Bus", "shelter": "no", "source": "survey"}}, {"type": "node", "id": 2333353823, "lat": 44.048472, "lon": 2.152364}, {"type": "node", "id": 2333353938, "lat": 44.048522, "lon": 2.152461}, {"type": "node", "id": 2333354110, "lat": 44.048689, "lon": 2.152294}, {"type": "node", "id": 2333354112, "lat": 44.048691, "lon": 2.152299}, {"type": "node", "id": 2333354238, "lat": 44.048787, "lon": 2.152195}, {"type": "node", "id": 2333354240, "lat": 44.048789, "lon": 2.1522}, {"type": "node", "id": 2333354313, "lat": 44.048869, "lon": 2.151969}, {"type": "node", "id": 2333354412, "lat": 44.048918, "lon": 2.152064}, {"type": "node", "id": 2411240877, "lat": 43.917779, "lon": 2.1118076, "tags": {"bus": "yes", "highway": "bus_stop", "public_transport": "platform", "shelter": "yes"}}, {"type": "node", "id": 2714879509, "lat": 43.7957985, "lon": 2.1443209, "tags": {"bench": "yes", "highway": "bus_stop", "name": "Les Lizes", "network": "Tarn Bus", "operator": "CG 81", "shelter": "yes", "source": "survey"}}, {"type": "node", "id": 2716493585, "lat": 43.8043774, "lon": 2.1502293}, {"type": "node", "id": 2716493587, "lat": 43.8043919, "lon": 2.1502602}, {"type": "node", "id": 2716493588, "lat": 43.8044004, "lon": 2.1502088}, {"type": "node", "id": 2716493589, "lat": 43.8044148, "lon": 2.1502397}, {"type": "node", "id": 2732788622, "lat": 43.7739004, "lon": 2.1859862, "tags": {"bench": "yes", "bin": "yes", "faces": "2", "highway": "bus_stop", "lit": "yes", "name": "R\u00e9almont", "network": "TarnBus", "shelter": "yes", "source": "survey", "tactile_paving": "no"}}, {"type": "node", "id": 2733287099, "lat": 43.773237, "lon": 2.1847596, "tags": {"bench": "yes", "bin": "yes", "faces": "2", "highway": "bus_stop", "lit": "yes", "name": "R\u00e9almont", "network": "TarnBus", "shelter": "yes", "source": "survey", "tactile_paving": "no"}}, {"type": "node", "id": 2923199054, "lat": 43.9324607, "lon": 2.1691347, "tags": {"bench": "no", "bin": "no", "bus": "yes", "covered": "no", "departures_board": "timetable", "highway": "bus_stop", "name": "Caussels", "public_transport": "platform", "shelter": "no"}}, {"type": "node", "id": 2968524256, "lat": 43.9236341, "lon": 2.1565789, "tags": {"bench": "yes", "bin": "yes", "bus": "yes", "covered": "no", "departures_board": "timetable", "highway": "bus_stop", "name": "Teyssier", "public_transport": "platform", "shelter": "yes"}}, {"type": "node", "id": 2974554005, "lat": 43.9285699, "lon": 2.1476553, "tags": {"highway": "bus_stop", "shelter": "yes"}}, {"type": "node", "id": 3024093306, "lat": 43.9300998, "lon": 2.1475328, "tags": {"bench": "yes", "bin": "yes", "bus": "yes", "departures_board": "timetable", "highway": "bus_stop", "name": "R\u00e9publique", "public_transport": "platform", "shelter": "yes"}}, {"type": "node", "id": 3036956507, "lat": 43.9371261, "lon": 2.1471213, "tags": {"bench": "yes", "bin": "no", "bus": "yes", "covered": "no", "departures_board": "timetable", "highway": "bus_stop", "mapillary": "298723121759247", "name": "Les Mines", "pole": "yes", "public_transport": "platform", "shelter": "no", "survey:date": "2018-04-13", "tactile_paving": "yes"}}, {"type": "node", "id": 3036956508, "lat": 43.9369525, "lon": 2.1468446, "tags": {"bench": "no", "bus": "yes", "covered": "no", "departures_board": "timetable", "highway": "bus_stop", "name": "Les Mines", "public_transport": "platform", "shelter": "no", "tactile_paving": "yes"}}, {"type": "node", "id": 3036956509, "lat": 43.9387001, "lon": 2.1477078, "tags": {"bench": "yes", "bin": "no", "bus": "yes", "covered": "no", "departures_board": "timetable", "highway": "bus_stop", "name": "Soulages", "public_transport": "platform", "shelter": "no", "tactile_paving": "yes"}}, {"type": "node", "id": 3036956510, "lat": 43.9387197, "lon": 2.1479076, "tags": {"bench": "yes", "bus": "yes", "covered": "no", "departures_board": "timetable", "highway": "bus_stop", "mapillary": "807926050151011", "name": "Soulages", "pole": "yes", "public_transport": "platform", "shelter": "no", "survey:date": "2018-04-13", "tactile_paving": "yes"}}, {"type": "node", "id": 3036956511, "lat": 43.9422962, "lon": 2.149683, "tags": {"bench": "no", "bin": "yes", "bus": "yes", "covered": "no", "departures_board": "timetable", "highway": "bus_stop", "mapillary": "161606745814267", "name": "Sainte-C\u00e9cile", "pole": "yes", "public_transport": "platform", "shelter": "no", "survey:date": "2018-04-13", "tactile_paving": "yes"}}, {"type": "node", "id": 3036956512, "lat": 43.9423371, "lon": 2.1495235, "tags": {"bench": "yes", "bus": "yes", "covered": "no", "departures_board": "timetable", "highway": "bus_stop", "name": "Sainte-C\u00e9cile", "public_transport": "platform", "shelter": "yes", "tactile_paving": "yes"}}, {"type": "node", "id": 3036956517, "lat": 43.9459762, "lon": 2.1513064, "tags": {"bench": "yes", "bus": "yes", "covered": "no", "departures_board": "timetable", "highway": "bus_stop", "name": "Place Perret", "public_transport": "platform", "shelter": "yes", "tactile_paving": "yes"}}, {"type": "node", "id": 3036956518, "lat": 43.9458868, "lon": 2.1514678, "tags": {"bench": "no", "bus": "yes", "covered": "no", "departures_board": "timetable", "highway": "bus_stop", "mapillary": "373745160648047", "name": "Place Perret", "pole": "yes", "public_transport": "platform", "shelter": "no", "survey:date": "2018-04-13", "tactile_paving": "no"}}, {"type": "node", "id": 3036956521, "lat": 43.9552284, "lon": 2.1532099, "tags": {"bench": "yes", "bus": "yes", "covered": "no", "departures_board": "timetable", "highway": "bus_stop", "name": "Portes de Lescure", "public_transport": "platform", "shelter": "yes"}}, {"type": "node", "id": 3036956522, "lat": 43.9555784, "lon": 2.1532813, "tags": {"bench": "yes", "bus": "yes", "covered": "no", "departures_board": "timetable", "highway": "bus_stop", "name": "Portes de Lescure", "public_transport": "platform", "shelter": "yes"}}, {"type": "node", "id": 3046094350, "lat": 43.9223912, "lon": 2.1623633, "tags": {"bench": "no", "bin": "no", "bus": "yes", "covered": "no", "departures_board": "timetable", "highway": "bus_stop", "name": "Rond de Gesse", "public_transport": "platform", "shelter": "no", "tactile_paving": "yes"}}, {"type": "node", "id": 3046094351, "lat": 43.9225326, "lon": 2.1621486, "tags": {"bench": "no", "bin": "no", "bus": "yes", "covered": "no", "departures_board": "timetable", "highway": "bus_stop", "name": "Rond de Gesse", "public_transport": "platform", "shelter": "no", "tactile_paving": "yes"}}, {"type": "node", "id": 3047016426, "lat": 43.929006, "lon": 2.15102, "tags": {"bus": "yes", "highway": "bus_stop", "name": "Croix Verte", "public_transport": "platform"}}, {"type": "node", "id": 3049113092, "lat": 43.9349738, "lon": 2.1447063, "tags": {"bench": "no", "bin": "no", "bus": "yes", "covered": "no", "departures_board": "timetable", "highway": "bus_stop", "name": "Alsace Lorraine", "public_transport": "platform", "shelter": "no", "tactile_paving": "no"}}, {"type": "node", "id": 3049113093, "lat": 43.934815, "lon": 2.1438534, "tags": {"bench": "no", "bin": "no", "bus": "yes", "covered": "no", "highway": "bus_stop", "name": "Alsace Lorraine", "public_transport": "platform", "shelter": "no", "tactile_paving": "no"}}, {"type": "node", "id": 3049113094, "lat": 43.9338206, "lon": 2.1402558, "tags": {"bench": "no", "bin": "no", "bus": "yes", "covered": "no", "departures_board": "timetable", "highway": "bus_stop", "name": "Rinaldi", "public_transport": "platform", "shelter": "no", "tactile_paving": "no"}}, {"type": "node", "id": 3049113095, "lat": 43.933814, "lon": 2.1405021, "tags": {"bench": "yes", "bin": "no", "bus": "yes", "covered": "no", "departures_board": "timetable", "highway": "bus_stop", "name": "Rinaldi", "public_transport": "platform", "shelter": "yes", "tactile_paving": "no"}}, {"type": "node", "id": 3049113096, "lat": 43.9362708, "lon": 2.1451287, "tags": {"bench": "no", "bus": "yes", "departures_board": "timetable", "highway": "bus_stop", "name": "Gandiol", "public_transport": "platform", "shelter": "no"}}, {"type": "node", "id": 3049113097, "lat": 43.9366656, "lon": 2.1448176, "tags": {"bench": "no", "bus": "yes", "departures_board": "timetable", "highway": "bus_stop", "mapillary": "735894767106245", "name": "Gandiol", "pole": "yes", "public_transport": "platform", "shelter": "no", "survey:date": "2019-03-28"}}, {"type": "node", "id": 3049113098, "lat": 43.9381836, "lon": 2.1430318, "tags": {"bench": "no", "bus": "yes", "departures_board": "timetable", "highway": "bus_stop", "name": "Gare Albi-Madeleine", "public_transport": "platform", "shelter": "no"}}, {"type": "node", "id": 3049113099, "lat": 43.9383137, "lon": 2.1426948, "tags": {"bench": "no", "bus": "yes", "departures_board": "timetable", "highway": "bus_stop", "name": "Gare Albi-Madeleine", "public_transport": "platform", "shelter": "no"}}, {"type": "node", "id": 3049113103, "lat": 43.9381958, "lon": 2.1411513, "tags": {"name": "Albi Madeleine", "operator": "SNCF", "public_transport": "station", "railway": "station", "train": "yes", "uic_ref": "8761519", "wheelchair": "yes", "wikidata": "Q2745699", "wikipedia": "fr:Gare d'Albi-Madeleine"}}, {"type": "node", "id": 3049115950, "lat": 43.9424694, "lon": 2.1405872, "tags": {"bench": "yes", "bus": "yes", "covered": "no", "departures_board": "timetable", "highway": "bus_stop", "name": "Coll\u00e8ge Jean Jaur\u00e8s", "public_transport": "platform", "shelter": "yes"}}, {"type": "node", "id": 3063424323, "lat": 43.925498, "lon": 2.1481864, "tags": {"bench": "yes", "bin": "no", "bus": "yes", "covered": "no", "departures_board": "timetable", "highway": "bus_stop", "name": "Jardin National", "operator": "R\u00e9seau de Tansport du Grand albigeois", "public_transport": "platform", "shelter": "yes", "tactile_paving": "no"}}, {"type": "node", "id": 3063424324, "lat": 43.926183, "lon": 2.1485286, "tags": {"bench": "yes", "bus": "yes", "departures_board": "timetable", "highway": "bus_stop", "name": "Lices Jean Moulin", "public_transport": "platform", "shelter": "yes"}}, {"type": "node", "id": 3068099222, "lat": 43.9221392, "lon": 2.1387114, "tags": {"bench": "yes", "bin": "no", "bus": "yes", "covered": "no", "departures_board": "timetable", "highway": "bus_stop", "lit": "yes", "name": "Gare Albi-Ville", "public_transport": "platform", "shelter": "yes", "tactile_paving": "no"}}, {"type": "node", "id": 3068612821, "lat": 43.8920942, "lon": 2.1563158, "tags": {"highway": "bus_stop"}}, {"type": "node", "id": 3076395581, "lat": 43.93043, "lon": 2.1579112, "tags": {"highway": "bus_stop"}}, {"type": "node", "id": 3076652127, "lat": 43.9306968, "lon": 2.1617626, "tags": {"bus": "yes", "highway": "bus_stop", "name": "Les Planques", "public_transport": "platform"}}, {"type": "node", "id": 3085805040, "lat": 43.9239624, "lon": 2.155519, "tags": {"bench": "no", "bin": "yes", "bus": "yes", "covered": "no", "departures_board": "timetable", "highway": "bus_stop", "name": "Teyssier", "public_transport": "platform", "shelter": "no"}}, {"type": "node", "id": 3085805041, "lat": 43.9230598, "lon": 2.1592447, "tags": {"bench": "no", "bin": "no", "bus": "yes", "covered": "no", "departures_board": "timetable", "highway": "bus_stop", "name": "Magnolias", "public_transport": "platform", "shelter": "no", "tactile_paving": "no"}}, {"type": "node", "id": 3085805042, "lat": 43.9231794, "lon": 2.1592092, "tags": {"bench": "no", "bin": "no", "bus": "yes", "covered": "no", "departures_board": "timetable", "highway": "bus_stop", "name": "Magnolias", "public_transport": "platform", "shelter": "no", "tactile_paving": "no"}}, {"type": "node", "id": 3134576722, "lat": 43.7724252, "lon": 2.1924716, "tags": {"bench": "no", "highway": "bus_stop", "shelter": "no", "source": "survey"}}, {"type": "node", "id": 3184281857, "lat": 43.924249, "lon": 2.1360051, "tags": {"bench": "no", "bin": "no", "bus": "yes", "covered": "no", "departures_board": "timetable", "highway": "bus_stop", "name": "P\u00e9guy", "public_transport": "platform", "shelter": "no", "tactile_paving": "no"}}, {"type": "node", "id": 3188654020, "lat": 43.9162897, "lon": 2.1331222, "tags": {"bus": "yes", "highway": "bus_stop", "name": "Moli\u00e8re", "public_transport": "platform"}}, {"type": "node", "id": 3188659482, "lat": 43.918393, "lon": 2.1108656, "tags": {"bench": "yes", "bin": "yes", "bus": "yes", "covered": "no", "departures_board": "timetable", "highway": "bus_stop", "name": "Portes d'Albi", "public_transport": "platform", "shelter": "yes"}}, {"type": "node", "id": 3188718699, "lat": 43.9197107, "lon": 2.1345764, "tags": {"bench": "no", "bus": "yes", "covered": "no", "departures_board": "timetable", "highway": "bus_stop", "name": "Lacombe", "public_transport": "platform", "shelter": "no", "tactile_paving": "yes"}}, {"type": "node", "id": 3188718700, "lat": 43.9195811, "lon": 2.1345435, "tags": {"bench": "no", "bus": "yes", "covered": "no", "departures_board": "timetable", "highway": "bus_stop", "name": "Lacombe", "public_transport": "platform", "shelter": "no", "tactile_paving": "yes"}}, {"type": "node", "id": 3188746907, "lat": 43.9215648, "lon": 2.1661735, "tags": {"bus": "yes", "highway": "bus_stop", "name": "Stadium", "public_transport": "platform"}}, {"type": "node", "id": 3188746908, "lat": 43.9218281, "lon": 2.1652422, "tags": {"bench": "no", "bin": "no", "bus": "yes", "covered": "no", "departures_board": "timetable", "highway": "bus_stop", "name": "Stadium", "public_transport": "platform", "shelter": "no"}}, {"type": "node", "id": 3188746910, "lat": 43.9208375, "lon": 2.1695753, "tags": {"bench": "no", "bin": "no", "bus": "yes", "departures_board": "timetable", "highway": "bus_stop", "lit": "yes", "name": "P+R Milliassole", "public_transport": "platform", "shelter": "no", "tactile_paving": "yes"}}, {"type": "node", "id": 3222254507, "lat": 43.9160111, "lon": 2.1695481, "tags": {"bench": "no", "bus": "yes", "covered": "no", "departures_board": "timetable", "highway": "bus_stop", "name": "Abb\u00e9 Pistre", "public_transport": "platform", "shelter": "no"}}, {"type": "node", "id": 3222254508, "lat": 43.9160232, "lon": 2.1691695, "tags": {"bench": "no", "bus": "yes", "covered": "no", "departures_board": "timetable", "highway": "bus_stop", "name": "Abb\u00e9 Pistre", "public_transport": "platform", "shelter": "no"}}, {"type": "node", "id": 3288304299, "lat": 43.9214635, "lon": 2.1249831, "tags": {"bench": "no", "bin": "no", "bus": "yes", "covered": "no", "departures_board": "timetable", "highway": "bus_stop", "name": "Guynemer", "public_transport": "platform", "shelter": "no", "tactile_paving": "yes"}}, {"type": "node", "id": 3288304300, "lat": 43.9209006, "lon": 2.1212959, "tags": {"bench": "no", "bin": "no", "bus": "yes", "covered": "no", "departures_board": "timetable", "highway": "bus_stop", "name": "Curveill\u00e8re", "public_transport": "platform", "shelter": "no", "tactile_paving": "yes"}}, {"type": "node", "id": 3288630177, "lat": 43.9246533, "lon": 2.1245876, "tags": {"bench": "yes", "bin": "no", "bus": "yes", "covered": "no", "departures_board": "timetable", "highway": "bus_stop", "name": "Gorsse", "public_transport": "platform", "shelter": "yes", "tactile_paving": "no"}}, {"type": "node", "id": 3290527115, "lat": 43.9232375, "lon": 2.1166028, "tags": {"bench": "no", "bin": "no", "bus": "yes", "covered": "no", "departures_board": "timetable", "highway": "bus_stop", "name": "Bourd\u00e8s", "public_transport": "platform", "shelter": "no", "tactile_paving": "no"}}, {"type": "node", "id": 3290527124, "lat": 43.9213024, "lon": 2.1190013, "tags": {"bench": "no", "bin": "no", "bus": "yes", "covered": "no", "departures_board": "timetable", "highway": "bus_stop", "name": "Costes et Bellonte", "public_transport": "platform", "shelter": "no", "tactile_paving": "no"}}, {"type": "node", "id": 3290884071, "lat": 43.9188538, "lon": 2.1226454, "tags": {"bench": "no", "bin": "no", "bus": "yes", "covered": "no", "departures_board": "timetable", "highway": "bus_stop", "name": "S\u00e9rieyssols", "public_transport": "platform", "shelter": "no", "tactile_paving": "yes"}}, {"type": "node", "id": 3307209104, "lat": 43.9171617, "lon": 2.0976701, "tags": {"highway": "bus_stop"}}, {"type": "node", "id": 3307209111, "lat": 43.91744, "lon": 2.0974025, "tags": {"bench": "yes", "bin": "yes", "bus": "yes", "covered": "no", "departures_board": "timetable", "highway": "bus_stop", "name": "Lyc\u00e9e Fonlabour", "public_transport": "platform", "shelter": "yes"}}, {"type": "node", "id": 3307649561, "lat": 43.9390507, "lon": 2.1667156, "tags": {"bench": "no", "bin": "no", "bus": "yes", "covered": "no", "departures_board": "timetable", "highway": "bus_stop", "name": "Bonnard", "public_transport": "platform", "shelter": "no", "tactile_paving": "no"}}, {"type": "node", "id": 3307649562, "lat": 43.9388818, "lon": 2.1665088, "tags": {"bench": "yes", "bin": "no", "bus": "yes", "covered": "no", "departures_board": "timetable", "highway": "bus_stop", "name": "Bonnard", "public_transport": "platform", "shelter": "no", "tactile_paving": "no"}}, {"type": "node", "id": 3307649563, "lat": 43.9369071, "lon": 2.1648748, "tags": {"bench": "no", "bin": "no", "bus": "yes", "covered": "no", "departures_board": "timetable", "highway": "bus_stop", "name": "Le G\u00f4", "public_transport": "platform", "shelter": "no", "tactile_paving": "no"}}, {"type": "node", "id": 3307649564, "lat": 43.9370307, "lon": 2.1651689, "tags": {"bench": "no", "bin": "no", "bus": "yes", "covered": "no", "departures_board": "timetable", "highway": "bus_stop", "name": "Le G\u00f4", "public_transport": "platform", "shelter": "no", "tactile_paving": "no"}}, {"type": "node", "id": 3307706735, "lat": 43.9393181, "lon": 2.1689505, "tags": {"bench": "no", "bin": "no", "bus": "yes", "covered": "no", "departures_board": "timetable", "highway": "bus_stop", "name": "De Vinci", "public_transport": "platform", "shelter": "no", "tactile_paving": "no"}}, {"type": "node", "id": 3307706736, "lat": 43.9394525, "lon": 2.1688079, "tags": {"bench": "no", "bin": "no", "bus": "yes", "covered": "no", "departures_board": "timetable", "highway": "bus_stop", "name": "De Vinci", "public_transport": "platform", "shelter": "no", "tactile_paving": "no"}}, {"type": "node", "id": 3307752823, "lat": 43.9381587, "lon": 2.1703868, "tags": {"bench": "no", "bin": "yes", "bus": "yes", "departures_board": "timetable", "highway": "bus_stop", "name": "Magritte", "public_transport": "platform", "shelter": "no", "tactile_paving": "no"}}, {"type": "node", "id": 3307752824, "lat": 43.9402508, "lon": 2.1677008, "tags": {"bench": "no", "bin": "no", "bus": "yes", "covered": "no", "departures_board": "timetable", "highway": "bus_stop", "name": "Picasso", "public_transport": "platform", "shelter": "no", "tactile_paving": "no"}}, {"type": "node", "id": 3307829363, "lat": 43.9355188, "lon": 2.1702543, "tags": {"bench": "no", "bin": "yes", "bus": "yes", "covered": "no", "departures_board": "timetable", "highway": "bus_stop", "name": "Ingres", "public_transport": "platform", "shelter": "no"}}, {"type": "node", "id": 3307829364, "lat": 43.9355106, "lon": 2.1698717, "tags": {"bench": "no", "bin": "no", "bus": "yes", "covered": "no", "departures_board": "timetable", "highway": "bus_stop", "name": "Ingres", "public_transport": "platform", "shelter": "no", "tactile_paving": "yes"}}, {"type": "node", "id": 3379625325, "lat": 43.9210683, "lon": 2.1690459, "tags": {"bench": "no", "bin": "no", "bus": "yes", "covered": "no", "departures_board": "timetable", "highway": "bus_stop", "name": "P+R Milliassole", "public_transport": "platform", "shelter": "no", "tactile_paving": "yes"}}, {"type": "node", "id": 3394426852, "lat": 43.9399935, "lon": 2.1564906, "tags": {"bench": "no", "bin": "no", "bus": "yes", "covered": "no", "departures_board": "timetable", "highway": "bus_stop", "name": "Lebrun", "public_transport": "platform", "shelter": "no"}}, {"type": "node", "id": 3394426879, "lat": 43.9414014, "lon": 2.1524884, "tags": {"bench": "no", "bin": "no", "bus": "yes", "covered": "no", "departures_board": "timetable", "highway": "bus_stop", "name": "Majest\u00e9", "public_transport": "platform", "shelter": "no", "tactile_paving": "no"}}, {"type": "node", "id": 3394426880, "lat": 43.9418062, "lon": 2.1525183, "tags": {"bench": "yes", "bin": "no", "bus": "yes", "covered": "no", "departures_board": "timetable", "highway": "bus_stop", "name": "Majest\u00e9", "public_transport": "platform", "shelter": "yes", "tactile_paving": "no"}}, {"type": "node", "id": 3402490885, "lat": 43.9407864, "lon": 2.1548942, "tags": {"bench": "yes", "bin": "yes", "bus": "yes", "covered": "no", "departures_board": "timetable", "highway": "bus_stop", "name": "Cambac\u00e9r\u00e8s", "public_transport": "platform", "shelter": "yes", "tactile_paving": "no"}}, {"type": "node", "id": 3412507560, "lat": 43.912434, "lon": 2.1661774, "tags": {"bench": "yes", "bus": "yes", "covered": "no", "departures_board": "timetable", "highway": "bus_stop", "name": "Saint-Salvadou", "public_transport": "platform", "shelter": "no"}}, {"type": "node", "id": 3412507561, "lat": 43.9159211, "lon": 2.1744064, "tags": {"bench": "yes", "bus": "yes", "covered": "no", "departures_board": "timetable", "highway": "bus_stop", "name": "Lacoste", "public_transport": "platform", "shelter": "no"}}, {"type": "node", "id": 3412507562, "lat": 43.916084, "lon": 2.1748373, "tags": {"bench": "no", "bus": "yes", "covered": "no", "departures_board": "timetable", "highway": "bus_stop", "name": "Lacoste", "public_transport": "platform", "shelter": "no"}}, {"type": "node", "id": 3412507563, "lat": 43.9208804, "lon": 2.1714213, "tags": {"bench": "yes", "bus": "yes", "covered": "yes", "highway": "bus_stop", "name": "\u00c9cole des Mines", "operator": "Albi bus", "public_transport": "platform", "shelter": "yes"}}, {"type": "node", "id": 3412507564, "lat": 43.9251659, "lon": 2.1491332, "tags": {"bench": "yes", "bin": "yes", "bus": "yes", "covered": "no", "departures_board": "timetable", "highway": "bus_stop", "name": "Balzac", "public_transport": "platform", "shelter": "yes"}}, {"type": "node", "id": 3453451846, "lat": 43.915586, "lon": 2.1435162, "tags": {"bench": "no", "bus": "yes", "departures_board": "timetable", "highway": "bus_stop", "kerb": "raised", "name": "Gambetta", "public_transport": "platform", "shelter": "no", "tactile_paving": "yes", "wheelchair": "yes"}}, {"type": "node", "id": 3461490103, "lat": 43.898427, "lon": 2.1739824, "tags": {"bench": "no", "bus": "yes", "covered": "no", "highway": "bus_stop", "name": "Pascal", "public_transport": "platform", "shelter": "no"}}, {"type": "node", "id": 3461490104, "lat": 43.897261, "lon": 2.1742149, "tags": {"bench": "no", "bus": "yes", "covered": "no", "highway": "bus_stop", "name": "Pascal", "public_transport": "platform", "shelter": "no"}}, {"type": "node", "id": 3461490106, "lat": 43.9164744, "lon": 2.1722526, "tags": {"bench": "no", "bus": "yes", "covered": "no", "departures_board": "timetable", "highway": "bus_stop", "name": "Marranel", "public_transport": "platform", "shelter": "no"}}, {"type": "node", "id": 3461490107, "lat": 43.9164109, "lon": 2.1722604, "tags": {"bench": "no", "bus": "yes", "covered": "no", "departures_board": "timetable", "highway": "bus_stop", "name": "Marranel", "public_transport": "platform", "shelter": "no"}}, {"type": "node", "id": 3478244648, "lat": 44.039709, "lon": 2.1572018, "tags": {"covered": "yes", "highway": "bus_stop", "shelter": "yes"}}, {"type": "node", "id": 3478244649, "lat": 44.0394622, "lon": 2.1570784, "tags": {"covered": "yes", "highway": "bus_stop", "shelter": "yes"}}, {"type": "node", "id": 3478244651, "lat": 44.0367859, "lon": 2.1572849, "tags": {"covered": "yes", "highway": "bus_stop", "shelter": "yes"}}, {"type": "node", "id": 3478244652, "lat": 44.0367936, "lon": 2.1571589, "tags": {"covered": "yes", "highway": "bus_stop", "shelter": "yes"}}, {"type": "node", "id": 3478244669, "lat": 44.0273989, "lon": 2.1564614, "tags": {"covered": "yes", "highway": "bus_stop", "shelter": "yes"}}, {"type": "node", "id": 3478244670, "lat": 44.0271334, "lon": 2.1565342, "tags": {"covered": "yes", "highway": "bus_stop", "shelter": "yes"}}, {"type": "node", "id": 3478244671, "lat": 44.0298595, "lon": 2.1573347, "tags": {"covered": "yes", "highway": "bus_stop", "shelter": "yes"}}, {"type": "node", "id": 3478244672, "lat": 44.0298412, "lon": 2.1575112, "tags": {"covered": "yes", "highway": "bus_stop", "shelter": "yes"}}, {"type": "node", "id": 3478244673, "lat": 44.0335945, "lon": 2.1572335, "tags": {"covered": "yes", "highway": "bus_stop", "shelter": "yes"}}, {"type": "node", "id": 3478244674, "lat": 44.0336808, "lon": 2.1573281, "tags": {"bench": "no", "covered": "yes", "highway": "bus_stop", "shelter": "yes"}}, {"type": "node", "id": 3526013796, "lat": 43.9587679, "lon": 2.1608126, "tags": {"bench": "no", "bus": "yes", "highway": "bus_stop", "name": "Gaillagu\u00e8s", "public_transport": "platform", "shelter": "no", "source": "survey 2015;bing 2015", "waste_basket": "no"}}, {"type": "node", "id": 3526013804, "lat": 43.9611419, "lon": 2.1661789, "tags": {"bus": "yes", "highway": "bus_stop", "public_transport": "platform"}}, {"type": "node", "id": 3526013810, "lat": 43.9632285, "lon": 2.1786111, "tags": {"bench": "no", "bus": "yes", "highway": "bus_stop", "name": "L'Hermet", "public_transport": "platform", "shelter": "no", "source": "survey 2015;bing 2015", "waste_basket": "no"}}, {"type": "node", "id": 3527770911, "lat": 43.9440469, "lon": 2.1448057, "tags": {"bench": "no", "bin": "no", "bus": "yes", "covered": "no", "departures_board": "timetable", "highway": "bus_stop", "name": "Nougar\u00e8de", "public_transport": "platform", "shelter": "no", "tactile_paving": "no"}}, {"type": "node", "id": 3527770912, "lat": 43.9433742, "lon": 2.1480553, "tags": {"bench": "yes", "bus": "yes", "covered": "no", "departures_board": "timetable", "highway": "bus_stop", "name": "Bermond", "public_transport": "platform", "shelter": "yes", "source": "survey 2015;bing 2015", "waste_basket": "no"}}, {"type": "node", "id": 3612773127, "lat": 43.9176164, "lon": 2.1443973, "tags": {"bench": "yes", "bus": "yes", "covered": "no", "departures_board": "timetable", "highway": "bus_stop", "name": "Viala", "public_transport": "platform", "shelter": "no"}}, {"type": "node", "id": 3612773128, "lat": 43.918222, "lon": 2.1448944, "tags": {"bench": "yes", "bin": "yes", "bus": "yes", "covered": "no", "departures_board": "timetable", "highway": "bus_stop", "name": "Viala", "public_transport": "platform", "shelter": "yes"}}, {"type": "node", "id": 3665654130, "lat": 43.9060136, "lon": 2.1413447, "tags": {"bench": "no", "bus": "yes", "highway": "bus_stop", "name": "Albi - Ranteil", "network": "TarnBus", "public_transport": "platform", "shelter": "no", "source": "survey 2016"}}, {"type": "node", "id": 3665654131, "lat": 43.9074158, "lon": 2.1410372, "tags": {"highway": "bus_stop", "name": "Ranteil"}}, {"type": "node", "id": 3729673215, "lat": 43.9385708, "lon": 2.1844575, "tags": {"bench": "yes", "bin": "no", "bus": "yes", "covered": "no", "departures_board": "timetable", "highway": "bus_stop", "name": "Chardonnet", "public_transport": "platform", "shelter": "yes"}}, {"type": "node", "id": 3729673216, "lat": 43.9385944, "lon": 2.1848875, "tags": {"bench": "no", "bin": "no", "bus": "yes", "covered": "no", "highway": "bus_stop", "name": "Chardonnet", "public_transport": "platform", "shelter": "no", "tactile_paving": "no"}}, {"type": "node", "id": 3743779287, "lat": 43.9241003, "lon": 2.1489257, "tags": {"bench": "yes", "bin": "yes", "bus": "yes", "covered": "no", "departures_board": "timetable", "highway": "bus_stop", "name": "Andrieu", "public_transport": "platform", "shelter": "yes", "tactile_paving": "no"}}, {"type": "node", "id": 3743797317, "lat": 43.9282804, "lon": 2.1480075, "tags": {"bench": "yes", "bus": "yes", "covered": "yes", "description": "D\u00e9part Lignes A,A1,B,C,F1)", "highway": "bus_stop", "name": "Lices Pompidou", "network": "R\u00e9seau de Transport du Grand Albigeois", "public_transport": "platform", "shelter": "yes"}}, {"type": "node", "id": 3758599293, "lat": 43.9209265, "lon": 2.2157156, "tags": {"bus": "yes", "highway": "bus_stop", "name": "CFA", "public_transport": "platform"}}, {"type": "node", "id": 3830643257, "lat": 43.9437157, "lon": 2.1561698, "tags": {"bench": "no", "bus": "yes", "covered": "no", "departures_board": "timetable", "highway": "bus_stop", "name": "Bonaparte", "public_transport": "platform", "shelter": "no", "tactile_paving": "yes"}}, {"type": "node", "id": 3830643258, "lat": 43.9434256, "lon": 2.1559434, "tags": {"bench": "no", "bin": "no", "bus": "yes", "covered": "no", "departures_board": "timetable", "highway": "bus_stop", "name": "Bonaparte", "public_transport": "platform", "shelter": "no"}}, {"type": "node", "id": 3832224326, "lat": 43.9245483, "lon": 2.1470373, "tags": {"highway": "bus_stop", "public_transport": "platform", "shelter": "yes"}}, {"type": "node", "id": 3832224328, "lat": 43.9245607, "lon": 2.1476389, "tags": {"bench": "yes", "bus": "yes", "description": "Lignes D, F.", "highway": "bus_stop", "name": "Place Jean Jaur\u00e8s", "public_transport": "platform", "shelter": "yes", "tactile_paving": "yes"}}, {"type": "node", "id": 3832965579, "lat": 43.9306785, "lon": 2.1843555, "tags": {"bus": "yes", "highway": "bus_stop", "name": "Route de Millau", "public_transport": "platform"}}, {"type": "node", "id": 3832965580, "lat": 43.9305549, "lon": 2.1843394, "tags": {"bus": "yes", "highway": "bus_stop", "name": "Route de Millau", "public_transport": "platform"}}, {"type": "node", "id": 3833206183, "lat": 43.9193973, "lon": 2.1313403, "tags": {"bench": "yes", "bus": "yes", "covered": "no", "departures_board": "timetable", "highway": "bus_stop", "name": "Verdier", "public_transport": "platform", "shelter": "yes", "tactile_paving": "yes"}}, {"type": "node", "id": 3833206184, "lat": 43.9195086, "lon": 2.1313765, "tags": {"bench": "no", "bus": "yes", "covered": "no", "departures_board": "timetable", "highway": "bus_stop", "name": "Verdier", "public_transport": "platform", "shelter": "no", "tactile_paving": "no"}}, {"type": "node", "id": 3833221264, "lat": 43.9190935, "lon": 2.1267906, "tags": {"bench": "no", "bin": "no", "bus": "yes", "covered": "no", "departures_board": "timetable", "highway": "bus_stop", "name": "Les Brus", "public_transport": "platform", "shelter": "no", "tactile_paving": "yes"}}, {"type": "node", "id": 3834570458, "lat": 43.9290251, "lon": 2.1291438, "tags": {"bench": "yes", "covered": "yes", "highway": "bus_stop", "name": "Arr\u00eat de Bus", "shelter": "yes"}}, {"type": "node", "id": 3836086839, "lat": 43.9169957, "lon": 2.1179616, "tags": {"bus": "yes", "highway": "bus_stop", "public_transport": "platform"}}, {"type": "node", "id": 3842988284, "lat": 43.9168534, "lon": 2.1314053, "tags": {"bench": "yes", "bus": "yes", "departures_board": "timetable", "highway": "bus_stop", "name": "Rayssac", "public_transport": "platform", "shelter": "yes", "tactile_paving": "yes"}}, {"type": "node", "id": 3842997340, "lat": 43.9122701, "lon": 2.1305765, "tags": {"bench": "no", "bin": "no", "bus": "yes", "covered": "no", "departures_board": "timetable", "highway": "bus_stop", "name": "Taillades", "public_transport": "platform", "shelter": "no", "tactile_paving": "no"}}, {"type": "node", "id": 3843011690, "lat": 43.9151289, "lon": 2.1321115, "tags": {"bench": "yes", "bus": "yes", "departures_board": "timetable", "highway": "bus_stop", "name": "Mar\u00e9chal Juin", "public_transport": "platform", "shelter": "yes", "tactile_paving": "yes"}}, {"type": "node", "id": 3860530852, "lat": 44.0496097, "lon": 2.1400454, "tags": {"highway": "bus_stop", "source": "bing 2015"}}, {"type": "node", "id": 3874883703, "lat": 43.9224067, "lon": 2.1410773, "tags": {"bench": "no", "bin": "yes", "bus": "yes", "covered": "no", "departures_board": "timetable", "highway": "bus_stop", "name": "Jeanne d'Arc", "public_transport": "platform", "shelter": "no", "tactile_paving": "yes"}}, {"type": "node", "id": 3874883704, "lat": 43.9225155, "lon": 2.141383, "tags": {"bench": "yes", "bin": "yes", "bus": "yes", "covered": "no", "departures_board": "timetable", "highway": "bus_stop", "name": "Jeanne d'Arc", "public_transport": "platform", "shelter": "no", "tactile_paving": "no"}}, {"type": "node", "id": 3896851420, "lat": 43.9219433, "lon": 2.1576853, "tags": {"bench": "yes", "bin": "yes", "bus": "yes", "departures_board": "timetable", "highway": "bus_stop", "lit": "no", "name": "Bellevue", "public_transport": "platform", "shelter": "yes", "tactile_paving": "no"}}, {"type": "node", "id": 3898282458, "lat": 43.9348754, "lon": 2.139303, "tags": {"bench": "no", "bin": "no", "bus": "yes", "covered": "no", "departures_board": "timetable", "highway": "bus_stop", "name": "Pratgraussals", "public_transport": "platform", "shelter": "no", "tactile_paving": "no"}}, {"type": "node", "id": 3912298373, "lat": 43.8598439, "lon": 2.1163609, "tags": {"highway": "bus_stop"}}, {"type": "node", "id": 3914258087, "lat": 43.9251284, "lon": 2.1451519, "tags": {"bench": "yes", "bin": "yes", "bus": "yes", "covered": "no", "highway": "bus_stop", "name": "H\u00f4pital - M\u00e9diath\u00e8que", "public_transport": "platform", "shelter": "yes", "tactile_paving": "yes"}}, {"type": "node", "id": 3914603378, "lat": 43.9537649, "lon": 2.1714875, "tags": {"bus": "yes", "highway": "bus_stop", "name": "Mairie Lescure", "public_transport": "platform", "source": "bing 2015"}}, {"type": "node", "id": 3914603384, "lat": 43.9537364, "lon": 2.1715799, "tags": {"bus": "yes", "highway": "bus_stop", "name": "Mairie Lescure", "public_transport": "platform", "source": "bing 2015"}}, {"type": "node", "id": 3976257025, "lat": 43.9345178, "lon": 2.1684032, "tags": {"bench": "yes", "bus": "yes", "covered": "no", "departures_board": "timetable", "highway": "bus_stop", "name": "Goya", "public_transport": "platform", "shelter": "yes"}}, {"type": "node", "id": 4181438000, "lat": 43.9286184, "lon": 2.2181253, "tags": {"bench": "yes", "bin": "yes", "bus": "yes", "highway": "bus_stop", "lit": "yes", "name": "Cunac", "public_transport": "platform", "shelter": "yes", "source": "bing 2016", "tactile_paving": "no"}}, {"type": "node", "id": 4197199098, "lat": 43.922403, "lon": 2.1379469, "tags": {"alt_name": "Albi", "name": "Albi-Ville", "operator": "SNCF", "public_transport": "station", "railway": "station", "train": "yes", "uic_ref": "8761500", "wheelchair": "yes", "wikidata": "Q2650871", "wikipedia": "fr:Gare d'Albi-Ville"}}, {"type": "node", "id": 4197199100, "lat": 43.9060529, "lon": 1.8947503, "tags": {"name": "Gaillac", "network": "TER Occitanie", "network:wikidata": "Q37941081", "operator": "SNCF", "operator:wikidata": "Q13646", "public_transport": "station", "railway": "station", "train": "yes", "uic_ref": "8761525", "wikidata": "Q3096513", "wikipedia": "fr:Gare de Gaillac"}}, {"type": "node", "id": 4235817836, "lat": 43.7793115, "lon": 2.1876101, "tags": {"bench": "yes", "faces": "2", "highway": "bus_stop", "network": "TarnBus", "shelter": "yes", "source": "survey 2016"}}, {"type": "node", "id": 4237635635, "lat": 43.8060265, "lon": 2.1831516, "tags": {"bench": "no", "bin": "no", "highway": "bus_stop", "network": "TarnBus", "shelter": "no", "source": "survey 2016"}}, {"type": "node", "id": 4243046143, "lat": 43.8747634, "lon": 2.1783676, "tags": {"bench": "no", "bin": "no", "highway": "bus_stop", "network": "TarnBus", "shelter": "no", "source": "survey 2016;BDOrtho IGN 2016"}}, {"type": "node", "id": 4243046207, "lat": 43.8829064, "lon": 2.1693834, "tags": {"bench": "no", "bin": "no", "highway": "bus_stop", "network": "TarnBus", "shelter": "no", "source": "survey 2016"}}, {"type": "node", "id": 4244696603, "lat": 43.9054439, "lon": 2.1417588, "tags": {"bench": "no", "bus": "yes", "highway": "bus_stop", "name": "Albi - Ranteil", "network": "TarnBus", "public_transport": "platform", "shelter": "no", "source": "survey 2016"}}, {"type": "node", "id": 4343167551, "lat": 43.9350749, "lon": 2.146113, "tags": {"bench": "yes", "bus": "yes", "departures_board": "timetable", "highway": "bus_stop", "name": "Strasbourg", "public_transport": "platform", "shelter": "yes"}}, {"type": "node", "id": 4549455104, "lat": 43.9273451, "lon": 2.1420877, "tags": {"bench": "no", "bin": "no", "highway": "bus_stop", "lit": "yes", "name:signed": "no", "shelter": "no", "tactile_paving": "no"}}, {"type": "node", "id": 4776981327, "lat": 43.9921496, "lon": 2.1743979, "tags": {"bench": "no", "bus": "yes", "highway": "bus_stop", "public_transport": "platform", "shelter": "no", "source": "survey 2017"}}, {"type": "node", "id": 4781068624, "lat": 43.9571719, "lon": 2.1591078, "tags": {"bench": "no", "bin": "no", "bus": "yes", "check_date:shelter": "2024-07-05", "highway": "bus_stop", "public_transport": "platform", "shelter": "no", "source": "survey 2017;BDOrtho IGN 2016", "tactile_paving": "no"}}, {"type": "node", "id": 4781068665, "lat": 43.9616193, "lon": 2.1732329, "tags": {"bench": "no", "bus": "yes", "highway": "bus_stop", "name": "La Guirraudi\u00e9", "public_transport": "platform", "shelter": "no", "source": "survey 2017"}}, {"type": "node", "id": 4813353087, "lat": 43.915741, "lon": 2.1434404, "tags": {"bench": "yes", "bus": "yes", "covered": "no", "departures_board": "timetable", "highway": "bus_stop", "kerb": "raised", "name": "Gambetta", "public_transport": "platform", "shelter": "no", "tactile_paving": "yes", "wheelchair": "yes"}}, {"type": "node", "id": 5334210415, "lat": 43.9338366, "lon": 2.1726296, "tags": {"highway": "bus_stop"}}, {"type": "node", "id": 5625480271, "lat": 43.9067438, "lon": 1.9130438, "tags": {"bus": "yes", "departures_board": "timetable", "highway": "bus_stop", "name": "Rond-Point", "public_transport": "platform", "ref": "112201", "shelter": "separate"}}, {"type": "node", "id": 5625480272, "lat": 43.9095214, "lon": 1.9188574, "tags": {"bench": "no", "bus": "yes", "departures_board": "timetable", "highway": "bus_stop", "lit": "no", "name": "Les Sept Fontaines", "public_transport": "platform", "ref": "111801", "shelter": "no", "wheelchair": "no"}}, {"type": "node", "id": 5625480273, "lat": 43.9161268, "lon": 1.9339247, "tags": {"bench": "no", "bus": "yes", "departures_board": "timetable", "highway": "bus_stop", "lit": "no", "name": "La Crouzetterie", "public_transport": "platform", "ref": "111601", "shelter": "no"}}, {"type": "node", "id": 5625480274, "lat": 43.9151841, "lon": 1.9306014, "tags": {"bench": "yes", "bus": "yes", "departures_board": "timetable", "highway": "bus_stop", "name": "La Crouzetterie", "public_transport": "platform", "ref": "111600", "shelter": "yes"}}, {"type": "node", "id": 5625480275, "lat": 43.9097071, "lon": 1.9189391, "tags": {"bench": "no", "bus": "yes", "departures_board": "timetable", "highway": "bus_stop", "lit": "no", "name": "Les Sept Fontaines", "public_transport": "platform", "ref": "111800", "shelter": "no"}}, {"type": "node", "id": 5625480276, "lat": 43.9068906, "lon": 1.9130228, "tags": {"bench": "yes", "bus": "yes", "departures_board": "timetable", "highway": "bus_stop", "name": "Rond-Point", "public_transport": "platform", "ref": "112200", "shelter": "separate"}}, {"type": "node", "id": 6147262983, "lat": 43.9317501, "lon": 2.1695745, "tags": {"bus": "yes", "highway": "bus_stop", "name": "Cimeti\u00e8re de Caussels", "public_transport": "platform"}}, {"type": "node", "id": 6147262987, "lat": 43.9317945, "lon": 2.1698186, "tags": {"bus": "yes", "highway": "bus_stop", "name": "Cimeti\u00e8re de Caussels", "public_transport": "platform"}}, {"type": "node", "id": 6147696702, "lat": 43.9462976, "lon": 2.1538875, "tags": {"bench": "no", "bin": "no", "bus": "yes", "covered": "no", "departures_board": "timetable", "highway": "bus_stop", "name": "Augereau", "public_transport": "platform", "shelter": "no", "tactile_paving": "yes"}}, {"type": "node", "id": 6163379882, "lat": 43.9337561, "lon": 2.1724404, "tags": {"highway": "bus_stop"}}, {"type": "node", "id": 6222587029, "lat": 43.9197619, "lon": 2.1815742, "tags": {"bench": "no", "bin": "no", "bus": "yes", "covered": "no", "departures_board": "timetable", "highway": "bus_stop", "lit": "no", "name": "H\u00f4tel d'entreprises", "passenger_information_display": "no", "public_transport": "platform", "shelter": "no"}}, {"type": "node", "id": 6296775544, "lat": 43.9035025, "lon": 1.9051594, "tags": {"bus": "yes", "departures_board": "timetable", "highway": "bus_stop", "name": "Henri Dunant", "network": "La Navette", "operator": "SPL D'un point \u00e0 l'autre", "public_transport": "platform"}}, {"type": "node", "id": 6419445620, "lat": 43.9030914, "lon": 1.9050503, "tags": {"bus": "yes", "departures_board": "timetable", "highway": "bus_stop", "name": "MJC Pichery", "network": "La Navette", "operator": "SPL D'un point \u00e0 l'autre", "public_transport": "platform"}}, {"type": "node", "id": 6419445621, "lat": 43.9031158, "lon": 1.9050986, "tags": {"bus": "yes", "departures_board": "timetable", "highway": "bus_stop", "name": "Coll\u00e8ge Pichery", "public_transport": "platform", "ref": "111300"}}, {"type": "node", "id": 6419445622, "lat": 43.9032683, "lon": 1.9057263, "tags": {"bus": "yes", "departures_board": "timetable", "highway": "bus_stop", "name": "MJC Pichery", "network": "La Navette", "operator": "SPL D'un point \u00e0 l'autre", "public_transport": "platform"}}, {"type": "node", "id": 6419445623, "lat": 43.9032403, "lon": 1.9057043, "tags": {"bus": "yes", "departures_board": "timetable", "highway": "bus_stop", "name": "Coll\u00e8ge Pichery", "public_transport": "platform", "ref": "111301", "shelter": "separate"}}, {"type": "node", "id": 6419445624, "lat": 43.9045959, "lon": 1.9085336, "tags": {"bus": "yes", "departures_board": "timetable", "highway": "bus_stop", "name": "Gendarmerie", "network": "La Navette", "operator": "SPL D'un point \u00e0 l'autre", "public_transport": "platform"}}, {"type": "node", "id": 6419445625, "lat": 43.9048433, "lon": 1.9087885, "tags": {"bus": "yes", "departures_board": "timetable", "highway": "bus_stop", "name": "Gendarmerie", "network": "La Navette", "operator": "SPL D'un point \u00e0 l'autre", "public_transport": "platform"}}, {"type": "node", "id": 6419445626, "lat": 43.9057689, "lon": 1.9127259, "tags": {"bus": "yes", "departures_board": "timetable", "highway": "bus_stop", "name": "Av. F. Mitterrand", "public_transport": "platform"}}, {"type": "node", "id": 6419445627, "lat": 43.9056511, "lon": 1.9126696, "tags": {"bus": "yes", "departures_board": "timetable", "highway": "bus_stop", "name": "Av. F. Mitterrand", "network": "La Navette", "operator": "SPL D'un point \u00e0 l'autre", "public_transport": "platform"}}, {"type": "node", "id": 6419445628, "lat": 43.9040065, "lon": 1.9147832, "tags": {"bus": "yes", "departures_board": "timetable", "highway": "bus_stop", "name": "\u00c9cole Louise Michel", "network": "La Navette", "operator": "SPL D'un point \u00e0 l'autre", "public_transport": "platform", "shelter": "yes", "tactile_paving": "no"}}, {"type": "node", "id": 6419445629, "lat": 43.9003036, "lon": 1.9009349, "tags": {"bus": "yes", "departures_board": "timetable", "highway": "bus_stop", "name": "Av. Jean Calvet (la Poste)", "network": "La Navette", "operator": "SPL D'un point \u00e0 l'autre", "public_transport": "platform", "shelter": "no"}}, {"type": "node", "id": 6419445630, "lat": 43.90032, "lon": 1.901458, "tags": {"bench": "yes", "bus": "yes", "departures_board": "timetable", "highway": "bus_stop", "name": "Av. Jean Calvet (la Poste)", "network": "La Navette", "operator": "SPL D'un point \u00e0 l'autre", "public_transport": "platform", "shelter": "yes"}}, {"type": "node", "id": 6419445631, "lat": 43.9002501, "lon": 1.8884307, "tags": {"bus": "yes", "departures_board": "timetable", "highway": "bus_stop", "name": "H\u00f4pital / Catalanis", "network": "La Navette", "operator": "SPL D'un point \u00e0 l'autre", "public_transport": "platform", "shelter": "no"}}, {"type": "node", "id": 6419445632, "lat": 43.900455, "lon": 1.8884683, "tags": {"bench": "no", "bin": "no", "bus": "yes", "departures_board": "timetable", "highway": "bus_stop", "name": "H\u00f4pital / Catalanis", "network": "La Navette", "operator": "SPL D'un point \u00e0 l'autre", "public_transport": "platform", "shelter": "no", "tactile_paving": "no"}}, {"type": "node", "id": 6419445633, "lat": 43.8980005, "lon": 1.88577, "tags": {"bus": "yes", "departures_board": "timetable", "highway": "bus_stop", "name": "Caspe", "network": "La Navette", "operator": "SPL D'un point \u00e0 l'autre", "public_transport": "platform"}}, {"type": "node", "id": 6419445634, "lat": 43.8979657, "lon": 1.8855071, "tags": {"bus": "yes", "departures_board": "timetable", "highway": "bus_stop", "name": "Caspe", "network": "La Navette", "operator": "SPL D'un point \u00e0 l'autre", "public_transport": "platform"}}, {"type": "node", "id": 6419445635, "lat": 43.8943032, "lon": 1.8812914, "tags": {"bench": "yes", "bus": "yes", "departures_board": "timetable", "highway": "bus_stop", "name": "Piquerouge", "public_transport": "platform", "shelter": "separate"}}, {"type": "node", "id": 6419445636, "lat": 43.8931452, "lon": 1.87738, "tags": {"bus": "yes", "departures_board": "timetable", "highway": "bus_stop", "name": "Route de Saurs", "network": "La Navette", "operator": "SPL D'un point \u00e0 l'autre", "public_transport": "platform"}}, {"type": "node", "id": 6436200913, "lat": 43.9040407, "lon": 1.8958284, "tags": {"bench": "yes", "bin": "no", "bus": "yes", "highway": "bus_stop", "internet_access": "no", "lit": "yes", "name": "Gare routi\u00e8re", "public_transport": "platform", "ref": "187103", "shelter": "yes", "tactile_paving": "no"}}, {"type": "node", "id": 6436343408, "lat": 43.9184676, "lon": 2.029189, "tags": {"bus": "yes", "highway": "bus_stop", "name": "Route de Toulouse", "public_transport": "platform"}}, {"type": "node", "id": 6436343409, "lat": 43.9185519, "lon": 2.0293123, "tags": {"bus": "yes", "highway": "bus_stop", "name": "Route de Toulouse", "public_transport": "platform", "ref": "124000"}}, {"type": "node", "id": 6436343410, "lat": 43.9199077, "lon": 2.138155, "tags": {"bench": "no", "bus": "yes", "covered": "no", "departures_board": "timetable", "highway": "bus_stop", "name": "Universit\u00e9", "public_transport": "platform", "ref": "98100", "shelter": "no", "tactile_paving": "yes"}}, {"type": "node", "id": 7058225038, "lat": 43.9381609, "lon": 2.0849508, "tags": {"bench": "yes", "bin": "no", "bus": "yes", "covered": "no", "departures_board": "timetable", "highway": "bus_stop", "name": "Cit\u00e9 du Port", "public_transport": "platform", "shelter": "yes"}}, {"type": "node", "id": 7058225039, "lat": 43.9386563, "lon": 2.0789064, "tags": {"bench": "yes", "bin": "no", "bus": "yes", "covered": "no", "departures_board": "timetable", "highway": "bus_stop", "name": "Marcianne", "public_transport": "platform", "shelter": "yes"}}, {"type": "node", "id": 7058225040, "lat": 43.6560275, "lon": 1.9739985, "tags": {"bench": "yes", "bin": "yes", "highway": "bus_stop", "lit": "yes", "name": "Damiatte Saint Paul", "public_transport": "platform", "shelter": "no", "tactile_paving": "no"}}, {"type": "node", "id": 7058273043, "lat": 44.0488175, "lon": 2.1524043, "tags": {"highway": "bus_stop", "public_transport": "platform"}}, {"type": "node", "id": 7058273044, "lat": 43.9175432, "lon": 2.2254807, "tags": {"bench": "no", "bin": "no", "bus": "yes", "departures_board": "timetable", "highway": "bus_stop", "name": "Mailhol", "pole": "yes", "public_transport": "platform", "shelter": "no"}}, {"type": "node", "id": 7058273045, "lat": 43.9361831, "lon": 2.2053082, "tags": {"bench": "no", "bin": "no", "bus": "yes", "covered": "no", "departures_board": "timetable", "highway": "bus_stop", "name": "Youri-Gagarine", "public_transport": "platform", "shelter": "no", "tactile_paving": "no"}}, {"type": "node", "id": 7058273046, "lat": 43.9431114, "lon": 2.1945523, "tags": {"bench": "yes", "bin": "yes", "bus": "yes", "covered": "no", "departures_board": "timetable", "highway": "bus_stop", "name": "Les Crozes", "public_transport": "platform", "shelter": "yes"}}, {"type": "node", "id": 7058273047, "lat": 43.942982, "lon": 2.1944802, "tags": {"bench": "no", "bin": "no", "bus": "yes", "covered": "no", "departures_board": "timetable", "highway": "bus_stop", "name": "Les Crozes", "public_transport": "platform", "shelter": "no"}}, {"type": "node", "id": 7058273048, "lat": 43.9505202, "lon": 2.1309909, "tags": {"bench": "no", "bin": "no", "bus": "yes", "covered": "no", "departures_board": "timetable", "highway": "bus_stop", "name": "Saint-Sernin", "public_transport": "platform", "shelter": "no", "tactile_paving": "no"}}, {"type": "node", "id": 7058273049, "lat": 43.950624, "lon": 2.1309601, "tags": {"bench": "no", "bin": "no", "bus": "yes", "covered": "no", "departures_board": "timetable", "highway": "bus_stop", "name": "Saint-Sernin", "public_transport": "platform", "shelter": "no", "tactile_paving": "no"}}, {"type": "node", "id": 7058273051, "lat": 43.9433321, "lon": 2.1111526, "tags": {"bench": "yes", "bin": "no", "bus": "yes", "covered": "no", "departures_board": "timetable", "highway": "bus_stop", "name": "Jussens", "public_transport": "platform", "shelter": "yes", "tactile_paving": "no"}}, {"type": "node", "id": 7233747330, "lat": 44.1232619, "lon": 2.1718413, "tags": {"bus": "yes", "highway": "bus_stop", "public_transport": "platform", "source": "BDOrtho IGN"}}, {"type": "node", "id": 7233747331, "lat": 44.1231819, "lon": 2.1719864, "tags": {"bus": "yes", "highway": "bus_stop", "public_transport": "platform", "source": "BDOrtho IGN 2020"}}, {"type": "node", "id": 7506224599, "lat": 43.9378906, "lon": 2.1382818, "tags": {"bench": "no", "bin": "no", "bus": "yes", "covered": "no", "departures_board": "timetable", "highway": "bus_stop", "name": "Capitaine Julia", "public_transport": "platform", "shelter": "no", "tactile_paving": "no"}}, {"type": "node", "id": 7506972054, "lat": 43.9353029, "lon": 2.1616341, "tags": {"bench": "no", "bin": "no", "bus": "yes", "check_date:shelter": "2024-07-08", "covered": "no", "departures_board": "timetable", "highway": "bus_stop", "name": "Camping", "public_transport": "platform", "shelter": "no", "tactile_paving": "no"}}, {"type": "node", "id": 7506972055, "lat": 43.9334837, "lon": 2.157762, "tags": {"bench": "yes", "bin": "no", "bus": "yes", "covered": "no", "departures_board": "timetable", "highway": "bus_stop", "name": "La Mouline", "public_transport": "platform", "shelter": "no", "tactile_paving": "yes"}}, {"type": "node", "id": 7515200623, "lat": 43.9689802, "lon": 2.1574957, "tags": {"bus": "yes", "departures_board": "yes", "highway": "bus_stop", "public_transport": "platform", "shelter": "no"}}, {"type": "node", "id": 7522297913, "lat": 43.9506465, "lon": 2.1242699, "tags": {"bench": "no", "bin": "no", "bus": "yes", "covered": "no", "departures_board": "timetable", "highway": "bus_stop", "name": "Route de Cordes", "public_transport": "platform", "shelter": "no", "tactile_paving": "no"}}, {"type": "node", "id": 7522297914, "lat": 43.9506507, "lon": 2.1240662, "tags": {"bench": "no", "bin": "no", "bus": "yes", "covered": "no", "departures_board": "timetable", "highway": "bus_stop", "name": "Route de Cordes", "public_transport": "platform", "shelter": "no", "tactile_paving": "no"}}, {"type": "node", "id": 7522416275, "lat": 43.926757, "lon": 2.130272, "tags": {"bench": "yes", "bin": "no", "bus": "yes", "covered": "no", "departures_board": "timetable", "highway": "bus_stop", "name": "Cavali\u00e9", "public_transport": "platform", "shelter": "yes", "tactile_paving": "no"}}, {"type": "node", "id": 7522416276, "lat": 43.9261817, "lon": 2.1369213, "tags": {"bus": "yes", "highway": "bus_stop", "name": "P\u00f4le Emploi", "public_transport": "platform"}}, {"type": "node", "id": 7522554040, "lat": 43.9425898, "lon": 2.1517479, "tags": {"bench": "yes", "bin": "no", "bus": "yes", "covered": "no", "departures_board": "timetable", "highway": "bus_stop", "lit": "yes", "name": "Provence", "public_transport": "platform", "ref": "Ligne C", "shelter": "yes", "tactile_paving": "yes"}}, {"type": "node", "id": 7522554041, "lat": 43.9435783, "lon": 2.1548779, "tags": {"bench": "yes", "bin": "yes", "bus": "yes", "covered": "no", "departures_board": "timetable", "highway": "bus_stop", "name": "Kellerman", "network": "R\u00e9seau Albigeois", "public_transport": "platform", "ref": "Ligne C", "shelter": "yes", "tactile_paving": "yes"}}, {"type": "node", "id": 8165752380, "lat": 43.9284047, "lon": 2.1802047, "tags": {"bench": "yes", "bin": "no", "bus": "yes", "covered": "no", "departures_board": "timetable", "highway": "bus_stop", "name": "Clinique Toulouse-Lautrec", "public_transport": "platform", "shelter": "yes"}}, {"type": "node", "id": 8165752381, "lat": 43.9282872, "lon": 2.1803933, "tags": {"bench": "no", "bin": "no", "bus": "yes", "covered": "no", "departures_board": "timetable", "highway": "bus_stop", "name": "Clinique Toulouse-Lautrec", "public_transport": "platform", "shelter": "no", "tactile_paving": "yes"}}, {"type": "node", "id": 8200082405, "lat": 43.9354049, "lon": 2.1776737, "tags": {"bench": "yes", "bin": "no", "bus": "yes", "covered": "no", "departures_board": "timetable", "highway": "bus_stop", "name": "Mazars", "public_transport": "platform", "shelter": "yes"}}, {"type": "node", "id": 8200082406, "lat": 43.9356037, "lon": 2.1788366, "tags": {"bench": "yes", "bin": "no", "bus": "yes", "covered": "no", "departures_board": "timetable", "highway": "bus_stop", "name": "Mazars", "public_transport": "platform", "shelter": "yes", "tactile_paving": "yes"}}, {"type": "node", "id": 8639815928, "lat": 43.8673662, "lon": 2.1915846, "tags": {"highway": "bus_stop"}}, {"type": "node", "id": 8791417166, "lat": 43.9284384, "lon": 1.9369537, "tags": {"name": "Tessoni\u00e8res", "operator": "SNCF", "public_transport": "station", "railway": "station", "source": "SNCF - 08/2017", "train": "yes", "uic_ref": "8761524"}}, {"type": "node", "id": 9076375555, "lat": 43.9372491, "lon": 2.1825401, "tags": {"bench": "no", "bin": "no", "bus": "yes", "covered": "no", "highway": "bus_stop", "name": "Renaudi\u00e9", "public_transport": "platform", "shelter": "no", "tactile_paving": "no"}}, {"type": "node", "id": 9076375557, "lat": 43.9369072, "lon": 2.1826845, "tags": {"bench": "yes", "bin": "no", "bus": "yes", "covered": "no", "departures_board": "timetable", "highway": "bus_stop", "name": "Renaudi\u00e9", "public_transport": "platform", "shelter": "yes", "tactile_paving": "no"}}, {"type": "node", "id": 9091516741, "lat": 44.0481204, "lon": 2.1529586, "tags": {"bus": "yes", "highway": "bus_stop", "public_transport": "platform"}}, {"type": "node", "id": 9097776253, "lat": 43.8964899, "lon": 2.3305663, "tags": {"bus": "yes", "highway": "bus_stop", "public_transport": "platform"}}, {"type": "node", "id": 9099225822, "lat": 43.957013, "lon": 2.2054329, "tags": {"bench": "yes", "departures_board": "timetable", "highway": "bus_stop", "name": "Griffouli\u00e8res", "public_transport": "platform", "shelter": "yes"}}, {"type": "node", "id": 9099225918, "lat": 43.955685, "lon": 2.2037621, "tags": {"bus": "yes", "highway": "bus_stop", "public_transport": "platform"}}, {"type": "node", "id": 9228308902, "lat": 43.9648641, "lon": 2.1849631, "tags": {"bus": "yes", "highway": "bus_stop", "name": "Lescure-d'Albigeois Hermet D903", "public_transport": "platform"}}, {"type": "node", "id": 9228308905, "lat": 43.9651884, "lon": 2.1858023, "tags": {"bus": "yes", "highway": "bus_stop", "name": "Lescure-d'Albigeois Hermet D903", "public_transport": "platform"}}, {"type": "node", "id": 9228309824, "lat": 43.9618102, "lon": 2.1716721, "tags": {"bench": "no", "bus": "yes", "highway": "bus_stop", "name": "Bouyssi\u00e9", "public_transport": "platform", "shelter": "no"}}, {"type": "node", "id": 9231256326, "lat": 43.9585379, "lon": 2.1537521, "tags": {"bench": "no", "bin": "no", "bus": "yes", "covered": "no", "departures_board": "timetable", "highway": "bus_stop", "name": "La Dr\u00eache", "public_transport": "platform", "shelter": "no", "tactile_paving": "no"}}, {"type": "node", "id": 9239139320, "lat": 43.9484511, "lon": 2.1418444, "tags": {"bench": "yes", "bin": "no", "bus": "yes", "covered": "no", "departures_board": "timetable", "highway": "bus_stop", "name": "P\u00e9lissier", "public_transport": "platform", "shelter": "yes", "tactile_paving": "no"}}, {"type": "node", "id": 9239139326, "lat": 43.9494121, "lon": 2.1422431, "tags": {"bench": "yes", "bin": "no", "bus": "yes", "covered": "no", "departures_board": "timetable", "highway": "bus_stop", "name": "Centrale", "public_transport": "platform", "shelter": "no", "tactile_paving": "no"}}, {"type": "node", "id": 9239139330, "lat": 43.9488996, "lon": 2.1455766, "tags": {"bench": "yes", "bus": "yes", "covered": "no", "departures_board": "timetable", "highway": "bus_stop", "name": "Pinsons", "public_transport": "platform", "shelter": "no"}}, {"type": "node", "id": 9239139334, "lat": 43.9474226, "lon": 2.1463171, "tags": {"bench": "no", "bus": "yes", "covered": "no", "departures_board": "timetable", "highway": "bus_stop", "name": "Le Breuil", "public_transport": "platform", "shelter": "no", "tactile_paving": "no"}}, {"type": "node", "id": 9239139338, "lat": 43.9454342, "lon": 2.1475056, "tags": {"bench": "no", "bus": "yes", "covered": "no", "departures_board": "timetable", "highway": "bus_stop", "name": "Cahuzac", "public_transport": "platform", "shelter": "no", "tactile_paving": "no"}}, {"type": "node", "id": 9239139347, "lat": 43.9433018, "lon": 2.147853, "tags": {"bench": "no", "bus": "yes", "covered": "no", "departures_board": "timetable", "highway": "bus_stop", "name": "Bermond", "public_transport": "platform", "shelter": "no"}}, {"type": "node", "id": 9239139349, "lat": 43.9439266, "lon": 2.144816, "tags": {"bench": "no", "bus": "yes", "covered": "no", "departures_board": "timetable", "highway": "bus_stop", "name": "Nougar\u00e8de", "public_transport": "platform", "shelter": "no", "tactile_paving": "no"}}, {"type": "node", "id": 9239139356, "lat": 43.9432057, "lon": 2.1415988, "tags": {"bench": "no", "bus": "yes", "covered": "no", "departures_board": "timetable", "highway": "bus_stop", "name": "Mazicou", "public_transport": "platform", "shelter": "yes", "tactile_paving": "yes"}}, {"type": "node", "id": 9239139357, "lat": 43.9432635, "lon": 2.1416953, "tags": {"bench": "no", "bus": "yes", "covered": "no", "departures_board": "timetable", "highway": "bus_stop", "name": "Mazicou", "public_transport": "platform", "shelter": "no", "tactile_paving": "yes"}}, {"type": "node", "id": 9239139374, "lat": 43.9453882, "lon": 2.140762, "tags": {"bench": "yes", "bin": "no", "bus": "yes", "covered": "no", "departures_board": "timetable", "highway": "bus_stop", "name": "Galinou", "public_transport": "platform", "shelter": "no", "tactile_paving": "no"}}, {"type": "node", "id": 9239139379, "lat": 43.9471054, "lon": 2.1403434, "tags": {"bench": "no", "bin": "no", "bus": "yes", "covered": "no", "departures_board": "timetable", "highway": "bus_stop", "name": "Combettes", "public_transport": "platform", "shelter": "no", "tactile_paving": "no"}}, {"type": "node", "id": 9239145565, "lat": 43.941319, "lon": 2.1419267, "tags": {"bench": "yes", "bus": "yes", "covered": "no", "departures_board": "timetable", "highway": "bus_stop", "name": "Ichard", "public_transport": "platform", "shelter": "no"}}, {"type": "node", "id": 9239145566, "lat": 43.9412264, "lon": 2.1420349, "tags": {"bench": "no", "bus": "yes", "covered": "no", "departures_board": "timetable", "highway": "bus_stop", "name": "Ichard", "public_transport": "platform", "shelter": "no"}}, {"type": "node", "id": 9239175703, "lat": 43.9340852, "lon": 2.1465707, "tags": {"bench": "yes", "bin": "yes", "bus": "yes", "departures_board": "timetable", "highway": "bus_stop", "name": "Visitation", "public_transport": "platform", "shelter": "yes", "tactile_paving": "yes"}}, {"type": "node", "id": 9239175704, "lat": 43.9337817, "lon": 2.1464551, "tags": {"bench": "yes", "bus": "yes", "departures_board": "timetable", "highway": "bus_stop", "name": "Visitation", "public_transport": "platform", "shelter": "yes", "tactile_paving": "yes"}}, {"type": "node", "id": 9239177138, "lat": 43.9282391, "lon": 2.1476559, "tags": {"bench": "yes", "bin": "yes", "bus": "yes", "departures_board": "timetable", "highway": "bus_stop", "name": "Lices Pompidou", "public_transport": "platform", "shelter": "yes"}}, {"type": "node", "id": 9241260575, "lat": 43.9507318, "lon": 2.1283955, "tags": {"bench": "yes", "bin": "no", "bus": "yes", "covered": "no", "departures_board": "timetable", "highway": "bus_stop", "name": "Fonvialane", "public_transport": "platform", "shelter": "yes", "tactile_paving": "no"}}, {"type": "node", "id": 9241260580, "lat": 43.9467179, "lon": 2.13292, "tags": {"bench": "no", "bin": "no", "bus": "yes", "covered": "no", "departures_board": "timetable", "highway": "bus_stop", "name": "Mas de Blanc", "public_transport": "platform", "shelter": "no", "tactile_paving": "no"}}, {"type": "node", "id": 9241260581, "lat": 43.9467845, "lon": 2.1333686, "tags": {"bench": "yes", "bin": "no", "bus": "yes", "covered": "no", "departures_board": "timetable", "highway": "bus_stop", "name": "Mas de Blanc", "public_transport": "platform", "shelter": "no", "tactile_paving": "no"}}, {"type": "node", "id": 9241260586, "lat": 43.9480402, "lon": 2.1360888, "tags": {"bus": "yes", "highway": "bus_stop", "public_transport": "platform"}}, {"type": "node", "id": 9241260587, "lat": 43.947288, "lon": 2.1372233, "tags": {"bus": "yes", "highway": "bus_stop", "public_transport": "platform"}}, {"type": "node", "id": 9241260601, "lat": 43.9464055, "lon": 2.1374533, "tags": {"bus": "yes", "highway": "bus_stop", "public_transport": "platform"}}, {"type": "node", "id": 9241260616, "lat": 43.9458961, "lon": 2.1370581, "tags": {"bench": "yes", "bin": "no", "bus": "yes", "covered": "no", "departures_board": "timetable", "highway": "bus_stop", "name": "Atlantis", "public_transport": "platform", "shelter": "yes", "tactile_paving": "yes"}}, {"type": "node", "id": 9241362121, "lat": 43.9457779, "lon": 2.1370709, "tags": {"bench": "no", "bin": "no", "bus": "yes", "covered": "no", "departures_board": "timetable", "highway": "bus_stop", "name": "Atlantis", "public_transport": "platform", "shelter": "no", "tactile_paving": "yes"}}, {"type": "node", "id": 9241362127, "lat": 43.9426781, "lon": 2.1364808, "tags": {"bench": "no", "bin": "no", "bus": "yes", "covered": "no", "departures_board": "timetable", "highway": "bus_stop", "name": "Chaban Delmas", "public_transport": "platform", "shelter": "no", "tactile_paving": "no"}}, {"type": "node", "id": 9241362133, "lat": 43.9426588, "lon": 2.136296, "tags": {"bench": "yes", "bin": "no", "bus": "yes", "covered": "no", "departures_board": "timetable", "highway": "bus_stop", "name": "Chaban Delmas", "public_transport": "platform", "shelter": "yes", "tactile_paving": "no"}}, {"type": "node", "id": 9241362153, "lat": 43.9398458, "lon": 2.137443, "tags": {"bench": "no", "bin": "no", "bus": "yes", "covered": "no", "departures_board": "timetable", "highway": "bus_stop", "name": "Croix de Clary", "public_transport": "platform", "shelter": "no", "tactile_paving": "no"}}, {"type": "node", "id": 9241362155, "lat": 43.9397578, "lon": 2.1373563, "tags": {"bench": "yes", "bin": "no", "bus": "yes", "covered": "no", "departures_board": "timetable", "highway": "bus_stop", "name": "Croix de Clary", "public_transport": "platform", "shelter": "no", "tactile_paving": "no"}}, {"type": "node", "id": 9241362159, "lat": 43.9377946, "lon": 2.1382093, "tags": {"bench": "yes", "bin": "no", "bus": "yes", "covered": "no", "departures_board": "timetable", "highway": "bus_stop", "name": "Capitaine Julia", "public_transport": "platform", "shelter": "no", "tactile_paving": "no"}}, {"type": "node", "id": 9241362170, "lat": 43.9346655, "lon": 2.1393094, "tags": {"bench": "yes", "bin": "no", "bus": "yes", "covered": "no", "departures_board": "timetable", "highway": "bus_stop", "name": "Pratgraussals", "public_transport": "platform", "shelter": "no", "tactile_paving": "no"}}, {"type": "node", "id": 9241523502, "lat": 43.9474229, "lon": 2.21054, "tags": {"bench": "yes", "bin": "yes", "bus": "yes", "covered": "no", "departures_board": "timetable", "highway": "bus_stop", "name": "Saint-Ju\u00e9ry", "public_transport": "platform", "shelter": "yes"}}, {"type": "node", "id": 9241523753, "lat": 43.9504204, "lon": 2.2095616, "tags": {"bench": "no", "bin": "no", "bus": "yes", "covered": "no", "departures_board": "timetable", "highway": "bus_stop", "name": "Pacifique", "public_transport": "platform", "shelter": "no", "tactile_paving": "yes"}}, {"type": "node", "id": 9241523759, "lat": 43.9504094, "lon": 2.2090492, "tags": {"bench": "no", "bin": "no", "bus": "yes", "covered": "no", "highway": "bus_stop", "name": "Pacifique", "public_transport": "platform", "shelter": "yes"}}, {"type": "node", "id": 9241523765, "lat": 43.9530419, "lon": 2.2084704, "tags": {"bench": "yes", "bus": "yes", "departures_board": "timetable", "highway": "bus_stop", "name": "Place du 19 mars", "public_transport": "platform", "shelter": "yes"}}, {"type": "node", "id": 9241523779, "lat": 43.9540745, "lon": 2.2077653, "tags": {"bus": "yes", "highway": "bus_stop", "name": "\u00c9glise", "public_transport": "platform"}}, {"type": "node", "id": 9241523784, "lat": 43.957275, "lon": 2.2045391, "tags": {"bench": "yes", "bin": "yes", "departures_board": "timetable", "highway": "bus_stop", "name": "Griffouli\u00e8res", "public_transport": "platform", "shelter": "yes"}}, {"type": "node", "id": 9241523800, "lat": 43.959234, "lon": 2.1998791, "tags": {"bench": "no", "bin": "yes", "departures_board": "timetable", "highway": "bus_stop", "name": "Riols", "public_transport": "platform", "shelter": "no"}}, {"type": "node", "id": 9241523801, "lat": 43.959132, "lon": 2.1998604, "tags": {"bench": "no", "bin": "yes", "highway": "bus_stop", "name": "Riols", "public_transport": "platform", "shelter": "no"}}, {"type": "node", "id": 9241523809, "lat": 43.9613812, "lon": 2.1944819, "tags": {"bus": "yes", "highway": "bus_stop", "name": "Giry Haut", "public_transport": "platform"}}, {"type": "node", "id": 9241523814, "lat": 43.961227, "lon": 2.1945613, "tags": {"bus": "yes", "highway": "bus_stop", "name": "Giry Haut", "public_transport": "platform"}}, {"type": "node", "id": 9241523818, "lat": 43.9626576, "lon": 2.1900038, "tags": {"bus": "yes", "highway": "bus_stop", "name": "Les Landes", "public_transport": "platform"}}, {"type": "node", "id": 9241523823, "lat": 43.962506, "lon": 2.1899257, "tags": {"bus": "yes", "highway": "bus_stop", "name": "Les Landes", "public_transport": "platform"}}, {"type": "node", "id": 9241627091, "lat": 43.9588278, "lon": 2.1869265, "tags": {"bus": "yes", "highway": "bus_stop", "name": "Les Gourgues", "public_transport": "platform"}}, {"type": "node", "id": 9241627092, "lat": 43.9587521, "lon": 2.1871297, "tags": {"bus": "yes", "highway": "bus_stop", "name": "Les Gourgues", "public_transport": "platform"}}, {"type": "node", "id": 9241627100, "lat": 43.9572116, "lon": 2.1810703, "tags": {"bus": "yes", "highway": "bus_stop", "name": "Les Prats", "public_transport": "platform"}}, {"type": "node", "id": 9241627101, "lat": 43.9567327, "lon": 2.1808336, "tags": {"bus": "yes", "highway": "bus_stop", "name": "Les Prats", "public_transport": "platform"}}, {"type": "node", "id": 9241627102, "lat": 43.9551607, "lon": 2.1792617, "tags": {"bus": "yes", "highway": "bus_stop", "name": "Boutons d'or", "public_transport": "platform"}}, {"type": "node", "id": 9241627103, "lat": 43.9551027, "lon": 2.1790725, "tags": {"bus": "yes", "highway": "bus_stop", "name": "Boutons d'or", "public_transport": "platform"}}, {"type": "node", "id": 9241627107, "lat": 43.9531088, "lon": 2.1769036, "tags": {"bus": "yes", "highway": "bus_stop", "name": "Avenue Jaur\u00e8s", "public_transport": "platform"}}, {"type": "node", "id": 9241627108, "lat": 43.9531786, "lon": 2.1770802, "tags": {"bus": "yes", "highway": "bus_stop", "name": "Avenue Jaur\u00e8s", "public_transport": "platform"}}, {"type": "node", "id": 9241668833, "lat": 43.9524771, "lon": 2.171608, "tags": {"bus": "yes", "highway": "bus_stop", "name": "Pauline Kergomard M\u00e9diath\u00e8que", "public_transport": "platform"}}, {"type": "node", "id": 9241668834, "lat": 43.9523851, "lon": 2.1717341, "tags": {"bus": "yes", "highway": "bus_stop", "name": "Pauline Kergomard M\u00e9diath\u00e8que", "public_transport": "platform"}}, {"type": "node", "id": 9241668861, "lat": 43.9567001, "lon": 2.173893, "tags": {"bus": "yes", "highway": "bus_stop", "name": "Les Gr\u00e8zes", "public_transport": "platform"}}, {"type": "node", "id": 9241668862, "lat": 43.9569007, "lon": 2.1739792, "tags": {"bus": "yes", "highway": "bus_stop", "name": "Les Gr\u00e8zes", "public_transport": "platform"}}, {"type": "node", "id": 9241668881, "lat": 43.9605251, "lon": 2.1771271, "tags": {"bus": "yes", "highway": "bus_stop", "name": "Barricade", "public_transport": "platform"}}, {"type": "node", "id": 9241668882, "lat": 43.9605273, "lon": 2.1772257, "tags": {"bus": "yes", "highway": "bus_stop", "name": "Barricade", "public_transport": "platform"}}, {"type": "node", "id": 9241668887, "lat": 43.962865, "lon": 2.165809, "tags": {"bench": "no", "bus": "yes", "covered": "no", "departures_board": "timetable", "highway": "bus_stop", "name": "Najac", "public_transport": "platform", "shelter": "no", "tactile_paving": "yes"}}, {"type": "node", "id": 9241668888, "lat": 43.9629536, "lon": 2.1656934, "tags": {"bench": "yes", "bus": "yes", "covered": "no", "departures_board": "timetable", "highway": "bus_stop", "name": "Najac", "public_transport": "platform", "shelter": "yes", "tactile_paving": "yes"}}, {"type": "node", "id": 9241668896, "lat": 43.9622305, "lon": 2.164042, "tags": {"bench": "no", "bin": "no", "bus": "yes", "covered": "no", "departures_board": "timetable", "highway": "bus_stop", "name": "\u00c9dith Piaf", "public_transport": "platform", "shelter": "no", "tactile_paving": "yes"}}, {"type": "node", "id": 9241668897, "lat": 43.9619129, "lon": 2.1638545, "tags": {"bench": "yes", "bin": "no", "bus": "yes", "covered": "no", "departures_board": "timetable", "highway": "bus_stop", "name": "\u00c9dith Piaf", "public_transport": "platform", "shelter": "yes", "tactile_paving": "yes"}}, {"type": "node", "id": 9241668919, "lat": 43.958683, "lon": 2.1578768, "tags": {"bench": "yes", "bin": "yes", "bus": "yes", "covered": "no", "departures_board": "timetable", "highway": "bus_stop", "name": "Gaillagu\u00e8s", "public_transport": "platform", "shelter": "yes", "tactile_paving": "no"}}, {"type": "node", "id": 9241668920, "lat": 43.9586067, "lon": 2.1578521, "tags": {"bench": "no", "bin": "no", "bus": "yes", "covered": "no", "departures_board": "timetable", "highway": "bus_stop", "name": "Gaillagu\u00e8s", "public_transport": "platform", "shelter": "no", "tactile_paving": "no"}}, {"type": "node", "id": 9241668922, "lat": 43.9585767, "lon": 2.1542791, "tags": {"bench": "no", "bin": "no", "bus": "yes", "covered": "no", "departures_board": "timetable", "highway": "bus_stop", "name": "La Dr\u00eache", "public_transport": "platform", "shelter": "no", "tactile_paving": "no"}}, {"type": "node", "id": 9241707286, "lat": 43.9494324, "lon": 2.1530473, "tags": {"bench": "no", "bin": "no", "bus": "yes", "covered": "no", "departures_board": "timetable", "highway": "bus_stop", "name": "Albert Thomas", "public_transport": "platform", "shelter": "no", "tactile_paving": "yes"}}, {"type": "node", "id": 9241707287, "lat": 43.9497652, "lon": 2.1533733, "tags": {"bench": "no", "bin": "no", "bus": "yes", "covered": "no", "departures_board": "timetable", "highway": "bus_stop", "name": "Albert Thomas", "public_transport": "platform", "shelter": "no", "tactile_paving": "yes"}}, {"type": "node", "id": 9241881533, "lat": 43.9406853, "lon": 2.1547953, "tags": {"bench": "no", "bin": "no", "bus": "yes", "covered": "no", "departures_board": "timetable", "highway": "bus_stop", "name": "Cambac\u00e9r\u00e8s", "public_transport": "platform", "shelter": "no", "tactile_paving": "no"}}, {"type": "node", "id": 9241881539, "lat": 43.9400501, "lon": 2.1569626, "tags": {"bench": "yes", "bin": "no", "bus": "yes", "covered": "no", "departures_board": "timetable", "highway": "bus_stop", "name": "Lebrun", "public_transport": "platform", "shelter": "no", "tactile_paving": "yes"}}, {"type": "node", "id": 9241881552, "lat": 43.9423009, "lon": 2.1584951, "tags": {"bench": "yes", "bin": "yes", "bus": "yes", "covered": "no", "departures_board": "timetable", "highway": "bus_stop", "name": "Jean-Louis Fieu", "public_transport": "platform", "shelter": "yes", "tactile_paving": "yes"}}, {"type": "node", "id": 9241881584, "lat": 43.9438444, "lon": 2.1547102, "tags": {"bench": "no", "bin": "no", "bus": "yes", "covered": "no", "departures_board": "timetable", "highway": "bus_stop", "name": "Kellerman", "network": "R\u00e9seau Albigeois", "public_transport": "platform", "ref": "Ligne C", "shelter": "no", "tactile_paving": "yes"}}, {"type": "node", "id": 9241881600, "lat": 43.9450187, "lon": 2.1536035, "tags": {"bench": "yes", "bin": "yes", "bus": "yes", "covered": "no", "departures_board": "timetable", "highway": "bus_stop", "name": "Brune", "public_transport": "platform", "shelter": "yes", "tactile_paving": "yes"}}, {"type": "node", "id": 9241881601, "lat": 43.9451337, "lon": 2.153723, "tags": {"bench": "no", "bin": "no", "bus": "yes", "covered": "no", "departures_board": "timetable", "highway": "bus_stop", "name": "Brune", "public_transport": "platform", "shelter": "no", "tactile_paving": "yes"}}, {"type": "node", "id": 9241881610, "lat": 43.9467064, "lon": 2.1549343, "tags": {"bench": "no", "bin": "no", "bus": "yes", "covered": "no", "departures_board": "timetable", "highway": "bus_stop", "name": "Augereau", "public_transport": "platform", "shelter": "no", "tactile_paving": "yes"}}, {"type": "node", "id": 9241881620, "lat": 43.9476605, "lon": 2.1568539, "tags": {"bench": "yes", "bin": "no", "bus": "yes", "covered": "no", "departures_board": "timetable", "highway": "bus_stop", "name": "Cantepau", "public_transport": "platform", "shelter": "yes", "tactile_paving": "yes"}}, {"type": "node", "id": 9241881630, "lat": 43.9494998, "lon": 2.1569435, "tags": {"bench": "yes", "bin": "yes", "bus": "yes", "covered": "no", "departures_board": "timetable", "highway": "bus_stop", "name": "Hoche", "public_transport": "platform", "shelter": "yes", "tactile_paving": "yes"}}, {"type": "node", "id": 9241881640, "lat": 43.9476653, "lon": 2.1546321, "tags": {"bench": "yes", "bus": "yes", "covered": "no", "departures_board": "timetable", "highway": "bus_stop", "name": "Hautpoul", "public_transport": "platform", "shelter": "yes", "tactile_paving": "yes"}}, {"type": "node", "id": 9243974011, "lat": 43.925234, "lon": 2.1497656, "tags": {"bench": "no", "bin": "no", "bus": "yes", "covered": "no", "departures_board": "timetable", "highway": "bus_stop", "name": "Balzac", "public_transport": "platform", "shelter": "no"}}, {"type": "node", "id": 9243985128, "lat": 43.9256664, "lon": 2.1595977, "tags": {"bench": "yes", "bin": "no", "bus": "yes", "covered": "no", "departures_board": "timetable", "highway": "bus_stop", "name": "Saint-Martin", "public_transport": "platform", "shelter": "yes"}}, {"type": "node", "id": 9243985129, "lat": 43.9253841, "lon": 2.1596355, "tags": {"bench": "no", "bin": "no", "bus": "yes", "covered": "no", "departures_board": "timetable", "highway": "bus_stop", "name": "Saint-Martin", "public_transport": "platform", "shelter": "no", "tactile_paving": "no"}},