{"version": 0.6, "generator": "Overpass API 0.7.62.5 1bd436f1", "osm3s": {"timestamp_osm_base": "2025-04-09T14:48:30Z", "copyright": "The data included in this document is from www.openstreetmap.org. The data is made available under ODbL."}, "elements": [{"type": "node", "id": 117981686, "lat": 42.5241855, "lon": 3.0839431, "tags": {"bus": "yes", "highway": "bus_stop", "name": "Le Glacis", "public_transport": "stop_position"}}, {"type": "node", "id": 117981886, "lat": 42.5231488, "lon": 3.1013857, "tags": {"bus": "yes", "highway": "bus_stop", "name": "Arr\u00eat ibis", "public_transport": "platform"}}, {"type": "node", "id": 117982476, "lat": 42.5229418, "lon": 3.0941406, "tags": {"bench": "no", "bin": "no", "bus": "yes", "highway": "bus_stop", "name": "Centre Air Mer Soleil", "public_transport": "platform", "shelter": "no"}}, {"type": "node", "id": 948042504, "lat": 42.5136404, "lon": 3.1022465}, {"type": "node", "id": 948042506, "lat": 42.5135608, "lon": 3.1029048}, {"type": "node", "id": 948042509, "lat": 42.5136542, "lon": 3.1029058}, {"type": "node", "id": 948042511, "lat": 42.5135642, "lon": 3.1022498}, {"type": "node", "id": 1315008508, "lat": 42.5430663, "lon": 3.0488608, "tags": {"bin": "yes", "bus": "yes", "highway": "bus_stop", "name": "Port Argel\u00e8s", "public_transport": "platform", "shelter": "yes"}}, {"type": "node", "id": 1318768377, "lat": 42.5160861, "lon": 3.1057539, "tags": {"bench": "yes", "bin": "yes", "bus": "yes", "highway": "bus_stop", "lit": "yes", "name": "Port-Vendres Les Quais", "public_transport": "platform", "shelter": "yes", "tactile_paving": "no"}}, {"type": "node", "id": 1318768398, "lat": 42.5161643, "lon": 3.1059301, "tags": {"bench": "yes", "bin": "yes", "bus": "yes", "highway": "bus_stop", "lit": "yes", "name": "Port-Vendres Les Quais", "public_transport": "platform", "shelter": "yes", "tactile_paving": "no"}}, {"type": "node", "id": 1342524464, "lat": 42.5432221, "lon": 3.0487646, "tags": {"bin": "yes", "bus": "yes", "highway": "bus_stop", "name": "Port Argel\u00e8s", "public_transport": "platform"}}, {"type": "node", "id": 1342524476, "lat": 42.5241319, "lon": 3.0840683, "tags": {"bench": "no", "bin": "no", "bus": "yes", "check_date:shelter": "2023-08-03", "highway": "bus_stop", "lit": "no", "name": "Square Marceau Banyuls", "public_transport": "platform", "shelter": "no", "tactile_paving": "no", "wheelchair": "no"}}, {"type": "node", "id": 1342524488, "lat": 42.5203083, "lon": 3.106835, "tags": {"bench": "yes", "bin": "no", "bus": "yes", "highway": "bus_stop", "lit": "yes", "name": "Ob\u00e9lisque", "public_transport": "platform", "shelter": "yes", "tactile_paving": "no"}}, {"type": "node", "id": 1342524510, "lat": 42.4811892, "lon": 3.1297519, "tags": {"bus": "yes", "highway": "bus_stop", "name": "Office du Tourisme", "public_transport": "platform"}}, {"type": "node", "id": 1342524516, "lat": 42.5222026, "lon": 3.1032901, "tags": {"bench": "no", "bus": "yes", "highway": "bus_stop", "lit": "no", "name": "Cimeti\u00e8re", "public_transport": "platform", "shelter": "no"}}, {"type": "node", "id": 1342524517, "lat": 42.4993738, "lon": 3.1182609, "tags": {"bench": "yes", "bus": "yes", "highway": "bus_stop", "name": "Paulilles Parking", "public_transport": "platform"}}, {"type": "node", "id": 1342524528, "lat": 42.5203142, "lon": 3.1065715, "tags": {"bench": "yes", "bin": "yes", "bus": "yes", "highway": "bus_stop", "lit": "yes", "name": "Ob\u00e9lisque", "public_transport": "platform", "shelter": "no", "tactile_paving": "no"}}, {"type": "node", "id": 1342524546, "lat": 42.5372949, "lon": 3.0496523, "tags": {"bus": "yes", "highway": "bus_stop", "name": "Valmarie", "public_transport": "platform"}}, {"type": "node", "id": 1342524548, "lat": 42.5222703, "lon": 3.1033488, "tags": {"bench": "yes", "bus": "yes", "highway": "bus_stop", "lit": "no", "name": "Cimeti\u00e8re", "public_transport": "platform", "shelter": "yes"}}, {"type": "node", "id": 1342524570, "lat": 42.4809893, "lon": 3.1303396, "tags": {"bench": "yes", "bin": "yes", "bus": "yes", "highway": "bus_stop", "name": "Office du Tourisme", "public_transport": "platform", "shelter": "no"}}, {"type": "node", "id": 1342524590, "lat": 42.48723, "lon": 3.1265361, "tags": {"bench": "no", "bus": "yes", "highway": "bus_stop", "name": "Les Elmes", "public_transport": "platform", "shelter": "no"}}, {"type": "node", "id": 1342524599, "lat": 42.5242472, "lon": 3.0839013, "tags": {"bench": "yes", "bus": "yes", "highway": "bus_stop", "name": "Le Glacis", "public_transport": "platform", "shelter": "yes", "wheelchair": "no"}}, {"type": "node", "id": 1342524624, "lat": 42.4876038, "lon": 3.1269482, "tags": {"bus": "yes", "highway": "bus_stop", "name": "Les Elmes", "public_transport": "stop_position"}}, {"type": "node", "id": 1883632191, "lat": 42.3064938, "lon": 3.1432217, "tags": {"bus": "yes", "highway": "bus_stop", "public_transport": "platform"}}, {"type": "node", "id": 1998634565, "lat": 42.3668, "lon": 3.1491602, "tags": {"name": "Llan\u00e7\u00e0", "name:ca": "Llan\u00e7\u00e0", "operator": "Adif", "public_transport": "station", "railway": "station", "source": "http://www.iderail.es/2012/03/08/posicion-estaciones-de-adif/;https://github.com/trainline-eu/stations", "train": "yes", "uic_ref": "7179312", "wheelchair": "yes", "wikidata": "Q8840949", "wikipedia": "ca:Estaci\u00f3 de Llan\u00e7\u00e0"}}, {"type": "node", "id": 3439939965, "lat": 42.2888123, "lon": 3.2142536, "tags": {"bus": "yes", "highway": "bus_stop", "public_transport": "platform"}}, {"type": "node", "id": 3439939977, "lat": 42.2889846, "lon": 3.214203, "tags": {"bus": "yes", "highway": "bus_stop", "public_transport": "stop_position"}}, {"type": "node", "id": 3470967493, "lat": 42.5136415, "lon": 3.102591}, {"type": "node", "id": 3470967593, "lat": 42.5136546, "lon": 3.102592}, {"type": "node", "id": 4303926326, "lat": 42.2709739, "lon": 3.1497264, "tags": {"bench": "yes", "bin": "yes", "bus": "yes", "covered": "yes", "highway": "bus_stop", "lit": "no", "name": "C-68, Km 42,8", "public_transport": "platform", "route_ref": "e6", "shelter": "yes", "tactile_paving": "no"}}, {"type": "node", "id": 4303929585, "lat": 42.2706728, "lon": 3.1499753, "tags": {"bench": "yes", "bin": "no", "bus": "yes", "covered": "yes", "highway": "bus_stop", "lit": "no", "name": "C-68, Km 42,8", "public_transport": "platform", "route_ref": "e6", "shelter": "yes", "tactile_paving": "no"}}, {"type": "node", "id": 4454079135, "lat": 42.2470338, "lon": 3.1977016, "tags": {"bus": "yes", "highway": "bus_stop", "name": "Canyelles", "name:ca": "Canyelles", "public_transport": "platform"}}, {"type": "node", "id": 5418197107, "lat": 42.4247982, "lon": 3.1580125, "tags": {"alt_name": "Port-Bou", "name": "Portbou", "name:ca": "Portbou", "official_name": "Portbou", "operator": "Adif", "public_transport": "station", "railway": "station", "train": "yes", "uic_ref": "7179315", "wikidata": "Q979452", "wikipedia": "ca:Estaci\u00f3 de Portbou"}}, {"type": "node", "id": 5669448842, "lat": 42.5135488, "lon": 3.1025769, "tags": {"name": "Port-Vendres", "railway": "station", "train": "yes", "wheelchair": "yes"}}, {"type": "node", "id": 5861027971, "lat": 42.2764018, "lon": 3.1556658, "tags": {"bus": "yes", "highway": "bus_stop", "name": "Aqua Brava", "name:ca": "Aqua Brava", "public_transport": "platform"}}, {"type": "node", "id": 6269813694, "lat": 42.523475, "lon": 3.0959679, "tags": {"bench": "yes", "bin": "no", "bus": "yes", "highway": "bus_stop", "lit": "no", "name": "Centre Air Mer Soleil", "public_transport": "platform", "shelter": "yes", "tactile_paving": "no"}}, {"type": "node", "id": 6269813696, "lat": 42.480196, "lon": 3.1395833, "tags": {"bench": "no", "bus": "yes", "highway": "bus_stop", "name": "Le Troc", "public_transport": "platform", "shelter": "no"}}, {"type": "node", "id": 6269813697, "lat": 42.4565372, "lon": 3.1578449, "tags": {"bench": "yes", "bin": "no", "bus": "yes", "fixme": "position approximative", "highway": "bus_stop", "lit": "no", "name": "Cap Peyrefitte", "public_transport": "platform", "shelter": "yes", "tactile_paving": "no"}}, {"type": "node", "id": 6269813698, "lat": 42.4473589, "lon": 3.1664121, "tags": {"bench": "yes", "bus": "yes", "check_date:shelter": "2023-03-14", "highway": "bus_stop", "name": "La Cave", "public_transport": "platform", "shelter": "yes"}}, {"type": "node", "id": 6270147524, "lat": 42.5372265, "lon": 3.0497508, "tags": {"bus": "yes", "highway": "bus_stop", "name": "Valmarie", "public_transport": "platform"}}, {"type": "node", "id": 6271139390, "lat": 42.5006249, "lon": 3.1209457, "tags": {"bench": "no", "bin": "no", "bus": "yes", "highway": "bus_stop", "lit": "no", "name": "Paulilles RD 914", "public_transport": "platform", "shelter": "no", "tactile_paving": "no"}}, {"type": "node", "id": 6272071421, "lat": 42.4475875, "lon": 3.1659682, "tags": {"bench": "yes", "bus": "yes", "highway": "bus_stop", "name": "La Cave", "public_transport": "platform", "shelter": "no"}}, {"type": "node", "id": 6272071422, "lat": 42.4567324, "lon": 3.1570936, "tags": {"bench": "yes", "bin": "no", "bus": "yes", "fixme": "position approximative", "highway": "bus_stop", "lit": "no", "name": "Cap Peyrefitte", "public_transport": "platform", "shelter": "no", "tactile_paving": "no"}}, {"type": "node", "id": 6272071423, "lat": 42.4791906, "lon": 3.1409637, "tags": {"bench": "no", "bus": "yes", "description": "Sens Banyuls.sur-Mer-Cerb\u00e8re uniquement", "highway": "bus_stop", "name": "Le Troc", "public_transport": "platform", "shelter": "no"}}, {"type": "node", "id": 6272071424, "lat": 42.5430995, "lon": 3.0486041, "tags": {"bin": "yes", "bus": "yes", "highway": "bus_stop", "name": "Port Argel\u00e8s", "public_transport": "platform"}}, {"type": "node", "id": 6272071427, "lat": 42.4832235, "lon": 3.1293426, "tags": {"bench": "no", "bin": "no", "bus": "yes", "highway": "bus_stop", "lit": "yes", "name": "Avenue de la R\u00e9publique", "public_transport": "platform", "shelter": "no", "tactile_paving": "no"}}, {"type": "node", "id": 6990778124, "lat": 42.426682, "lon": 3.1607515, "tags": {"bus": "yes", "highway": "bus_stop", "name": "Portbou", "name:ca": "Portbou", "public_transport": "platform"}}, {"type": "node", "id": 8507552898, "lat": 42.4767698, "lon": 3.1190973, "tags": {"bus": "yes", "highway": "bus_stop", "public_transport": "platform"}}, {"type": "node", "id": 8761409416, "lat": 42.2648216, "lon": 3.1806945, "tags": {"bus": "yes", "highway": "bus_stop", "name": "Roses estaci\u00f3 autobusos", "name:ca": "Roses estaci\u00f3 autobusos", "public_transport": "stop_position", "route_ref": "e6"}}, {"type": "node", "id": 8761419719, "lat": 42.2669705, "lon": 3.1768928, "tags": {"bus": "yes", "highway": "bus_stop", "name": "Cines", "public_transport": "platform"}}, {"type": "node", "id": 8761419720, "lat": 42.2649563, "lon": 3.1715788, "tags": {"bench": "yes", "bin": "no", "bus": "yes", "highway": "bus_stop", "name": "Av. de Rhodes, 73", "name:ca": "Av. de Rhodes, 73", "public_transport": "platform", "route_ref": "e6", "shelter": "yes", "tactile_paving": "no"}}, {"type": "node", "id": 8761419721, "lat": 42.2697083, "lon": 3.154098, "tags": {"bench": "no", "bin": "no", "bus": "yes", "highway": "bus_stop", "lit": "no", "name": "Querabs 1", "public_transport": "platform", "shelter": "no", "tactile_paving": "no"}}, {"type": "node", "id": 8761419722, "lat": 42.2676415, "lon": 3.1427059, "tags": {"bench": "no", "bin": "no", "bus": "yes", "highway": "bus_stop", "lit": "no", "name": "Port Joan", "public_transport": "platform", "shelter": "no", "tactile_paving": "no"}}, {"type": "node", "id": 8778713497, "lat": 42.2674931, "lon": 3.1468508, "tags": {"bench": "no", "bin": "yes", "bus": "yes", "highway": "bus_stop", "lit": "no", "name": "Estel", "public_transport": "platform", "shelter": "no", "tactile_paving": "no"}}, {"type": "node", "id": 8778713498, "lat": 42.2639454, "lon": 3.1506332, "tags": {"bench": "no", "bin": "no", "bus": "yes", "highway": "bus_stop", "lit": "yes", "name": "Bocana", "public_transport": "platform", "shelter": "no", "tactile_paving": "no"}}, {"type": "node", "id": 8778713499, "lat": 42.2608197, "lon": 3.1496214, "tags": {"bench": "yes", "bin": "yes", "bus": "yes", "highway": "bus_stop", "lit": "no", "name": "Estany 1", "name:ca": "Estany 1", "public_transport": "platform", "shelter": "no", "tactile_paving": "no"}}, {"type": "node", "id": 8778713500, "lat": 42.2625864, "lon": 3.1526426, "tags": {"bus": "yes", "highway": "bus_stop", "name": "Estany 2", "name:ca": "Estany 2", "public_transport": "platform"}}, {"type": "node", "id": 8778713501, "lat": 42.2635334, "lon": 3.1560882, "tags": {"bus": "yes", "highway": "bus_stop", "name": "Estany 3", "name:ca": "Estany 3", "public_transport": "platform"}}, {"type": "node", "id": 8778713502, "lat": 42.2644185, "lon": 3.1587373, "tags": {"bus": "yes", "highway": "bus_stop", "name": "Estany 4", "name:ca": "Estany 4", "public_transport": "platform"}}, {"type": "node", "id": 8778713503, "lat": 42.2659263, "lon": 3.1585457, "tags": {"bus": "yes", "highway": "bus_stop", "name": "Bergant\u00ed", "public_transport": "platform"}}, {"type": "node", "id": 8778713504, "lat": 42.2663529, "lon": 3.1559044, "tags": {"bus": "yes", "highway": "bus_stop", "name": "Reig 1", "name:ca": "Reig 1", "public_transport": "platform"}}, {"type": "node", "id": 8778713505, "lat": 42.268525, "lon": 3.1556914, "tags": {"bus": "yes", "highway": "bus_stop", "name": "Reig 2", "name:ca": "Reig 2", "public_transport": "platform"}}, {"type": "node", "id": 8778713506, "lat": 42.2648318, "lon": 3.1715559, "tags": {"bench": "no", "bin": "no", "bus": "yes", "highway": "bus_stop", "name": "Av. de Rhodes, 73", "name:ca": "Av. de Rhodes, 73", "public_transport": "platform", "route_ref": "e6", "shelter": "no"}}, {"type": "node", "id": 8778713507, "lat": 42.2609475, "lon": 3.1766608, "tags": {"bench": "yes", "bin": "no", "bus": "yes", "highway": "bus_stop", "lit": "yes", "name": "Rhode", "public_transport": "platform", "shelter": "no", "tactile_paving": "no"}}, {"type": "node", "id": 8778713508, "lat": 42.2571803, "lon": 3.1814098, "tags": {"bus": "yes", "highway": "bus_stop", "name": "Port", "name:ca": "Port", "public_transport": "platform"}}, {"type": "node", "id": 8778713509, "lat": 42.259308, "lon": 3.1850567, "tags": {"bus": "yes", "highway": "bus_stop", "name": "Quana", "public_transport": "platform", "shelter": "no"}}, {"type": "node", "id": 8778934076, "lat": 42.2648997, "lon": 3.1715478, "tags": {"bus": "yes", "highway": "bus_stop", "name": "Av. de Rhodes, 73", "name:ca": "Av. de Rhodes, 73", "public_transport": "stop_position", "route_ref": "e6"}}, {"type": "node", "id": 8778934077, "lat": 42.2558594, "lon": 3.1820395, "tags": {"bus": "yes", "highway": "bus_stop", "name": "Moll", "public_transport": "platform"}}, {"type": "node", "id": 8778934078, "lat": 42.2465168, "lon": 3.1855915, "tags": {"bus": "yes", "highway": "bus_stop", "name": "Far", "name:ca": "Far", "public_transport": "platform"}}, {"type": "node", "id": 8778934079, "lat": 42.2466022, "lon": 3.1855016, "tags": {"bus": "yes", "highway": "bus_stop", "name": "Far", "name:ca": "Far", "public_transport": "platform"}}, {"type": "node", "id": 8778934080, "lat": 42.2423746, "lon": 3.2032098, "tags": {"bench": "no", "bin": "no", "bus": "yes", "highway": "bus_stop", "lit": "no", "name": "Almadrava 1", "name:ca": "Almadrava 1", "public_transport": "platform", "shelter": "no", "tactile_paving": "no"}}, {"type": "node", "id": 8778934081, "lat": 42.2425265, "lon": 3.2038226, "tags": {"bus": "yes", "highway": "bus_stop", "name": "Almadrava 1", "name:ca": "Almadrava 1", "public_transport": "platform"}}, {"type": "node", "id": 8778934082, "lat": 42.2427389, "lon": 3.207584, "tags": {"bus": "yes", "highway": "bus_stop", "name": "Almadrava 2", "name:ca": "Almadrava 2", "public_transport": "platform"}}, {"type": "node", "id": 8778934083, "lat": 42.265428, "lon": 3.1722137, "tags": {"bench": "yes", "bin": "yes", "bus": "yes", "highway": "bus_stop", "lit": "no", "name": "Turisme 2", "name:ca": "Turisme 2", "public_transport": "platform", "shelter": "no", "tactile_paving": "no"}}, {"type": "node", "id": 8892748017, "lat": 42.3346873, "lon": 3.2028129, "tags": {"bench": "yes", "bus": "yes", "highway": "bus_stop", "public_transport": "platform", "shelter": "yes", "survey:date": "2021-07-04"}}, {"type": "node", "id": 9791162209, "lat": 42.2682816, "lon": 3.1805687, "tags": {"bus": "yes", "highway": "bus_stop", "name": "Piscina", "name:ca": "Piscina", "public_transport": "platform"}}, {"type": "node", "id": 9791162210, "lat": 42.2647637, "lon": 3.1807736, "tags": {"bench": "yes", "bin": "yes", "bus": "yes", "highway": "bus_stop", "lit": "yes", "name": "Roses estaci\u00f3 autobusos", "name:ca": "Roses estaci\u00f3 autobusos", "note": "Please check where line 3 actually stops. this place is what roses.cat website shows", "public_transport": "platform", "route_ref": "e6", "shelter": "yes", "tactile_paving": "no"}}, {"type": "node", "id": 9791162213, "lat": 42.2692254, "lon": 3.1675543, "tags": {"bench": "yes", "bin": "no", "bus": "yes", "highway": "bus_stop", "lit": "yes", "name": "Mates", "public_transport": "platform", "shelter": "yes", "tactile_paving": "no"}}, {"type": "node", "id": 9791162214, "lat": 42.2612452, "lon": 3.1807243, "tags": {"bus": "yes", "highway": "bus_stop", "name": "Montserrat", "name:ca": "Montserrat", "public_transport": "platform"}}, {"type": "node", "id": 9791162215, "lat": 42.2633685, "lon": 3.1784657, "tags": {"bus": "yes", "highway": "bus_stop", "name": "Ginjolers", "public_transport": "platform"}}, {"type": "node", "id": 9909786518, "lat": 42.3656013, "lon": 3.1543937, "tags": {"bus": "yes", "highway": "bus_stop", "name": "Llan\u00e7\u00e0 Ajuntament", "name:ca": "Llan\u00e7\u00e0 Ajuntament", "public_transport": "stop_position"}}, {"type": "node", "id": 10939580946, "lat": 42.5404968, "lon": 3.0337541, "tags": {"bus": "yes", "highway": "bus_stop", "public_transport": "platform"}}, {"type": "node", "id": 10940364804, "lat": 42.5268832, "lon": 3.0781015, "tags": {"name": "Collioure", "official_name": "Collioure", "operator": "SNCF", "public_transport": "station", "railway": "station", "source": "cadastre-dgi-fr source : Direction G\u00e9n\u00e9rale des Imp\u00f4ts - Cadastre;mise \u00e0 jour : 2008", "train": "yes", "uic_ref": "8778425", "wheelchair": "no", "wikidata": "Q2315101", "wikipedia": "fr:Gare de Collioure"}}, {"type": "node", "id": 10940370468, "lat": 42.4415596, "lon": 3.1635147, "tags": {"name": "Cerb\u00e8re", "operator": "SNCF", "public_transport": "station", "railway": "station", "source": "cadastre-dgi-fr source : Direction G\u00e9n\u00e9rale des Imp\u00f4ts - Cadastre;mise \u00e0 jour : 2008", "train": "yes", "uic_ref": "8778500", "wheelchair": "no", "wikidata": "Q977356", "wikipedia": "fr:Gare de Cerb\u00e8re"}}, {"type": "node", "id": 11327750198, "lat": 42.3713544, "lon": 3.1637222, "tags": {"highway": "bus_stop", "name": "Pla\u00e7a del Port"}}, {"type": "node", "id": 11611812802, "lat": 42.4830177, "lon": 3.1248805, "tags": {"name": "Banyuls-sur-Mer", "operator": "SNCF", "public_transport": "station", "railway": "station", "train": "yes", "uic_ref": "8778429", "wheelchair": "yes", "wikidata": "Q2243839", "wikipedia": "fr:Gare de Banyuls-sur-Mer"}}, {"type": "node", "id": 11883668690, "lat": 42.4409493, "lon": 3.1657688, "tags": {"bench": "yes", "bin": "yes", "bus": "yes", "highway": "bus_stop", "name": "Cerb\u00e8re - Centre-Ville", "network": "liO", "network:wikidata": "Q55597931", "operator": "liO", "public_transport": "platform", "shelter": "no", "tactile_paving": "no"}}, {"type": "node", "id": 11957915547, "lat": 42.3193641, "lon": 3.3158965, "tags": {"bench": "no", "bin": "no", "bus": "yes", "departures_board": "timetable", "highway": "bus_stop", "lit": "no", "name": "Cap de Creus", "operator": "Moventis", "public_transport": "stop_position", "shelter": "no", "tactile_paving": "no"}}, {"type": "node", "id": 11957915548, "lat": 42.2985549, "lon": 3.2853948, "tags": {"highway": "bus_stop"}}, {"type": "node", "id": 12022923241, "lat": 42.4871332, "lon": 3.1266412, "tags": {"bench": "no", "bus": "yes", "highway": "bus_stop", "name": "Les Elmes", "public_transport": "platform", "shelter": "no"}}, {"type": "node", "id": 12143016158, "lat": 42.2897849, "lon": 3.272829, "tags": {"bus": "yes", "highway": "bus_stop", "name": "Cadaqu\u00e9s estaci\u00f3 d'autobusos", "public_transport": "stop_position", "route_ref": "e6"}}, {"type": "node", "id": 12143016159, "lat": 42.289744, "lon": 3.2727126, "tags": {"bus": "yes", "highway": "bus_stop", "name": "Cadaqu\u00e9s estaci\u00f3 d'autobusos", "public_transport": "platform", "route_ref": "e6"}}, {"type": "node", "id": 12144908858, "lat": 42.2648914, "lon": 3.1715824, "tags": {"bus": "yes", "highway": "bus_stop", "name": "Av. de Rhodes, 73", "public_transport": "stop_position", "route_ref": "e6"}}, {"type": "node", "id": 12144908859, "lat": 42.2707192, "lon": 3.1500036, "tags": {"bus": "yes", "highway": "bus_stop", "name": "C-68, Km 42,8", "public_transport": "stop_position", "route_ref": "e6"}}, {"type": "node", "id": 12144936244, "lat": 42.2709145, "lon": 3.1496998, "tags": {"bus": "yes", "highway": "bus_stop", "name": "C-68, Km 42,8", "public_transport": "stop_position", "route_ref": "e6"}}, {"type": "node", "id": 12290779904, "lat": 42.4408678, "lon": 3.1657589, "tags": {"bench": "yes", "bin": "yes", "bus": "yes", "highway": "bus_stop", "name": "Cerb\u00e8re - Centre-Ville", "network": "liO", "network:wikidata": "Q55597931", "operator": "liO", "public_transport": "platform", "shelter": "no", "tactile_paving": "no"}}, {"type": "way", "id": 81361801, "nodes": [948042509, 948042506, 948042511, 948042504, 3470967493, 3470967593, 948042509], "tags": {"addr:street": "Place de la Gare", "building": "train_station", "name": "Port-Vendres", "operator": "SNCF", "public_transport": "station", "railway": "station", "source": "cadastre-dgi-fr source : Direction G\u00e9n\u00e9rale des Imp\u00f4ts - Cadastre ; mise \u00e0 jour : 2008", "train": "yes", "uic_ref": "8778426", "wheelchair": "yes", "wikidata": "Q2212891", "wikipedia": "fr:Gare de Port-Vendres-Ville"}}]}