{"version": 0.6, "generator": "Overpass API 0.7.62.5 1bd436f1", "osm3s": {"timestamp_osm_base": "2025-04-09T14:53:30Z", "copyright": "The data included in this document is from www.openstreetmap.org. The data is made available under ODbL."}, "elements": [{"type": "node", "id": 389538268, "lat": 46.9486016, "lon": 1.9854698, "tags": {"name": "Issoudun", "network": "TER Centre \u2212 Val de Loire", "network:wikidata": "Q912775", "operator": "SNCF", "operator:wikidata": "Q13646", "public_transport": "station", "railway": "station", "source": "cadastre-dgi-fr source : Direction G\u00e9n\u00e9rale des Imp\u00f4ts - Cadastre ; mise \u00e0 jour : 2008;SNCF - 06/2013", "train": "yes", "uic_ref": "8759706", "wikidata": "Q2379431", "wikipedia": "fr:Gare d'Issoudun"}}, {"type": "node", "id": 409801518, "lat": 47.2263301, "lon": 2.0590877, "tags": {"bench": "yes", "bin": "yes", "check_date:shelter": "2024-04-09", "highway": "bus_stop", "lit": "no", "name": "Vierzon-Gare", "public_transport": "platform", "shelter": "yes", "tactile_paving": "no"}}, {"type": "node", "id": 430951359, "lat": 46.861111, "lon": 1.7172646, "tags": {"bench": "no", "bin": "no", "bus": "yes", "highway": "bus_stop", "lit": "no", "name": "A\u00e9roport", "network": "Horizon", "network:wikidata": "Q3456686", "network:wikipedia": "fr:Transports en commun de Ch\u00e2teauroux", "operator": "Keolis Ch\u00e2teauroux", "public_transport": "platform", "shelter": "no", "tactile_paving": "yes"}}, {"type": "node", "id": 1156289672, "lat": 47.1951427, "lon": 2.1770772, "tags": {"highway": "bus_stop", "shelter": "no", "source": "cadastre-dgi-fr source : Direction G\u00e9n\u00e9rale des Imp\u00f4ts - Cadastre. Mise \u00e0 jour : 2011"}}, {"type": "node", "id": 1156289687, "lat": 47.1956439, "lon": 2.1768969, "tags": {"bench": "no", "highway": "bus_stop", "shelter": "yes", "source": "cadastre-dgi-fr source : Direction G\u00e9n\u00e9rale des Imp\u00f4ts - Cadastre. Mise \u00e0 jour : 2011"}}, {"type": "node", "id": 1156289739, "lat": 47.2017731, "lon": 2.1713825, "tags": {"highway": "bus_stop", "source": "cadastre-dgi-fr source : Direction G\u00e9n\u00e9rale des Imp\u00f4ts - Cadastre. Mise \u00e0 jour : 2011"}}, {"type": "node", "id": 1156289776, "lat": 47.2020537, "lon": 2.1713318, "tags": {"highway": "bus_stop", "shelter": "yes", "source": "cadastre-dgi-fr source : Direction G\u00e9n\u00e9rale des Imp\u00f4ts - Cadastre. Mise \u00e0 jour : 2011"}}, {"type": "node", "id": 1165328180, "lat": 47.14568, "lon": 2.2198696, "tags": {"bench": "yes", "highway": "bus_stop", "shelter": "yes", "source": "cadastre-dgi-fr source : Direction G\u00e9n\u00e9rale des Imp\u00f4ts - Cadastre. Mise \u00e0 jour : 2011, bing"}}, {"type": "node", "id": 1165328292, "lat": 47.165716, "lon": 2.2023134, "tags": {"highway": "bus_stop", "source": "cadastre-dgi-fr source : Direction G\u00e9n\u00e9rale des Imp\u00f4ts - Cadastre. Mise \u00e0 jour : 2011, bing"}}, {"type": "node", "id": 1166252381, "lat": 47.1967969, "lon": 2.1368357, "tags": {"bus": "yes", "highway": "bus_stop", "public_transport": "platform", "source": "cadastre-dgi-fr source : Direction G\u00e9n\u00e9rale des Imp\u00f4ts - Cadastre. Mise \u00e0 jour : 2011;bing"}}, {"type": "node", "id": 1168335629, "lat": 47.1618695, "lon": 2.1851276, "tags": {"highway": "bus_stop", "source": "cadastre-dgi-fr source : Direction G\u00e9n\u00e9rale des Imp\u00f4ts - Cadastre. Mise \u00e0 jour : 2011;bing"}}, {"type": "node", "id": 1168338266, "lat": 47.1617904, "lon": 2.1855448, "tags": {"highway": "bus_stop", "source": "cadastre-dgi-fr source : Direction G\u00e9n\u00e9rale des Imp\u00f4ts - Cadastre. Mise \u00e0 jour : 2011;bing"}}, {"type": "node", "id": 1174698837, "lat": 47.1750361, "lon": 2.1689428, "tags": {"bench": "yes", "bus": "yes", "highway": "bus_stop", "public_transport": "platform", "shelter": "yes", "source": "cadastre-dgi-fr source : Direction G\u00e9n\u00e9rale des Imp\u00f4ts - Cadastre. Mise \u00e0 jour : 2011;bing"}}, {"type": "node", "id": 1174702669, "lat": 47.1752469, "lon": 2.1689383, "tags": {"bus": "yes", "highway": "bus_stop", "public_transport": "platform", "source": "cadastre-dgi-fr source : Direction G\u00e9n\u00e9rale des Imp\u00f4ts - Cadastre. Mise \u00e0 jour : 2011;bing"}}, {"type": "node", "id": 1469387481, "lat": 47.1630753, "lon": 1.558849, "tags": {"bus": "yes", "highway": "bus_stop", "name": "Valen\u00e7ay Gare", "public_transport": "stop_position"}}, {"type": "node", "id": 1662193011, "lat": 46.9351434, "lon": 2.2750793}, {"type": "node", "id": 1662193013, "lat": 46.9352414, "lon": 2.2750395}, {"type": "node", "id": 1662193016, "lat": 46.9352246, "lon": 2.2749509}, {"type": "node", "id": 1662193018, "lat": 46.9351267, "lon": 2.2749908}, {"type": "node", "id": 1730451600, "lat": 47.2385175, "lon": 2.0305108, "tags": {"bench": "no", "highway": "bus_stop", "name": "La Giraudi\u00e8re", "public_transport": "platform", "shelter": "no"}}, {"type": "node", "id": 1730451608, "lat": 47.2317733, "lon": 2.0420936, "tags": {"bench": "no", "highway": "bus_stop", "name": "Le Verdin", "public_transport": "platform", "shelter": "no"}}, {"type": "node", "id": 1730451612, "lat": 47.2317958, "lon": 2.0415382, "tags": {"bench": "yes", "highway": "bus_stop", "name": "Le Verdin", "public_transport": "platform", "shelter": "yes"}}, {"type": "node", "id": 1730451632, "lat": 47.2336037, "lon": 2.0381259, "tags": {"bench": "no", "highway": "bus_stop", "name": "Feuilleraie", "public_transport": "platform", "shelter": "no"}}, {"type": "node", "id": 1730451667, "lat": 47.2352733, "lon": 2.0352909, "tags": {"bench": "no", "highway": "bus_stop", "name": "Saint-Pri\u00e9", "public_transport": "platform", "shelter": "no"}}, {"type": "node", "id": 1730608221, "lat": 47.2303575, "lon": 2.0479237, "tags": {"bench": "yes", "highway": "bus_stop", "name": "Le Grelet", "public_transport": "platform", "shelter": "yes"}}, {"type": "node", "id": 1730608232, "lat": 47.2304098, "lon": 2.0481048, "tags": {"bench": "no", "highway": "bus_stop", "name": "Le Grelet", "public_transport": "platform", "shelter": "no"}}, {"type": "node", "id": 1732297007, "lat": 47.2275421, "lon": 2.0522743, "tags": {"bench": "yes", "highway": "bus_stop", "name": "H\u00f4pital", "public_transport": "platform", "shelter": "yes"}}, {"type": "node", "id": 1732297008, "lat": 47.227605, "lon": 2.0523717, "tags": {"bench": "no", "highway": "bus_stop", "name": "H\u00f4pital", "public_transport": "platform", "shelter": "no"}}, {"type": "node", "id": 1732297039, "lat": 47.2308982, "lon": 2.0459221, "tags": {"bench": "no", "highway": "bus_stop", "name": "Le Tacot", "public_transport": "platform", "shelter": "no"}}, {"type": "node", "id": 1732297040, "lat": 47.2269474, "lon": 2.0548054, "tags": {"bench": "no", "highway": "bus_stop", "name": "L\u00e9o M\u00e9rigot", "public_transport": "platform", "shelter": "no"}}, {"type": "node", "id": 1732297049, "lat": 47.2270234, "lon": 2.0548212, "tags": {"bench": "no", "highway": "bus_stop", "name": "L\u00e9o M\u00e9rigot", "public_transport": "platform", "shelter": "no"}}, {"type": "node", "id": 1732297069, "lat": 47.2309226, "lon": 2.0453942, "tags": {"bench": "yes", "highway": "bus_stop", "name": "Le Tacot", "public_transport": "platform", "shelter": "yes"}}, {"type": "node", "id": 1732297071, "lat": 47.229101, "lon": 2.0508161, "tags": {"bench": "no", "highway": "bus_stop", "name": "Village", "public_transport": "platform", "shelter": "no"}}, {"type": "node", "id": 1732297077, "lat": 47.229215, "lon": 2.0505233, "tags": {"bench": "no", "highway": "bus_stop", "name": "Village", "public_transport": "platform", "shelter": "no"}}, {"type": "node", "id": 1732788731, "lat": 47.221411, "lon": 2.0624987, "tags": {"bench": "yes", "highway": "bus_stop", "name": "M\u00e9diath\u00e8que", "network": "Le Vib'", "public_transport": "platform", "shelter": "yes"}}, {"type": "node", "id": 1732788749, "lat": 47.2230829, "lon": 2.0622345, "tags": {"bench": "yes", "highway": "bus_stop", "name": "Debournou", "public_transport": "platform", "shelter": "yes"}}, {"type": "node", "id": 1732788769, "lat": 47.2231062, "lon": 2.0621316, "tags": {"bench": "no", "highway": "bus_stop", "name": "Debournou", "public_transport": "platform", "shelter": "no"}}, {"type": "node", "id": 1732788778, "lat": 47.2336343, "lon": 2.03825, "tags": {"bench": "no", "highway": "bus_stop", "name": "Feuilleraie", "public_transport": "platform", "shelter": "no"}}, {"type": "node", "id": 1732788788, "lat": 47.2260204, "lon": 2.0593968, "tags": {"bench": "yes", "bin": "yes", "highway": "bus_stop", "lit": "yes", "name": "Gare SNCF", "public_transport": "platform", "shelter": "yes", "tactile_paving": "no"}}, {"type": "node", "id": 1732788805, "lat": 47.2260912, "lon": 2.0596159, "tags": {"bench": "yes", "bin": "yes", "highway": "bus_stop", "lit": "no", "name": "Gare SNCF", "public_transport": "platform", "shelter": "yes", "tactile_paving": "no"}}, {"type": "node", "id": 1732788826, "lat": 47.2251303, "lon": 2.0612707, "tags": {"bench": "no", "bin": "no", "highway": "bus_stop", "lit": "no", "name": "S\u00e9mard", "public_transport": "platform", "shelter": "no", "tactile_paving": "no"}}, {"type": "node", "id": 1732788840, "lat": 47.2354066, "lon": 2.0352836, "tags": {"bench": "no", "highway": "bus_stop", "name": "Saint-Pri\u00e9", "public_transport": "platform", "shelter": "no"}}, {"type": "node", "id": 1732889398, "lat": 47.2213712, "lon": 2.0663231, "tags": {"bench": "yes", "highway": "bus_stop", "name": "Forum", "public_transport": "platform", "shelter": "yes"}}, {"type": "node", "id": 1732889408, "lat": 47.2226902, "lon": 2.0667419, "tags": {"bench": "no", "highway": "bus_stop", "name": "R\u00e9publique", "public_transport": "platform", "shelter": "no"}}, {"type": "node", "id": 1732889412, "lat": 47.2244477, "lon": 2.0797751, "tags": {"bench": "no", "highway": "bus_stop", "name": "Gagarine", "public_transport": "platform", "shelter": "no"}}, {"type": "node", "id": 1732889413, "lat": 47.2244359, "lon": 2.0796213, "tags": {"bench": "yes", "highway": "bus_stop", "name": "Gagarine", "public_transport": "platform", "shelter": "yes"}}, {"type": "node", "id": 1732889415, "lat": 47.2239629, "lon": 2.0773632, "tags": {"bench": "no", "highway": "bus_stop", "name": "Gay Lussac", "public_transport": "platform", "shelter": "no"}}, {"type": "node", "id": 1732889419, "lat": 47.2241049, "lon": 2.0773469, "tags": {"bench": "yes", "highway": "bus_stop", "name": "Gay Lussac", "public_transport": "platform", "shelter": "yes"}}, {"type": "node", "id": 1732889422, "lat": 47.223955, "lon": 2.0703521, "tags": {"bench": "no", "highway": "bus_stop", "name": "March\u00e9 au Bl\u00e9", "public_transport": "platform", "shelter": "no"}}, {"type": "node", "id": 1732889433, "lat": 47.2240668, "lon": 2.0702593, "tags": {"bench": "no", "highway": "bus_stop", "name": "March\u00e9 au Bl\u00e9", "public_transport": "platform", "shelter": "no"}}, {"type": "node", "id": 1732889436, "lat": 47.2245623, "lon": 2.0755881, "tags": {"bench": "no", "highway": "bus_stop", "name": "Piscine", "public_transport": "platform", "shelter": "no"}}, {"type": "node", "id": 1732889437, "lat": 47.2246614, "lon": 2.0757907, "tags": {"bench": "yes", "highway": "bus_stop", "name": "Piscine", "public_transport": "platform", "shelter": "yes"}}, {"type": "node", "id": 1732889439, "lat": 47.224346, "lon": 2.067688, "tags": {"bench": "no", "highway": "bus_stop", "name": "Roosevelt", "public_transport": "platform", "shelter": "no"}}, {"type": "node", "id": 1732889443, "lat": 47.2245176, "lon": 2.0724101, "tags": {"bench": "no", "highway": "bus_stop", "name": "Tunnel", "public_transport": "platform", "shelter": "no"}}, {"type": "node", "id": 1732889446, "lat": 47.2246276, "lon": 2.0723775, "tags": {"bench": "yes", "highway": "bus_stop", "name": "Tunnel", "public_transport": "platform", "shelter": "yes"}}, {"type": "node", "id": 1733023676, "lat": 47.2258871, "lon": 2.0828531, "tags": {"bench": "no", "highway": "bus_stop", "name": "Allende", "public_transport": "platform", "shelter": "no"}}, {"type": "node", "id": 1733023677, "lat": 47.2260175, "lon": 2.0828919, "tags": {"bench": "no", "highway": "bus_stop", "name": "Allende", "public_transport": "platform", "shelter": "no"}}, {"type": "node", "id": 1733023678, "lat": 47.2263883, "lon": 2.0855396, "tags": {"bench": "yes", "highway": "bus_stop", "name": "Croizat", "public_transport": "platform", "shelter": "no"}}, {"type": "node", "id": 1733023680, "lat": 47.2264745, "lon": 2.0855317, "tags": {"bench": "no", "highway": "bus_stop", "name": "Croizat", "public_transport": "platform", "shelter": "no"}}, {"type": "node", "id": 1733023682, "lat": 47.2268591, "lon": 2.08746, "tags": {"bench": "no", "highway": "bus_stop", "name": "D\u00e9sert", "public_transport": "platform", "shelter": "no"}}, {"type": "node", "id": 1733023683, "lat": 47.2268965, "lon": 2.0877222, "tags": {"bench": "no", "highway": "bus_stop", "name": "D\u00e9sert", "public_transport": "platform", "shelter": "no"}}, {"type": "node", "id": 1736275488, "lat": 47.2354235, "lon": 2.0860423, "tags": {"bench": "yes", "highway": "bus_stop", "name": "Aujonni\u00e8re", "public_transport": "platform", "shelter": "yes"}}, {"type": "node", "id": 1736275498, "lat": 47.2301387, "lon": 2.0888203, "tags": {"bench": "no", "highway": "bus_stop", "name": "Decour", "public_transport": "platform", "shelter": "no"}}, {"type": "node", "id": 1736275502, "lat": 47.2302411, "lon": 2.0892182, "tags": {"bench": "no", "highway": "bus_stop", "name": "Decour", "public_transport": "platform", "shelter": "no"}}, {"type": "node", "id": 1736275503, "lat": 47.2285005, "lon": 2.0906542, "tags": {"bench": "no", "highway": "bus_stop", "name": "Langevin", "public_transport": "platform", "shelter": "no"}}, {"type": "node", "id": 1736275504, "lat": 47.2285823, "lon": 2.0905506, "tags": {"bench": "yes", "highway": "bus_stop", "name": "Langevin", "public_transport": "platform", "shelter": "yes"}}, {"type": "node", "id": 1736275512, "lat": 47.2305281, "lon": 2.0847942, "tags": {"bench": "yes", "highway": "bus_stop", "name": "Mouton", "public_transport": "platform", "shelter": "yes"}}, {"type": "node", "id": 1736275516, "lat": 47.2306361, "lon": 2.0848434, "tags": {"bench": "no", "highway": "bus_stop", "name": "Mouton", "public_transport": "platform", "shelter": "no"}}, {"type": "node", "id": 1736275518, "lat": 47.230845, "lon": 2.0817202, "tags": {"bench": "no", "highway": "bus_stop", "name": "Port Arthur", "public_transport": "platform", "shelter": "no"}}, {"type": "node", "id": 1736275523, "lat": 47.2309579, "lon": 2.081654, "tags": {"bench": "no", "highway": "bus_stop", "name": "Port Arthur", "public_transport": "platform", "shelter": "no"}}, {"type": "node", "id": 1736275524, "lat": 47.2318449, "lon": 2.0816694, "tags": {"bench": "no", "highway": "bus_stop", "name": "Sellier", "public_transport": "platform", "shelter": "no"}}, {"type": "node", "id": 1736275527, "lat": 47.2395284, "lon": 2.0941818, "tags": {"bench": "yes", "highway": "bus_stop", "name": "Sologne", "public_transport": "platform", "shelter": "yes"}}, {"type": "node", "id": 1736275562, "lat": 47.2372519, "lon": 2.0883564, "tags": {"bench": "no", "highway": "bus_stop", "name": "19 Mars 62", "public_transport": "platform", "shelter": "no"}}, {"type": "node", "id": 1737223252, "lat": 47.2367472, "lon": 2.0745056, "tags": {"bench": "no", "highway": "bus_stop", "name": "Ainset", "public_transport": "platform", "shelter": "no"}}, {"type": "node", "id": 1737223257, "lat": 47.2368286, "lon": 2.0745352, "tags": {"bench": "no", "highway": "bus_stop", "name": "Ainset", "public_transport": "platform", "shelter": "no"}}, {"type": "node", "id": 1737223259, "lat": 47.2355799, "lon": 2.0769288, "tags": {"bench": "no", "highway": "bus_stop", "name": "Beethoven", "public_transport": "platform", "shelter": "no"}}, {"type": "node", "id": 1737223274, "lat": 47.2356147, "lon": 2.0770547, "tags": {"bench": "yes", "highway": "bus_stop", "name": "Beethoven", "public_transport": "platform", "shelter": "yes"}}, {"type": "node", "id": 1737223282, "lat": 47.2376758, "lon": 2.0694344, "tags": {"bench": "no", "highway": "bus_stop", "name": "Colombier", "public_transport": "platform", "shelter": "no"}}, {"type": "node", "id": 1737223289, "lat": 47.237709, "lon": 2.0697639, "tags": {"bench": "yes", "highway": "bus_stop", "name": "Colombier", "public_transport": "platform", "shelter": "yes"}}, {"type": "node", "id": 1737223303, "lat": 47.2338508, "lon": 2.0785911, "tags": {"bench": "no", "highway": "bus_stop", "name": "La Bidauderie", "public_transport": "platform", "shelter": "no"}}, {"type": "node", "id": 1737223307, "lat": 47.2340531, "lon": 2.0785952, "tags": {"bench": "yes", "highway": "bus_stop", "name": "La Bidauderie", "public_transport": "platform", "shelter": "yes"}}, {"type": "node", "id": 1737223311, "lat": 47.2388879, "lon": 2.0653315, "tags": {"bench": "no", "highway": "bus_stop", "name": "Les Richoux", "public_transport": "platform", "shelter": "no"}}, {"type": "node", "id": 1737223315, "lat": 47.2391203, "lon": 2.0647449, "tags": {"bench": "yes", "highway": "bus_stop", "name": "Les Richoux", "public_transport": "platform", "shelter": "yes"}}, {"type": "node", "id": 1737223336, "lat": 47.2399426, "lon": 2.0616558, "tags": {"bench": "no", "highway": "bus_stop", "name": "Stade", "public_transport": "platform", "shelter": "no"}}, {"type": "node", "id": 1737223342, "lat": 47.240065, "lon": 2.0616617, "tags": {"bench": "yes", "highway": "bus_stop", "name": "Stade", "public_transport": "platform", "shelter": "yes"}}, {"type": "node", "id": 1737223356, "lat": 47.2315745, "lon": 2.0804008, "tags": {"bench": "no", "highway": "bus_stop", "name": "Stalingrad", "public_transport": "platform", "shelter": "no"}}, {"type": "node", "id": 1737223359, "lat": 47.2318076, "lon": 2.0803691, "tags": {"bench": "no", "highway": "bus_stop", "name": "Stalingrad", "public_transport": "platform", "shelter": "no"}}, {"type": "node", "id": 1737660147, "lat": 47.2375722, "lon": 2.0607706, "tags": {"bench": "yes", "highway": "bus_stop", "name": "Barb\u00e8s", "public_transport": "platform", "shelter": "yes"}}, {"type": "node", "id": 1737660153, "lat": 47.237614, "lon": 2.0609481, "tags": {"bench": "yes", "highway": "bus_stop", "name": "Barb\u00e8s", "public_transport": "platform", "shelter": "yes"}}, {"type": "node", "id": 1737660154, "lat": 47.2351661, "lon": 2.0608734, "tags": {"bench": "yes", "highway": "bus_stop", "name": "Berlurettes", "public_transport": "platform", "shelter": "yes"}}, {"type": "node", "id": 1737660155, "lat": 47.2356839, "lon": 2.0610329, "tags": {"bench": "no", "highway": "bus_stop", "name": "Berlurettes", "public_transport": "platform", "shelter": "no"}}, {"type": "node", "id": 1737660156, "lat": 47.2141974, "lon": 2.0687314, "tags": {"bench": "yes", "highway": "bus_stop", "name": "H\u00e9ry", "public_transport": "platform", "shelter": "yes"}}, {"type": "node", "id": 1737660157, "lat": 47.2142684, "lon": 2.0685484, "tags": {"bench": "yes", "highway": "bus_stop", "name": "H\u00e9ry", "public_transport": "platform", "shelter": "yes"}}, {"type": "node", "id": 1737660158, "lat": 47.2291567, "lon": 2.0612947, "tags": {"bench": "yes", "highway": "bus_stop", "name": "Brisson", "public_transport": "platform", "shelter": "yes"}}, {"type": "node", "id": 1737660159, "lat": 47.2292515, "lon": 2.0611136, "tags": {"bench": "yes", "highway": "bus_stop", "name": "Brisson", "public_transport": "platform", "shelter": "yes"}}, {"type": "node", "id": 1737660160, "lat": 47.2314496, "lon": 2.0611977, "tags": {"bench": "no", "highway": "bus_stop", "name": "Labourde", "public_transport": "platform", "shelter": "no"}}, {"type": "node", "id": 1737660161, "lat": 47.2318636, "lon": 2.0610167, "tags": {"bench": "yes", "highway": "bus_stop", "name": "Labourde", "public_transport": "platform", "shelter": "yes"}}, {"type": "node", "id": 1737660162, "lat": 47.2139455, "lon": 2.071633, "tags": {"bench": "no", "highway": "bus_stop", "name": "Labras", "public_transport": "platform", "shelter": "no"}}, {"type": "node", "id": 1737660163, "lat": 47.2140866, "lon": 2.0715518, "tags": {"bench": "no", "highway": "bus_stop", "name": "Labras", "public_transport": "platform", "shelter": "no"}}, {"type": "node", "id": 1737660164, "lat": 47.2252577, "lon": 2.0619179, "tags": {"bench": "yes", "highway": "bus_stop", "name": "P\u00e9ri", "public_transport": "platform", "shelter": "yes"}}, {"type": "node", "id": 1737660165, "lat": 47.2253681, "lon": 2.0619959, "tags": {"bench": "yes", "highway": "bus_stop", "name": "P\u00e9ri", "public_transport": "platform", "shelter": "yes"}}, {"type": "node", "id": 1737660166, "lat": 47.2193067, "lon": 2.0667521, "tags": {"bench": "no", "highway": "bus_stop", "name": "Rue des Ponts", "public_transport": "platform", "shelter": "no"}}, {"type": "node", "id": 1737660167, "lat": 47.2187497, "lon": 2.0640837, "tags": {"bench": "no", "highway": "bus_stop", "name": "Vall\u00e8s", "public_transport": "platform", "shelter": "no"}}, {"type": "node", "id": 1737660189, "lat": 47.2135989, "lon": 2.0650482, "tags": {"bench": "no", "highway": "bus_stop", "name": "14 Juillet", "public_transport": "platform", "shelter": "no"}}, {"type": "node", "id": 1737660190, "lat": 47.213679, "lon": 2.0649329, "tags": {"bench": "no", "highway": "bus_stop", "name": "14 Juillet", "public_transport": "platform", "shelter": "no"}}, {"type": "node", "id": 1794350456, "lat": 47.2248077, "lon": 2.0632617, "tags": {"bench": "no", "highway": "bus_stop", "name": "Gourdon", "public_transport": "platform", "shelter": "no"}}, {"type": "node", "id": 1803835385, "lat": 47.2101107, "lon": 2.0578714, "tags": {"bench": "no", "highway": "bus_stop", "name": "Sous-Pr\u00e9fecture", "public_transport": "platform", "shelter": "no", "source": "cadastre-dgi-fr source : Direction G\u00e9n\u00e9rale des Imp\u00f4ts - Cadastre. Mise \u00e0 jour : 2012"}}, {"type": "node", "id": 1863078935, "lat": 46.8903131, "lon": 1.8537366, "tags": {"bus": "yes", "highway": "bus_stop", "name": "Neuvy-Pailloux", "public_transport": "stop_position"}}, {"type": "node", "id": 1865620143, "lat": 47.211411, "lon": 2.0582095, "tags": {"bench": "yes", "highway": "bus_stop", "name": "B. Albrecht", "public_transport": "platform", "shelter": "yes", "wheelchair": "no", "wheelchair:description": "Platform sans rampe. [En: On island platform between highway and cycle path - no dipped kerbs]"}}, {"type": "node", "id": 1865620153, "lat": 47.2116908, "lon": 2.0580768, "tags": {"bench": "no", "highway": "bus_stop", "name": "B. Albrecht", "public_transport": "platform", "shelter": "no"}}, {"type": "node", "id": 1865620166, "lat": 47.2041696, "lon": 2.0746399, "tags": {"bench": "yes", "highway": "bus_stop", "name": "Brossolette", "public_transport": "platform", "shelter": "yes"}}, {"type": "node", "id": 1865620169, "lat": 47.209795, "lon": 2.0612467, "tags": {"bench": "no", "highway": "bus_stop", "name": "Gendarmerie", "public_transport": "platform", "shelter": "no"}}, {"type": "node", "id": 1865620174, "lat": 47.2099696, "lon": 2.0613981, "tags": {"bench": "yes", "highway": "bus_stop", "name": "Gendarmerie", "public_transport": "platform", "shelter": "yes"}}, {"type": "node", "id": 1865620180, "lat": 47.1998535, "lon": 2.0798726, "tags": {"bench": "yes", "highway": "bus_stop", "name": "Les Cr\u00eales", "public_transport": "platform", "shelter": "yes"}}, {"type": "node", "id": 1865620195, "lat": 47.2150238, "lon": 2.0586756, "tags": {"bench": "yes", "highway": "bus_stop", "name": "Nation", "public_transport": "platform", "shelter": "yes"}}, {"type": "node", "id": 1865620210, "lat": 47.2151747, "lon": 2.0586778, "tags": {"bench": "no", "highway": "bus_stop", "name": "Nation", "public_transport": "platform", "shelter": "no"}}, {"type": "node", "id": 1865620211, "lat": 47.201818, "lon": 2.0818371, "tags": {"bench": "yes", "highway": "bus_stop", "name": "Paul \u00c9luard", "public_transport": "platform", "shelter": "yes"}}, {"type": "node", "id": 1865620213, "lat": 47.2046899, "lon": 2.0612045, "tags": {"bench": "no", "highway": "bus_stop", "name": "Petite Noue", "public_transport": "platform", "shelter": "no"}}, {"type": "node", "id": 1865620216, "lat": 47.204797, "lon": 2.061158, "tags": {"bench": "no", "highway": "bus_stop", "name": "Petite Noue", "public_transport": "platform", "shelter": "no"}}, {"type": "node", "id": 1865620222, "lat": 47.2054068, "lon": 2.0709762, "tags": {"bench": "no", "highway": "bus_stop", "name": "Petites Cr\u00e8les", "public_transport": "platform", "shelter": "no"}}, {"type": "node", "id": 1865620229, "lat": 47.206095, "lon": 2.0699685, "tags": {"bench": "yes", "highway": "bus_stop", "name": "Route de Brinay", "public_transport": "platform", "shelter": "yes"}}, {"type": "node", "id": 1865620252, "lat": 47.2138086, "lon": 2.0574918, "tags": {"bench": "no", "highway": "bus_stop", "name": "Place Marceau", "public_transport": "platform", "shelter": "no"}}, {"type": "node", "id": 1865620256, "lat": 47.2138006, "lon": 2.0570473, "tags": {"bench": "no", "highway": "bus_stop", "name": "Place Marceau", "public_transport": "platform", "shelter": "no"}}, {"type": "node", "id": 1865620258, "lat": 47.2159779, "lon": 2.0651555, "tags": {"bench": "yes", "highway": "bus_stop", "name": "Pont du Cher", "public_transport": "platform", "shelter": "yes"}}, {"type": "node", "id": 1865620259, "lat": 47.2159353, "lon": 2.0649623, "tags": {"bench": "no", "highway": "bus_stop", "name": "Pont du Cher", "public_transport": "platform", "shelter": "no"}}, {"type": "node", "id": 1865620263, "lat": 47.2038009, "lon": 2.082106, "tags": {"bench": "yes", "highway": "bus_stop", "name": "Pr\u00e9vert", "public_transport": "platform", "shelter": "yes"}}, {"type": "node", "id": 1865620269, "lat": 47.2069831, "lon": 2.0689436, "tags": {"bench": "no", "highway": "bus_stop", "name": "Tassigny", "public_transport": "platform", "shelter": "no"}}, {"type": "node", "id": 1865620277, "lat": 47.2077052, "lon": 2.0617799, "tags": {"bench": "yes", "highway": "bus_stop", "name": "Rue du Camp", "public_transport": "platform", "shelter": "yes"}}, {"type": "node", "id": 1865620301, "lat": 47.2078005, "lon": 2.0616756, "tags": {"bench": "no", "highway": "bus_stop", "name": "Rue du Camp", "public_transport": "platform", "shelter": "no"}}, {"type": "node", "id": 1865620302, "lat": 47.2154574, "lon": 2.0621969, "tags": {"bench": "no", "highway": "bus_stop", "name": "Salle Collier", "public_transport": "platform", "shelter": "no"}}, {"type": "node", "id": 1865620303, "lat": 47.2155638, "lon": 2.0622428, "tags": {"bench": "no", "highway": "bus_stop", "name": "Salle Collier", "public_transport": "platform", "shelter": "no"}}, {"type": "node", "id": 1865620305, "lat": 47.2104366, "lon": 2.058058, "tags": {"bench": "no", "highway": "bus_stop", "name": "Sous-Pr\u00e9fecture", "public_transport": "platform", "shelter": "no", "wheelchair": "no", "wheelchair:description": "Platform sans rampe. [En: On island platform between highway and cycle path - no dipped kerbs]"}}, {"type": "node", "id": 1865620309, "lat": 47.2095104, "lon": 2.0703404, "tags": {"bench": "no", "highway": "bus_stop", "name": "Val Fleury", "public_transport": "platform", "shelter": "no"}}, {"type": "node", "id": 1865620320, "lat": 47.2124816, "lon": 2.0720105, "tags": {"bench": "no", "highway": "bus_stop", "name": "Villeneuve", "public_transport": "platform", "shelter": "no"}}, {"type": "node", "id": 1870123369, "lat": 47.2015228, "lon": 2.0868504, "tags": {"bench": "yes", "highway": "bus_stop", "name": "Jacques Duclos", "public_transport": "platform", "shelter": "yes"}}, {"type": "node", "id": 1870123370, "lat": 47.2049576, "lon": 2.072173, "tags": {"bench": "yes", "highway": "bus_stop", "name": "Petites Cr\u00e8les", "public_transport": "platform", "shelter": "yes"}}, {"type": "node", "id": 1870123371, "lat": 47.2052386, "lon": 2.0778178, "tags": {"bench": "yes", "highway": "bus_stop", "name": "Politzer", "public_transport": "platform", "shelter": "yes"}}, {"type": "node", "id": 1870123372, "lat": 47.2004522, "lon": 2.0853099, "tags": {"bench": "yes", "highway": "bus_stop", "name": "Rendsburg", "public_transport": "platform", "shelter": "yes"}}, {"type": "node", "id": 1870123373, "lat": 47.2029432, "lon": 2.0844799, "tags": {"highway": "bus_stop", "name": "Rimbaud", "public_transport": "platform"}}, {"type": "node", "id": 1874590657, "lat": 47.2037261, "lon": 2.0658814, "tags": {"bench": "yes", "highway": "bus_stop", "name": "Bruy\u00e8res", "public_transport": "platform", "shelter": "yes"}}, {"type": "node", "id": 1874590676, "lat": 47.2051538, "lon": 2.109532, "tags": {"bench": "yes", "highway": "bus_stop", "name": "Denison", "shelter": "yes"}}, {"type": "node", "id": 1874590680, "lat": 47.2110959, "lon": 2.1009393, "tags": {"bench": "no", "highway": "bus_stop", "name": "Gare des Forges", "public_transport": "platform", "shelter": "no"}}, {"type": "node", "id": 1874590686, "lat": 47.2039881, "lon": 2.0679754, "tags": {"highway": "bus_stop", "name": "Grandes Terres", "public_transport": "platform"}}, {"type": "node", "id": 1874590691, "lat": 47.2202188, "lon": 2.0818381, "tags": {"bench": "no", "highway": "bus_stop", "name": "Grands Moulins", "public_transport": "platform", "shelter": "no"}}, {"type": "node", "id": 1874590699, "lat": 47.2203019, "lon": 2.0819412, "tags": {"bench": "no", "highway": "bus_stop", "name": "Grands Moulins", "public_transport": "platform", "shelter": "no"}}, {"type": "node", "id": 1874590706, "lat": 47.2151386, "lon": 2.1023112, "tags": {"bench": "no", "highway": "bus_stop", "name": "\u00c9tienne Dolet", "public_transport": "platform", "shelter": "no"}}, {"type": "node", "id": 1874590721, "lat": 47.216945, "lon": 2.1018238, "tags": {"bench": "yes", "highway": "bus_stop", "name": "Les Bourbiers", "public_transport": "platform", "shelter": "yes"}}, {"type": "node", "id": 1874590724, "lat": 47.2169707, "lon": 2.1014175, "tags": {"bench": "no", "highway": "bus_stop", "name": "Les Bourbiers", "public_transport": "platform", "shelter": "no"}}, {"type": "node", "id": 1874590728, "lat": 47.2216803, "lon": 2.0701848, "tags": {"bench": "yes", "highway": "bus_stop", "name": "Mairie", "public_transport": "platform", "shelter": "yes"}}, {"type": "node", "id": 1874590734, "lat": 47.2217766, "lon": 2.0701103, "tags": {"bench": "no", "highway": "bus_stop", "name": "Mairie", "public_transport": "platform", "shelter": "no"}}, {"type": "node", "id": 1874590737, "lat": 47.2041761, "lon": 2.0633884, "tags": {"bench": "no", "highway": "bus_stop", "name": "Mermoz", "public_transport": "platform", "shelter": "no"}}, {"type": "node", "id": 1874590742, "lat": 47.2042263, "lon": 2.063521, "tags": {"bench": "no", "highway": "bus_stop", "name": "Mermoz", "public_transport": "platform", "shelter": "no"}}, {"type": "node", "id": 1874590745, "lat": 47.2052507, "lon": 2.1122022, "tags": {"bench": "yes", "highway": "bus_stop", "name": "Nadella", "shelter": "yes"}}, {"type": "node", "id": 1874590758, "lat": 47.2088789, "lon": 2.103628, "tags": {"bench": "yes", "highway": "bus_stop", "name": "Pica", "public_transport": "platform", "shelter": "yes"}}, {"type": "node", "id": 1874590759, "lat": 47.2210675, "lon": 2.0764237, "tags": {"bench": "no", "highway": "bus_stop", "name": "Petits Moulins", "public_transport": "platform", "shelter": "no"}}, {"type": "node", "id": 1874590760, "lat": 47.2211757, "lon": 2.0760525, "tags": {"bench": "no", "highway": "bus_stop", "name": "Petits Moulins", "public_transport": "platform", "shelter": "no"}}, {"type": "node", "id": 1874590761, "lat": 47.2151001, "lon": 2.1024937, "tags": {"bench": "no", "highway": "bus_stop", "name": "\u00c9tienne Dolet", "public_transport": "platform", "shelter": "no"}}, {"type": "node", "id": 1874590762, "lat": 47.2074559, "lon": 2.1061456, "tags": {"bench": "yes", "highway": "bus_stop", "name": "Route de Fo\u00ebcy", "public_transport": "platform", "shelter": "yes"}}, {"type": "node", "id": 1874590763, "lat": 47.205184, "lon": 2.0683101, "tags": {"highway": "bus_stop", "name": "Saint-\u00c9xup\u00e9ry", "public_transport": "platform"}}, {"type": "node", "id": 1874590764, "lat": 47.2054643, "lon": 2.0685239, "tags": {"highway": "bus_stop", "name": "Saint-\u00c9xup\u00e9ry", "public_transport": "platform"}}, {"type": "node", "id": 1874590776, "lat": 47.2197227, "lon": 2.0874312, "tags": {"bench": "no", "highway": "bus_stop", "name": "Tabalou", "public_transport": "platform", "shelter": "no"}}, {"type": "node", "id": 1874590782, "lat": 47.2198562, "lon": 2.0873095, "tags": {"bench": "yes", "highway": "bus_stop", "name": "Tabalou", "public_transport": "platform", "shelter": "yes"}}, {"type": "node", "id": 1874590786, "lat": 47.2182563, "lon": 2.0942856, "tags": {"bench": "no", "highway": "bus_stop", "name": "Val d'Y\u00e8vre", "public_transport": "platform", "shelter": "no"}}, {"type": "node", "id": 1874590788, "lat": 47.2183787, "lon": 2.0943242, "tags": {"bench": "yes", "highway": "bus_stop", "name": "Val d'Y\u00e8vre", "public_transport": "platform", "shelter": "yes"}}, {"type": "node", "id": 1874590790, "lat": 47.2177754, "lon": 2.0981018, "tags": {"bench": "yes", "highway": "bus_stop", "name": "Village d'Aubry", "public_transport": "platform", "shelter": "no"}}, {"type": "node", "id": 1874590791, "lat": 47.2179116, "lon": 2.0977666, "tags": {"bench": "yes", "highway": "bus_stop", "name": "Village d'Aubry", "public_transport": "platform", "shelter": "yes"}}, {"type": "node", "id": 1874590866, "lat": 47.2177445, "lon": 2.0980978, "tags": {"highway": "bus_stop", "name": "180", "public_transport": "platform"}}, {"type": "node", "id": 1874590867, "lat": 47.217931, "lon": 2.0977995, "tags": {"highway": "bus_stop", "name": "180", "public_transport": "platform"}}, {"type": "node", "id": 1878847380, "lat": 47.2342904, "lon": 2.0845836, "tags": {"bench": "no", "highway": "bus_stop", "name": "March\u00e9", "public_transport": "platform", "shelter": "no"}}, {"type": "node", "id": 1998963440, "lat": 46.8500886, "lon": 1.7939094, "tags": {"name": "Montierchaume", "operator": "SNCF", "railway": "station", "railway:ref:DB": "XFMCM", "source": "cadastre-dgi-fr source : Direction G\u00e9n\u00e9rale des Imp\u00f4ts - Cadastre. Mise \u00e0 jour : 2012", "train": "yes", "uic_ref": "8759708", "usage": "freight", "wikidata": "Q1821267", "wikipedia": "fr:Gare de Montierchaume"}}, {"type": "node", "id": 2095595832, "lat": 47.2376141, "lon": 2.0890088, "tags": {"bench": "no", "highway": "bus_stop", "name": "19 Mars 62", "public_transport": "platform", "shelter": "no"}}, {"type": "node", "id": 2252542072, "lat": 46.9445397, "lon": 1.9846648, "tags": {"highway": "bus_stop"}}, {"type": "node", "id": 2290318171, "lat": 47.2318213, "lon": 2.0815201, "tags": {"bench": "yes", "highway": "bus_stop", "name": "Sellier", "public_transport": "platform", "shelter": "yes"}}, {"type": "node", "id": 2340978703, "lat": 46.9496936, "lon": 1.9946836, "tags": {"bench": "yes", "bus": "yes", "departures_board": "timetable", "highway": "bus_stop", "name": "Roosevelt", "public_transport": "platform", "shelter": "yes", "wheelchair": "no"}}, {"type": "node", "id": 2340978708, "lat": 46.9516942, "lon": 2.0038171, "tags": {"highway": "bus_stop"}}, {"type": "node", "id": 2341510428, "lat": 46.9411398, "lon": 1.9865787, "tags": {"bench": "yes", "bus": "yes", "departures_board": "timetable", "highway": "bus_stop", "name": "Auteroche", "public_transport": "platform", "shelter": "yes", "wheelchair": "no"}}, {"type": "node", "id": 2341510455, "lat": 46.9455511, "lon": 1.9847007, "tags": {"highway": "bus_stop"}}, {"type": "node", "id": 3491351061, "lat": 46.9681694, "lon": 2.0452999, "tags": {"bus": "yes", "highway": "bus_stop", "name": "Avail", "public_transport": "stop_position"}}, {"type": "node", "id": 3491351063, "lat": 46.9926401, "lon": 2.1176371, "tags": {"bus": "yes", "highway": "bus_stop", "name": "Charost", "public_transport": "stop_position"}}, {"type": "node", "id": 3491351066, "lat": 46.9937064, "lon": 2.1662802, "tags": {"bus": "yes", "highway": "bus_stop", "name": "Civray (Le Grand Entrevin)", "public_transport": "stop_position"}}, {"type": "node", "id": 3491355630, "lat": 46.948491, "lon": 1.9859342, "tags": {"alt_name": "Issoudun-Place-de-la-G.", "bus": "yes", "highway": "bus_stop", "name": "Issoudun Gare", "operator": "SNCF", "public_transport": "stop_position", "source": "SNCF - 06/2016", "uic_ref": "8730464"}}, {"type": "node", "id": 3491355634, "lat": 46.9922151, "lon": 2.252123, "tags": {"bus": "yes", "highway": "bus_stop", "name": "Saint-Florent-sur-Cher Gare", "public_transport": "stop_position"}}, {"type": "node", "id": 3491355635, "lat": 46.9925575, "lon": 2.2454905, "tags": {"bus": "yes", "highway": "bus_stop", "name": "Saint-Florent-sur-Cher Mairie", "public_transport": "stop_position"}}, {"type": "node", "id": 3698729792, "lat": 46.9985227, "lon": 2.2577047, "tags": {"advertising": "no", "bench": "yes", "bus": "yes", "covered": "no", "highway": "bus_stop", "name": "G\u00e9n\u00e9ral Leclerc", "public_transport": "platform", "route_ref": "20", "shelter": "no", "tactile_paving": "yes", "website": "https://www.agglobus.com/", "wheelchair": "yes"}}, {"type": "node", "id": 3698729797, "lat": 46.9957313, "lon": 2.2524367, "tags": {"advertising": "no", "bench": "yes", "bus": "yes", "covered": "no", "highway": "bus_stop", "name": "Supermarch\u00e9", "public_transport": "platform", "route_ref": "20", "shelter": "no", "tactile_paving": "yes", "website": "https://www.agglobus.com/", "wheelchair": "yes"}}, {"type": "node", "id": 3698729806, "lat": 46.9879958, "lon": 2.2416252, "tags": {"advertising": "no", "bench": "no", "bus": "yes", "covered": "no", "highway": "bus_stop", "name": "Salengro", "public_transport": "platform", "route_ref": "20", "shelter": "no", "tactile_paving": "no", "website": "https://www.agglobus.com/", "wheelchair": "yes"}}, {"type": "node", "id": 3698729808, "lat": 46.9827649, "lon": 2.2452866, "tags": {"advertising": "no", "bench": "yes", "bus": "yes", "covered": "no", "highway": "bus_stop", "name": "La Chaise", "public_transport": "platform", "route_ref": "20", "shelter": "no", "tactile_paving": "no", "website": "https://www.agglobus.com/", "wheelchair": "yes"}}, {"type": "node", "id": 3698729811, "lat": 46.9693454, "lon": 2.2507729, "tags": {"advertising": "no", "bench": "no", "bus": "yes", "covered": "no", "highway": "bus_stop", "name": "Entr\u00e9e du Bourg", "public_transport": "platform", "route_ref": "20", "shelter": "no", "tactile_paving": "no", "website": "https://www.agglobus.com/", "wheelchair": "yes"}}, {"type": "node", "id": 3848598034, "lat": 47.1653998, "lon": 2.2022857, "tags": {"highway": "bus_stop"}}, {"type": "node", "id": 4356705546, "lat": 47.2359339, "lon": 2.0868998, "tags": {"bench": "no", "highway": "bus_stop", "name": "Aujonni\u00e8re", "public_transport": "platform", "shelter": "no"}}, {"type": "node", "id": 4356705547, "lat": 47.2293699, "lon": 2.1040428, "tags": {"bench": "no", "highway": "bus_stop", "name": "Autoroute", "public_transport": "platform", "shelter": "no"}}, {"type": "node", "id": 4356705548, "lat": 47.2294319, "lon": 2.10402, "tags": {"bench": "no", "highway": "bus_stop", "name": "Autoroute", "public_transport": "platform", "shelter": "no"}}, {"type": "node", "id": 4356705549, "lat": 47.2149772, "lon": 2.0449135, "tags": {"bench": "no", "highway": "bus_stop", "name": "Baudoin", "public_transport": "platform", "shelter": "no"}}, {"type": "node", "id": 4356705550, "lat": 47.2150427, "lon": 2.0449081, "tags": {"bench": "no", "highway": "bus_stop", "name": "Baudoin", "public_transport": "platform", "shelter": "no"}}, {"type": "node", "id": 4356705551, "lat": 47.2037599, "lon": 2.066138, "tags": {"bench": "no", "highway": "bus_stop", "name": "Bruy\u00e8res", "public_transport": "platform", "shelter": "no"}}, {"type": "node", "id": 4356705552, "lat": 47.2102386, "lon": 2.0782714, "tags": {"bench": "no", "highway": "bus_stop", "name": "Champ de Bellon", "public_transport": "platform", "shelter": "no"}}, {"type": "node", "id": 4356705553, "lat": 47.2206698, "lon": 2.1063944, "tags": {"bench": "no", "highway": "bus_stop", "name": "Cimeti\u00e8re des Forges", "public_transport": "platform", "shelter": "no"}}, {"type": "node", "id": 4356705554, "lat": 47.2209467, "lon": 2.1066331, "tags": {"bench": "no", "highway": "bus_stop", "name": "Cimeti\u00e8re des Forges", "public_transport": "platform", "shelter": "no"}}, {"type": "node", "id": 4356705555, "lat": 47.2219086, "lon": 2.107639, "tags": {"bench": "yes", "highway": "bus_stop", "name": "Clouseaux", "public_transport": "platform", "shelter": "no"}}, {"type": "node", "id": 4356705556, "lat": 47.2219696, "lon": 2.1075572, "tags": {"bench": "no", "highway": "bus_stop", "name": "Clouseaux", "public_transport": "platform", "shelter": "no"}}, {"type": "node", "id": 4356705557, "lat": 47.2286375, "lon": 2.1096269, "tags": {"bench": "no", "highway": "bus_stop", "name": "Croix d'en Bas", "public_transport": "platform", "shelter": "no"}}, {"type": "node", "id": 4356705558, "lat": 47.2292087, "lon": 2.1089284, "tags": {"bench": "yes", "highway": "bus_stop", "name": "Croix d'en Bas", "public_transport": "platform", "shelter": "yes"}}, {"type": "node", "id": 4356705559, "lat": 47.2215259, "lon": 2.0998351, "tags": {"bench": "no", "highway": "bus_stop", "name": "Desroches", "public_transport": "platform", "shelter": "no"}}, {"type": "node", "id": 4356705560, "lat": 47.2215942, "lon": 2.0997452, "tags": {"bench": "no", "highway": "bus_stop", "name": "Desroches", "public_transport": "platform", "shelter": "no"}}, {"type": "node", "id": 4356705561, "lat": 47.2301072, "lon": 2.0384124, "tags": {"bench": "no", "highway": "bus_stop", "name": "Fernand L\u00e9ger", "public_transport": "platform", "shelter": "no"}}, {"type": "node", "id": 4356705562, "lat": 47.2080289, "lon": 2.0316043, "tags": {"bench": "no", "highway": "bus_stop", "name": "Fondreaux", "public_transport": "platform", "shelter": "no"}}, {"type": "node", "id": 4356705563, "lat": 47.2080681, "lon": 2.03167, "tags": {"bench": "no", "highway": "bus_stop", "name": "Fondreaux", "public_transport": "platform", "shelter": "no"}}, {"type": "node", "id": 4356705564, "lat": 47.2110354, "lon": 2.1010723, "tags": {"bench": "no", "highway": "bus_stop", "name": "Gare des Forges", "public_transport": "platform", "shelter": "no"}}, {"type": "node", "id": 4356705565, "lat": 47.2247225, "lon": 2.0633393, "tags": {"bench": "no", "highway": "bus_stop", "name": "Gourdon", "public_transport": "platform", "shelter": "no"}}, {"type": "node", "id": 4356705566, "lat": 47.2037186, "lon": 2.0680292, "tags": {"highway": "bus_stop", "name": "Grandes Terres", "public_transport": "platform"}}, {"type": "node", "id": 4356705567, "lat": 47.2287662, "lon": 2.0644776, "tags": {"bench": "no", "bus": "yes", "highway": "bus_stop", "name": "Hurvoy", "public_transport": "platform", "shelter": "no"}}, {"type": "node", "id": 4356705568, "lat": 47.2282999, "lon": 2.0979649, "tags": {"bench": "no", "highway": "bus_stop", "name": "La Croix", "public_transport": "platform", "shelter": "no"}}, {"type": "node", "id": 4356705569, "lat": 47.2283582, "lon": 2.0978804, "tags": {"bench": "no", "highway": "bus_stop", "name": "La Croix", "public_transport": "platform", "shelter": "no"}}, {"type": "node", "id": 4356705570, "lat": 47.2253664, "lon": 2.1099162, "tags": {"bench": "no", "highway": "bus_stop", "name": "La Gaillardi\u00e8re", "public_transport": "platform", "shelter": "no"}}, {"type": "node", "id": 4356705571, "lat": 47.2253199, "lon": 2.1097954, "tags": {"bench": "no", "highway": "bus_stop", "name": "La Gaillardi\u00e8re", "public_transport": "platform", "shelter": "no"}}, {"type": "node", "id": 4356705572, "lat": 47.2368167, "lon": 2.0327234, "tags": {"bench": "no", "highway": "bus_stop", "name": "La Lande", "public_transport": "platform", "shelter": "no"}}, {"type": "node", "id": 4356705573, "lat": 47.2369842, "lon": 2.0326349, "tags": {"bench": "no", "highway": "bus_stop", "name": "La Lande", "public_transport": "platform", "shelter": "no"}}, {"type": "node", "id": 4356705574, "lat": 47.21548, "lon": 2.0317223, "tags": {"bench": "no", "highway": "bus_stop", "name": "La Loeuf", "public_transport": "platform", "shelter": "no"}}, {"type": "node", "id": 4356705575, "lat": 47.2155547, "lon": 2.0316875, "tags": {"bench": "no", "highway": "bus_stop", "name": "La Loeuf", "public_transport": "platform", "shelter": "no"}}, {"type": "node", "id": 4356705576, "lat": 47.2127285, "lon": 2.0760519, "tags": {"bench": "no", "highway": "bus_stop", "name": "La Source", "public_transport": "platform", "shelter": "no"}}, {"type": "node", "id": 4356705577, "lat": 47.2141937, "lon": 2.0303759, "tags": {"bench": "no", "highway": "bus_stop", "name": "Le Goujon", "public_transport": "platform", "shelter": "no"}}, {"type": "node", "id": 4356705578, "lat": 47.2142065, "lon": 2.0302874, "tags": {"bench": "no", "highway": "bus_stop", "name": "Le Goujon", "public_transport": "platform", "shelter": "no"}}, {"type": "node", "id": 4356705579, "lat": 47.2166624, "lon": 2.0379585, "tags": {"bench": "no", "highway": "bus_stop", "name": "Les Bouchis", "public_transport": "platform", "shelter": "no"}}, {"type": "node", "id": 4356705580, "lat": 47.2167243, "lon": 2.0380014, "tags": {"bench": "no", "highway": "bus_stop", "name": "Les Bouchis", "public_transport": "platform", "shelter": "no"}}, {"type": "node", "id": 4356705581, "lat": 47.2123864, "lon": 2.029598, "tags": {"bench": "no", "highway": "bus_stop", "name": "Les Flaquins", "public_transport": "platform", "shelter": "no"}}, {"type": "node", "id": 4356705582, "lat": 47.2124155, "lon": 2.0296758, "tags": {"bench": "no", "highway": "bus_stop", "name": "Les Flaquins", "public_transport": "platform", "shelter": "no"}}, {"type": "node", "id": 4356705583, "lat": 47.2090921, "lon": 2.0493525, "tags": {"bench": "no", "highway": "bus_stop", "name": "Les Noues", "public_transport": "platform", "shelter": "no"}}, {"type": "node", "id": 4356705584, "lat": 47.2139205, "lon": 2.0509484, "tags": {"bench": "no", "highway": "bus_stop", "name": "Les Pillots", "public_transport": "platform", "shelter": "no"}}, {"type": "node", "id": 4356705585, "lat": 47.2140043, "lon": 2.050927, "tags": {"bench": "no", "highway": "bus_stop", "name": "Les Pillots", "public_transport": "platform", "shelter": "no"}}, {"type": "node", "id": 4356705586, "lat": 47.227901, "lon": 2.0617525, "tags": {"bench": "yes", "highway": "bus_stop", "name": "Libert\u00e9", "public_transport": "platform", "shelter": "yes"}}, {"type": "node", "id": 4356705587, "lat": 47.234455, "lon": 2.0850021, "tags": {"bench": "no", "highway": "bus_stop", "name": "March\u00e9", "public_transport": "platform", "shelter": "no"}}, {"type": "node", "id": 4356705588, "lat": 47.2086029, "lon": 2.0533892, "tags": {"bench": "no", "highway": "bus_stop", "name": "Massay", "public_transport": "platform", "shelter": "no"}}, {"type": "node", "id": 4356708389, "lat": 47.2087386, "lon": 2.0533436, "tags": {"bench": "no", "highway": "bus_stop", "name": "Massay", "public_transport": "platform", "shelter": "no"}}, {"type": "node", "id": 4356708390, "lat": 47.2214841, "lon": 2.0625724, "tags": {"bench": "yes", "highway": "bus_stop", "name": "M\u00e9diath\u00e8que", "network": "Le Vib'", "public_transport": "platform", "ref": "M\u00e9diath\u00e8que", "shelter": "yes"}}, {"type": "node", "id": 4356708392, "lat": 47.2091085, "lon": 2.1030196, "tags": {"bench": "yes", "highway": "bus_stop", "name": "Pica", "public_transport": "platform", "shelter": "yes"}}, {"type": "node", "id": 4356708393, "lat": 47.2281514, "lon": 2.0943894, "tags": {"bench": "no", "highway": "bus_stop", "name": "Pyat", "public_transport": "platform", "shelter": "no"}}, {"type": "node", "id": 4356708394, "lat": 47.2282265, "lon": 2.0942801, "tags": {"bench": "no", "highway": "bus_stop", "name": "Pyat", "public_transport": "platform", "shelter": "no"}}, {"type": "node", "id": 4356708396, "lat": 47.2242115, "lon": 2.0634908, "tags": {"bench": "no", "highway": "bus_stop", "name": "P\u00e9raudin", "public_transport": "platform", "shelter": "no"}}, {"type": "node", "id": 4356708397, "lat": 47.2242953, "lon": 2.0674404, "tags": {"bench": "no", "highway": "bus_stop", "name": "Roosevelt", "public_transport": "platform", "shelter": "no"}}, {"type": "node", "id": 4356708398, "lat": 47.2073393, "lon": 2.1060237, "tags": {"bench": "no", "highway": "bus_stop", "name": "Route de Fo\u00ebcy", "public_transport": "platform", "shelter": "no"}}, {"type": "node", "id": 4356708400, "lat": 47.2393703, "lon": 2.0941311, "tags": {"bench": "no", "highway": "bus_stop", "name": "Sologne", "public_transport": "platform", "shelter": "no"}}, {"type": "node", "id": 4356708401, "lat": 47.2252466, "lon": 2.0612956, "tags": {"bench": "no", "bin": "no", "check_date:shelter": "2023-12-22", "highway": "bus_stop", "name": "S\u00e9mard", "public_transport": "platform", "shelter": "no", "tactile_paving": "no"}}, {"type": "node", "id": 4356708402, "lat": 47.2206707, "lon": 2.1018588, "tags": {"bench": "no", "highway": "bus_stop", "name": "Tilleuls", "public_transport": "platform", "shelter": "no"}}, {"type": "node", "id": 4356708403, "lat": 47.2207199, "lon": 2.1019178, "tags": {"bench": "no", "highway": "bus_stop", "name": "Tilleuls", "public_transport": "platform", "shelter": "no"}}, {"type": "node", "id": 4356708404, "lat": 47.2280762, "lon": 2.0670222, "tags": {"bench": "no", "highway": "bus_stop", "name": "Vaillant", "public_transport": "platform", "shelter": "no"}}, {"type": "node", "id": 4356708405, "lat": 47.2095373, "lon": 2.0704779, "tags": {"bench": "no", "highway": "bus_stop", "name": "Val Fleury", "public_transport": "platform", "shelter": "no"}}, {"type": "node", "id": 4356708406, "lat": 47.2127866, "lon": 2.0722885, "tags": {"bench": "no", "highway": "bus_stop", "name": "Villeneuve", "public_transport": "platform", "shelter": "no"}}, {"type": "node", "id": 4381381217, "lat": 46.9695237, "lon": 2.2508627, "tags": {"advertising": "no", "bench": "no", "bus": "yes", "covered": "no", "highway": "bus_stop", "name": "Entr\u00e9e du Bourg", "public_transport": "platform", "route_ref": "20", "shelter": "no", "tactile_paving": "no", "website": "https://www.agglobus.com/", "wheelchair": "yes"}}, {"type": "node", "id": 4381381218, "lat": 46.9982939, "lon": 2.2575735, "tags": {"advertising": "no", "bench": "yes", "bus": "yes", "covered": "no", "highway": "bus_stop", "name": "G\u00e9n\u00e9ral Leclerc", "public_transport": "platform", "route_ref": "20", "shelter": "yes", "tactile_paving": "yes", "website": "https://www.agglobus.com/", "wheelchair": "yes"}}, {"type": "node", "id": 4381381222, "lat": 46.9837488, "lon": 2.2448277, "tags": {"advertising": "no", "bench": "yes", "bus": "yes", "covered": "no", "highway": "bus_stop", "name": "La Chaise", "public_transport": "platform", "route_ref": "20", "shelter": "yes", "tactile_paving": "no", "website": "https://www.agglobus.com/", "wheelchair": "yes"}}, {"type": "node", "id": 4381381229, "lat": 46.9667461, "lon": 2.2513334, "tags": {"advertising": "no", "bench": "yes", "bus": "yes", "covered": "no", "highway": "bus_stop", "name": "Massoeuvre", "public_transport": "platform", "route_ref": "20", "shelter": "yes", "tactile_paving": "yes", "website": "https://www.agglobus.com/", "wheelchair": "yes"}}, {"type": "node", "id": 4381381232, "lat": 47.0154049, "lon": 2.2835429, "tags": {"advertising": "no", "bench": "no", "bus": "yes", "covered": "no", "highway": "bus_stop", "name": "Route du Subdray", "public_transport": "platform", "route_ref": "20", "shelter": "no", "tactile_paving": "no", "website": "https://www.agglobus.com/", "wheelchair": "limited", "wheelchair:description": "Trottoir bas (voire inexistant), mais tous les bus (sauf cas tr\u00e8s exceptionnels) sont \u00e9quip\u00e9s au centre d'une rampe \u00e9lectrique."}}, {"type": "node", "id": 4381381233, "lat": 47.0154776, "lon": 2.2839316, "tags": {"advertising": "no", "bench": "yes", "bus": "yes", "covered": "no", "highway": "bus_stop", "name": "Route du Subdray", "public_transport": "platform", "route_ref": "20", "shelter": "yes", "tactile_paving": "no", "website": "https://www.agglobus.com/", "wheelchair": "limited", "wheelchair:description": "Trottoir bas (voire inexistant), mais tous les bus (sauf cas tr\u00e8s exceptionnels) sont \u00e9quip\u00e9s au centre d'une rampe \u00e9lectrique."}}, {"type": "node", "id": 4381381234, "lat": 46.9926405, "lon": 2.2452973, "tags": {"advertising": "no", "bench": "yes", "bus": "yes", "covered": "no", "highway": "bus_stop", "name": "Place de la R\u00e9publique", "public_transport": "platform", "route_ref": "20", "shelter": "yes", "tactile_paving": "no", "website": "https://www.agglobus.com/", "wheelchair": "yes"}}, {"type": "node", "id": 4381381235, "lat": 46.9929612, "lon": 2.2465644, "tags": {"advertising": "no", "bench": "yes", "bus": "yes", "covered": "no", "highway": "bus_stop", "name": "Place de la R\u00e9publique", "public_transport": "platform", "route_ref": "20", "shelter": "yes", "tactile_paving": "yes", "website": "https://www.agglobus.com/", "wheelchair": "yes"}}, {"type": "node", "id": 4381381238, "lat": 46.9887988, "lon": 2.2416117, "tags": {"advertising": "no", "bench": "yes", "bus": "yes", "covered": "no", "highway": "bus_stop", "name": "Salengro", "public_transport": "platform", "route_ref": "20", "shelter": "yes", "tactile_paving": "no", "website": "https://www.agglobus.com/", "wheelchair": "yes"}}, {"type": "node", "id": 4381381239, "lat": 46.9957931, "lon": 2.2528904, "tags": {"advertising": "no", "bench": "yes", "bus": "yes", "covered": "no", "highway": "bus_stop", "name": "Supermarch\u00e9", "public_transport": "platform", "route_ref": "20", "shelter": "yes", "tactile_paving": "yes", "website": "https://www.agglobus.com/", "wheelchair": "yes"}}, {"type": "node", "id": 4381381241, "lat": 46.999707, "lon": 2.2601874, "tags": {"advertising": "no", "bench": "no", "bus": "yes", "covered": "no", "highway": "bus_stop", "name": "Verdun", "public_transport": "platform", "route_ref": "20", "shelter": "no", "tactile_paving": "yes", "website": "https://www.agglobus.com/", "wheelchair": "yes"}}, {"type": "node", "id": 4381381242, "lat": 46.9998118, "lon": 2.2601045, "tags": {"advertising": "no", "bench": "no", "bus": "yes", "covered": "no", "highway": "bus_stop", "name": "Verdun", "public_transport": "platform", "route_ref": "20", "shelter": "no", "tactile_paving": "yes", "website": "https://www.agglobus.com/", "wheelchair": "yes"}}, {"type": "node", "id": 4381381246, "lat": 47.0036243, "lon": 2.2662545, "tags": {"advertising": "no", "bench": "yes", "bus": "yes", "covered": "no", "highway": "bus_stop", "name": "Vigonni\u00e8re", "public_transport": "platform", "route_ref": "20", "shelter": "yes", "tactile_paving": "yes", "website": "https://www.agglobus.com/", "wheelchair": "yes"}}, {"type": "node", "id": 4381381248, "lat": 47.0043124, "lon": 2.2670554, "tags": {"advertising": "no", "bench": "yes", "bus": "yes", "covered": "no", "highway": "bus_stop", "name": "Vigonni\u00e8re", "public_transport": "platform", "route_ref": "20", "shelter": "yes", "tactile_paving": "yes", "website": "https://www.agglobus.com/", "wheelchair": "yes"}}, {"type": "node", "id": 4381381251, "lat": 46.9787298, "lon": 2.2486514, "tags": {"advertising": "no", "bench": "no", "bus": "yes", "covered": "no", "highway": "bus_stop", "name": "Voltout", "public_transport": "platform", "route_ref": "20", "shelter": "no", "tactile_paving": "no", "website": "https://www.agglobus.com/", "wheelchair": "yes"}}, {"type": "node", "id": 4381381252, "lat": 46.9788593, "lon": 2.2487115, "tags": {"advertising": "no", "bench": "no", "bus": "yes", "covered": "no", "highway": "bus_stop", "name": "Voltout", "public_transport": "platform", "route_ref": "20", "shelter": "no", "tactile_paving": "no", "website": "https://www.agglobus.com/", "wheelchair": "yes"}}, {"type": "node", "id": 4381381260, "lat": 46.9942994, "lon": 2.2496047, "tags": {"advertising": "no", "bench": "no", "bus": "yes", "covered": "no", "highway": "bus_stop", "name": "\u00c9coles Dezelot", "public_transport": "platform", "route_ref": "20", "shelter": "no", "tactile_paving": "yes", "website": "https://www.agglobus.com/", "wheelchair": "yes"}}, {"type": "node", "id": 4381381261, "lat": 46.9944938, "lon": 2.2497659, "tags": {"advertising": "no", "bench": "no", "bus": "yes", "covered": "no", "highway": "bus_stop", "name": "\u00c9coles Dezelot", "public_transport": "platform", "route_ref": "20", "shelter": "no", "tactile_paving": "yes", "website": "https://www.agglobus.com/", "wheelchair": "yes"}}, {"type": "node", "id": 4472264479, "lat": 47.0480836, "lon": 2.0238831, "tags": {"highway": "bus_stop", "name": "Diou (Indre)", "operator": "SNCF", "source": "SNCF - 06/2016", "uic_ref": "8759704"}}, {"type": "node", "id": 4472264480, "lat": 46.9577456, "lon": 1.9968503, "tags": {"bench": "yes", "bus": "yes", "departures_board": "timetable", "highway": "bus_stop", "name": "H\u00f4pital", "operator": "SNCF", "public_transport": "platform", "shelter": "yes", "source": "SNCF - 06/2016", "uic_ref": "8764376", "wheelchair": "yes"}}, {"type": "node", "id": 4472264484, "lat": 46.8644637, "lon": 1.7927508, "tags": {"bench": "no", "bin": "no", "bus": "yes", "highway": "bus_stop", "lit": "no", "name": "Crevant", "network": "Horizon", "network:wikidata": "Q3456686", "operator": "Keolis Ch\u00e2teauroux", "public_transport": "platform", "shelter": "yes", "source": "SNCF - 06/2016", "tactile_paving": "no", "uic_ref": "8764378"}}, {"type": "node", "id": 4472264485, "lat": 46.844157, "lon": 1.7453557, "tags": {"bench": "no", "bin": "no", "bus": "yes", "highway": "bus_stop", "lit": "no", "name": "Rosiers", "network": "Horizon", "network:wikidata": "Q3456686", "operator": "Keolis Ch\u00e2teauroux", "public_transport": "platform", "shelter": "no", "source": "SNCF - 06/2016", "tactile_paving": "no", "uic_ref": "8764379"}}, {"type": "node", "id": 4472264486, "lat": 46.886627, "lon": 1.8585778, "tags": {"highway": "bus_stop", "name": "Neuvy-Pailloux-4-Routes", "operator": "SNCF", "source": "SNCF - 06/2016", "uic_ref": "8731086", "wheelchair": "yes"}}, {"type": "node", "id": 5441893005, "lat": 46.8490704, "lon": 1.710251, "tags": {"bench": "no", "bin": "yes", "bus": "yes", "highway": "bus_stop", "lit": "yes", "name": "Cl\u00e9ment Ader", "network": "Horizon", "network:wikidata": "Q3456686", "network:wikipedia": "fr:Transports en commun de Ch\u00e2teauroux", "operator": "Keolis Ch\u00e2teauroux", "public_transport": "platform", "shelter": "no", "tactile_paving": "yes"}}, {"type": "node", "id": 5441893006, "lat": 46.8495033, "lon": 1.7106063, "tags": {"bench": "no", "bin": "yes", "bus": "yes", "highway": "bus_stop", "lit": "no", "name": "Cl\u00e9ment Ader", "network": "Horizon", "network:wikidata": "Q3456686", "network:wikipedia": "fr:Transports en commun de Ch\u00e2teauroux", "operator": "Keolis Ch\u00e2teauroux", "public_transport": "platform", "shelter": "no", "tactile_paving": "yes"}}, {"type": "node", "id": 5441893007, "lat": 46.8526138, "lon": 1.7119793, "tags": {"bench": "no", "bin": "no", "bus": "yes", "highway": "bus_stop", "lit": "no", "name": "Grand\u00e9ols", "network": "Horizon", "network:wikidata": "Q3456686", "network:wikipedia": "fr:Transports en commun de Ch\u00e2teauroux", "operator": "Keolis Ch\u00e2teauroux", "public_transport": "platform", "shelter": "no", "tactile_paving": "yes"}}, {"type": "node", "id": 5441893008, "lat": 46.8525242, "lon": 1.7118015, "tags": {"bench": "no", "bin": "no", "bus": "yes", "highway": "bus_stop", "lit": "no", "name": "Grand\u00e9ols", "network": "Horizon", "network:wikidata": "Q3456686", "network:wikipedia": "fr:Transports en commun de Ch\u00e2teauroux", "operator": "Keolis Ch\u00e2teauroux", "public_transport": "platform", "shelter": "no", "tactile_paving": "yes"}}, {"type": "node", "id": 5444659939, "lat": 46.7988803, "lon": 1.7390107, "tags": {"bench": "no", "bin": "yes", "bus": "yes", "highway": "bus_stop", "lit": "no", "name": "Sablons", "network": "Horizon", "network:wikidata": "Q3456686", "network:wikipedia": "fr:Transports en commun de Ch\u00e2teauroux", "operator": "Keolis Ch\u00e2teauroux", "public_transport": "platform", "shelter": "no", "tactile_paving": "yes"}}, {"type": "node", "id": 5444659940, "lat": 46.8027609, "lon": 1.7369642, "tags": {"bench": "no", "bin": "no", "bus": "yes", "highway": "bus_stop", "lit": "no", "name": "Pier Auge", "network": "Horizon", "network:wikidata": "Q3456686", "network:wikipedia": "fr:Transports en commun de Ch\u00e2teauroux", "operator": "Keolis Ch\u00e2teauroux", "public_transport": "platform", "shelter": "no", "tactile_paving": "yes"}}, {"type": "node", "id": 5444659941, "lat": 46.8022869, "lon": 1.7374256, "tags": {"bench": "no", "bin": "no", "bus": "yes", "highway": "bus_stop", "lit": "no", "name": "Pier Auge", "network": "Horizon", "network:wikidata": "Q3456686", "network:wikipedia": "fr:Transports en commun de Ch\u00e2teauroux", "operator": "Keolis Ch\u00e2teauroux", "public_transport": "platform", "shelter": "no", "tactile_paving": "yes"}}, {"type": "node", "id": 5444659942, "lat": 46.8041129, "lon": 1.7348715, "tags": {"bench": "no", "bin": "no", "bus": "yes", "highway": "bus_stop", "lit": "no", "name": "Cerabati", "network": "Horizon", "network:wikidata": "Q3456686", "network:wikipedia": "fr:Transports en commun de Ch\u00e2teauroux", "operator": "Keolis Ch\u00e2teauroux", "public_transport": "platform", "shelter": "no", "tactile_paving": "yes"}}, {"type": "node", "id": 5444659943, "lat": 46.804187, "lon": 1.7349558, "tags": {"bench": "no", "bin": "no", "bus": "yes", "highway": "bus_stop", "lit": "no", "name": "Cerabati", "network": "Horizon", "network:wikidata": "Q3456686", "network:wikipedia": "fr:Transports en commun de Ch\u00e2teauroux", "operator": "Keolis Ch\u00e2teauroux", "public_transport": "platform", "shelter": "no", "tactile_paving": "yes"}}, {"type": "node", "id": 5444659944, "lat": 46.8058988, "lon": 1.7325389, "tags": {"bench": "yes", "bin": "yes", "bus": "yes", "highway": "bus_stop", "lit": "no", "name": "Andr\u00e9", "network": "Horizon", "network:wikidata": "Q3456686", "network:wikipedia": "fr:Transports en commun de Ch\u00e2teauroux", "operator": "Keolis Ch\u00e2teauroux", "public_transport": "platform", "shelter": "yes", "tactile_paving": "yes"}}, {"type": "node", "id": 5444659945, "lat": 46.8057487, "lon": 1.7325713, "tags": {"bench": "no", "bin": "yes", "bus": "yes", "highway": "bus_stop", "lit": "no", "name": "Andr\u00e9", "network": "Horizon", "network:wikidata": "Q3456686", "network:wikipedia": "fr:Transports en commun de Ch\u00e2teauroux", "operator": "Keolis Ch\u00e2teauroux", "public_transport": "platform", "shelter": "no", "tactile_paving": "yes"}}, {"type": "node", "id": 5449046140, "lat": 46.8517498, "lon": 1.7418247, "tags": {"bench": "no", "bin": "no", "bus": "yes", "highway": "bus_stop", "lit": "no", "name": "Malterie", "network": "Horizon", "network:wikidata": "Q3456686", "operator": "Keolis Ch\u00e2teauroux", "public_transport": "platform", "shelter": "no", "tactile_paving": "yes"}}, {"type": "node", "id": 5449046141, "lat": 46.8495348, "lon": 1.7444698, "tags": {"bench": "no", "bin": "no", "bus": "yes", "highway": "bus_stop", "lit": "no", "name": "Maryse Basti\u00e9", "network": "Horizon", "network:wikidata": "Q3456686", "operator": "Keolis Ch\u00e2teauroux", "public_transport": "platform", "shelter": "no", "tactile_paving": "yes"}}, {"type": "node", "id": 5449046142, "lat": 46.8492097, "lon": 1.744672, "tags": {"bench": "no", "bin": "no", "bus": "yes", "highway": "bus_stop", "lit": "yes", "name": "Maryse Basti\u00e9", "network": "Horizon", "network:wikidata": "Q3456686", "operator": "Keolis Ch\u00e2teauroux", "public_transport": "platform", "shelter": "no", "tactile_paving": "yes"}}, {"type": "node", "id": 5449046143, "lat": 46.8483758, "lon": 1.7439911, "tags": {"bench": "no", "bin": "no", "bus": "yes", "highway": "bus_stop", "lit": "no", "name": "Louis Armand", "network": "Horizon", "network:wikidata": "Q3456686", "operator": "Keolis Ch\u00e2teauroux", "public_transport": "platform", "shelter": "no", "tactile_paving": "yes"}}, {"type": "node", "id": 5449046144, "lat": 46.8482714, "lon": 1.7435826, "tags": {"bench": "yes", "bin": "no", "bus": "yes", "highway": "bus_stop", "lit": "no", "name": "Louis Armand", "network": "Horizon", "network:wikidata": "Q3456686", "operator": "Keolis Ch\u00e2teauroux", "public_transport": "platform", "shelter": "yes", "tactile_paving": "yes"}}, {"type": "node", "id": 5449046145, "lat": 46.8467424, "lon": 1.7410639, "tags": {"bench": "no", "bin": "no", "bus": "yes", "highway": "bus_stop", "lit": "no", "name": "Pierre Clostermann", "network": "Horizon", "network:wikidata": "Q3456686", "operator": "Keolis Ch\u00e2teauroux", "public_transport": "platform", "shelter": "no", "tactile_paving": "yes"}}, {"type": "node", "id": 5449046146, "lat": 46.8462056, "lon": 1.7399057, "tags": {"bench": "no", "bin": "no", "bus": "yes", "highway": "bus_stop", "lit": "no", "name": "Pierre Clostermann", "network": "Horizon", "network:wikidata": "Q3456686", "operator": "Keolis Ch\u00e2teauroux", "public_transport": "platform", "shelter": "no", "tactile_paving": "yes"}}, {"type": "node", "id": 5449046147, "lat": 46.8442971, "lon": 1.7453058, "tags": {"bench": "no", "bin": "no", "bus": "yes", "highway": "bus_stop", "lit": "no", "name": "Rosiers", "network": "Horizon", "network:wikidata": "Q3456686", "operator": "Keolis Ch\u00e2teauroux", "public_transport": "platform", "shelter": "yes", "source": "SNCF - 06/2016", "tactile_paving": "no", "uic_ref": "8764379"}}, {"type": "node", "id": 5449046149, "lat": 46.8551975, "lon": 1.7713698, "tags": {"bench": "no", "bin": "no", "bus": "yes", "highway": "bus_stop", "lit": "no", "name": "Corna\u00e7ay", "network": "Horizon", "network:wikidata": "Q3456686", "operator": "Keolis Ch\u00e2teauroux", "public_transport": "platform", "shelter": "no", "tactile_paving": "no"}}, {"type": "node", "id": 5449046150, "lat": 46.8551765, "lon": 1.7708124, "tags": {"bench": "no", "bin": "no", "bus": "yes", "highway": "bus_stop", "lit": "no", "name": "Corna\u00e7ay", "network": "Horizon", "network:wikidata": "Q3456686", "operator": "Keolis Ch\u00e2teauroux", "public_transport": "platform", "shelter": "yes", "tactile_paving": "no"}}, {"type": "node", "id": 5449046151, "lat": 46.8589262, "lon": 1.7710399, "tags": {"bench": "no", "bin": "no", "bus": "yes", "highway": "bus_stop", "lit": "no", "name": "Zola", "network": "Horizon", "network:wikidata": "Q3456686", "operator": "Keolis Ch\u00e2teauroux", "public_transport": "platform", "shelter": "no", "tactile_paving": "no"}}, {"type": "node", "id": 5449046152, "lat": 46.8591646, "lon": 1.770885, "tags": {"bench": "yes", "bin": "no", "bus": "yes", "highway": "bus_stop", "lit": "no", "name": "Zola", "network": "Horizon", "network:wikidata": "Q3456686", "operator": "Keolis Ch\u00e2teauroux", "public_transport": "platform", "shelter": "yes", "tactile_paving": "no"}}, {"type": "node", "id": 5449046153, "lat": 46.8641896, "lon": 1.7718111, "tags": {"bench": "no", "bin": "no", "bus": "yes", "highway": "bus_stop", "lit": "no", "name": "Montierchaume", "network": "Horizon", "network:wikidata": "Q3456686", "operator": "Keolis Ch\u00e2teauroux", "public_transport": "platform", "shelter": "no", "tactile_paving": "no"}}, {"type": "node", "id": 5449046154, "lat": 46.8637267, "lon": 1.7711983, "tags": {"bench": "no", "bin": "no", "bus": "yes", "highway": "bus_stop", "lit": "no", "name": "Montierchaume", "network": "Horizon", "network:wikidata": "Q3456686", "operator": "Keolis Ch\u00e2teauroux", "public_transport": "platform", "shelter": "no", "tactile_paving": "no"}}, {"type": "node", "id": 5449046155, "lat": 46.8620779, "lon": 1.7783989, "tags": {"bench": "no", "bin": "no", "bus": "yes", "highway": "bus_stop", "lit": "yes", "name": "Loriot", "network": "Horizon", "network:wikidata": "Q3456686", "operator": "Keolis Ch\u00e2teauroux", "public_transport": "platform", "shelter": "no", "tactile_paving": "no"}}, {"type": "node", "id": 5449046156, "lat": 46.8622853, "lon": 1.7781117, "tags": {"bench": "no", "bin": "no", "bus": "yes", "highway": "bus_stop", "lit": "no", "name": "Loriot", "network": "Horizon", "network:wikidata": "Q3456686", "operator": "Keolis Ch\u00e2teauroux", "public_transport": "platform", "shelter": "no", "tactile_paving": "no"}}, {"type": "node", "id": 5449046157, "lat": 46.8646861, "lon": 1.7921313, "tags": {"bench": "no", "bin": "no", "bus": "yes", "highway": "bus_stop", "lit": "yes", "name": "Crevant", "network": "Horizon", "network:wikidata": "Q3456686", "operator": "Keolis Ch\u00e2teauroux", "public_transport": "platform", "shelter": "no", "tactile_paving": "no"}}, {"type": "node", "id": 5449046159, "lat": 46.8664213, "lon": 1.7964967, "tags": {"bench": "no", "bin": "no", "bus": "yes", "highway": "bus_stop", "lit": "no", "name": "Croix Pascaud", "network": "Horizon", "network:wikidata": "Q3456686", "operator": "Keolis Ch\u00e2teauroux", "public_transport": "platform", "shelter": "no", "tactile_paving": "no"}}, {"type": "node", "id": 5451504823, "lat": 46.8178767, "lon": 1.7437929, "tags": {"bench": "yes", "bin": "yes", "bus": "yes", "highway": "bus_stop", "lit": "no", "name": "Grangeroux", "network": "Horizon", "network:wikidata": "Q3456686", "operator": "Keolis Ch\u00e2teauroux", "public_transport": "platform", "shelter": "yes", "tactile_paving": "yes"}}, {"type": "node", "id": 5451504824, "lat": 46.8170395, "lon": 1.7426965, "tags": {"bus": "yes", "highway": "bus_stop", "name": "Grangeroux", "network": "Horizon", "network:wikidata": "Q3456686", "operator": "Keolis Ch\u00e2teauroux", "public_transport": "platform"}}, {"type": "node", "id": 5451987589, "lat": 46.7882218, "lon": 1.7481696, "tags": {"bench": "yes", "bin": "no", "bus": "yes", "highway": "bus_stop", "lit": "no", "name": "Forge de l'Isle", "network": "Horizon", "network:wikidata": "Q3456686", "operator": "Keolis Ch\u00e2teauroux", "public_transport": "platform", "shelter": "yes", "tactile_paving": "no"}}, {"type": "node", "id": 5451987590, "lat": 46.7879221, "lon": 1.7484632, "tags": {"bench": "no", "bin": "no", "bus": "yes", "highway": "bus_stop", "lit": "no", "name": "Forge de l'Isle", "network": "Horizon", "network:wikidata": "Q3456686", "operator": "Keolis Ch\u00e2teauroux", "public_transport": "platform", "shelter": "no", "tactile_paving": "no"}}, {"type": "node", "id": 5451987591, "lat": 46.7766432, "lon": 1.7832677, "tags": {"bench": "no", "bin": "no", "bus": "yes", "highway": "bus_stop", "lit": "no", "name": "\u00c9trechet", "network": "Horizon", "network:wikidata": "Q3456686", "operator": "Keolis Ch\u00e2teauroux", "public_transport": "platform", "shelter": "no", "tactile_paving": "no"}}, {"type": "node", "id": 5451987592, "lat": 46.7765606, "lon": 1.7830743, "tags": {"bench": "no", "bin": "no", "bus": "yes", "highway": "bus_stop", "lit": "no", "name": "\u00c9trechet", "network": "Horizon", "network:wikidata": "Q3456686", "operator": "Keolis Ch\u00e2teauroux", "public_transport": "platform", "shelter": "no", "tactile_paving": "no"}}, {"type": "node", "id": 5629030623, "lat": 47.145724, "lon": 2.2197907, "tags": {"bench": "yes", "highway": "bus_stop", "shelter": "yes", "source": "cadastre-dgi-fr source : Direction G\u00e9n\u00e9rale des Imp\u00f4ts - Cadastre. Mise \u00e0 jour : 2011, bing"}}, {"type": "node", "id": 6435787474, "lat": 46.8254134, "lon": 1.8150824, "tags": {"bench": "no", "bin": "no", "bus": "yes", "highway": "bus_stop", "lit": "yes", "name": "Fourches", "network": "Horizon", "network:wikidata": "Q3456686", "operator": "Keolis Ch\u00e2teauroux", "public_transport": "platform", "shelter": "no", "tactile_paving": "yes"}}, {"type": "node", "id": 6560345938, "lat": 47.1625878, "lon": 2.0498774, "tags": {"bus": "yes", "highway": "bus_stop", "public_transport": "platform"}}, {"type": "node", "id": 6560345939, "lat": 47.1626016, "lon": 2.0498099, "tags": {"bus": "yes", "highway": "bus_stop", "public_transport": "platform"}}, {"type": "node", "id": 6573845228, "lat": 46.792482, "lon": 1.8757942, "tags": {"bench": "yes", "bin": "no", "bus": "yes", "highway": "bus_stop", "lit": "no", "name": "Grand Villemongin", "network": "Horizon", "network:wikidata": "Q3456686", "operator": "Keolis Ch\u00e2teauroux", "public_transport": "platform", "shelter": "yes", "tactile_paving": "no"}}, {"type": "node", "id": 6573845229, "lat": 46.7921364, "lon": 1.8760123, "tags": {"bench": "no", "bin": "no", "bus": "yes", "highway": "bus_stop", "lit": "no", "name": "Grand Villemongin", "network": "Horizon", "network:wikidata": "Q3456686", "operator": "Keolis Ch\u00e2teauroux", "public_transport": "platform", "shelter": "no", "tactile_paving": "no"}}, {"type": "node", "id": 6700411451, "lat": 46.8119594, "lon": 1.8347525, "tags": {"bench": "no", "bin": "no", "bus": "yes", "highway": "bus_stop", "lit": "no", "name": "Noisetiers", "network": "Horizon", "network:wikidata": "Q3456686", "operator": "Keolis Ch\u00e2teauroux", "public_transport": "platform", "shelter": "yes", "tactile_paving": "no"}}, {"type": "node", "id": 6700411452, "lat": 46.8120715, "lon": 1.8350928, "tags": {"bench": "no", "bin": "no", "bus": "yes", "highway": "bus_stop", "lit": "no", "name": "Noisetiers", "network": "Horizon", "network:wikidata": "Q3456686", "operator": "Keolis Ch\u00e2teauroux", "public_transport": "platform", "shelter": "no", "tactile_paving": "no"}}, {"type": "node", "id": 6816094064, "lat": 46.8262265, "lon": 1.7696134, "tags": {"bench": "no", "bin": "no", "bus": "yes", "highway": "bus_stop", "lit": "no", "name": "Martinerie", "network": "Horizon", "network:wikidata": "Q3456686", "operator": "Keolis Ch\u00e2teauroux", "public_transport": "platform", "shelter": "no", "tactile_paving": "yes"}}, {"type": "node", "id": 6816094065, "lat": 46.8262317, "lon": 1.7702064, "tags": {"bench": "no", "bin": "no", "bus": "yes", "highway": "bus_stop", "lit": "no", "name": "Martinerie", "network": "Horizon", "network:wikidata": "Q3456686", "operator": "Keolis Ch\u00e2teauroux", "public_transport": "platform", "shelter": "no", "tactile_paving": "yes"}}, {"type": "node", "id": 6990601221, "lat": 47.1207635, "lon": 2.0466595, "tags": {"bus": "yes", "highway": "bus_stop", "public_transport": "platform"}}, {"type": "node", "id": 7159088932, "lat": 47.2462055, "lon": 1.9882869, "tags": {"bus": "yes", "highway": "bus_stop", "public_transport": "platform", "shelter": "yes"}}, {"type": "node", "id": 7195291340, "lat": 47.1397474, "lon": 2.207344, "tags": {"bench": "no", "bin": "no", "bus": "yes", "departures_board": "no", "highway": "bus_stop", "lit": "yes", "name": "Gare de Mehun", "network": "VitaBus", "operator": "RATP", "public_transport": "platform", "shelter": "no", "tactile_paving": "no", "website": "https://www.agglobus.com/services/transport-la-demande-vitabus"}}, {"type": "node", "id": 7195291341, "lat": 47.1272929, "lon": 2.0583902, "tags": {"highway": "bus_stop", "public_transport": "platform"}}, {"type": "node", "id": 7195291342, "lat": 47.0860122, "lon": 2.047251, "tags": {"highway": "bus_stop", "public_transport": "platform"}}, {"type": "node", "id": 7862202296, "lat": 47.0364933, "lon": 2.276136, "tags": {"bench": "yes", "bus": "yes", "highway": "bus_stop", "public_transport": "platform", "shelter": "yes"}}, {"type": "node", "id": 8426733776, "lat": 47.1631601, "lon": 1.5584373, "tags": {"name": "Valen\u00e7ay", "network": "Blanc-Argent", "operator": "SNCF", "public_transport": "station", "railway": "station", "source": "SNCF - 08/2017", "train": "yes", "type": "public_transport", "uic_ref": "8757621"}}, {"type": "node", "id": 8888169668, "lat": 46.9499831, "lon": 1.9919879, "tags": {"bench": "yes", "bus": "yes", "departures_board": "timetable", "highway": "bus_stop", "name": "Centre-Ville Poterie", "public_transport": "platform", "shelter": "yes", "wheelchair": "yes"}}, {"type": "node", "id": 8888169670, "lat": 46.9498291, "lon": 1.9918806, "tags": {"bench": "yes", "bus": "yes", "departures_board": "timetable", "highway": "bus_stop", "name": "Centre-Ville D. Casanova", "public_transport": "platform", "shelter": "yes", "wheelchair": "yes"}}, {"type": "node", "id": 8888169671, "lat": 46.9484595, "lon": 1.9858878, "tags": {"bench": "yes", "bus": "yes", "departures_board": "timetable", "highway": "bus_stop", "name": "Gare", "public_transport": "platform", "shelter": "yes", "wheelchair": "no"}}, {"type": "node", "id": 8888169685, "lat": 46.9513862, "lon": 1.9803146, "tags": {"bench": "yes", "bus": "yes", "departures_board": "timetable", "highway": "bus_stop", "name": "Citrouille", "public_transport": "platform", "shelter": "no", "wheelchair": "no"}}, {"type": "node", "id": 8888169687, "lat": 46.9529801, "lon": 1.9779844, "tags": {"bench": "no", "bus": "yes", "departures_board": "timetable", "highway": "bus_stop", "name": "Chinault", "public_transport": "platform", "shelter": "no", "wheelchair": "no"}}, {"type": "node", "id": 8888169689, "lat": 46.9569275, "lon": 1.9827808, "tags": {"bench": "yes", "bus": "yes", "departures_board": "timetable", "highway": "bus_stop", "name": "Varennes", "public_transport": "platform", "shelter": "yes", "wheelchair": "no"}}, {"type": "node", "id": 8888169691, "lat": 46.95984, "lon": 1.9884492, "tags": {"bench": "yes", "bus": "yes", "departures_board": "timetable", "highway": "bus_stop", "name": "Saint-Denis", "public_transport": "platform", "shelter": "yes", "wheelchair": "no"}}, {"type": "node", "id": 8888169694, "lat": 46.9577583, "lon": 1.9966771, "tags": {"bench": "yes", "bus": "yes", "departures_board": "timetable", "highway": "bus_stop", "name": "H\u00f4pital", "public_transport": "platform", "shelter": "yes", "wheelchair": "yes"}}, {"type": "node", "id": 8888174245, "lat": 46.9404008, "lon": 1.9853462, "tags": {"bench": "no", "bus": "yes", "departures_board": "timetable", "highway": "bus_stop", "name": "Flandres Dunkerque", "public_transport": "platform", "shelter": "no", "wheelchair": "no"}}, {"type": "node", "id": 8888174248, "lat": 46.9403406, "lon": 1.9834676, "tags": {"bench": "no", "bus": "yes", "departures_board": "timetable", "highway": "bus_stop", "name": "Lucien Coupet", "public_transport": "platform", "shelter": "no", "wheelchair": "no"}}, {"type": "node", "id": 8888174250, "lat": 46.939687, "lon": 1.9812618, "tags": {"bench": "yes", "bus": "yes", "departures_board": "timetable", "highway": "bus_stop", "name": "Terres Rouges 1", "public_transport": "platform", "shelter": "yes", "wheelchair": "no"}}, {"type": "node", "id": 8888174253, "lat": 46.9388778, "lon": 1.978246, "tags": {"bench": "no", "bus": "yes", "departures_board": "timetable", "highway": "bus_stop", "name": "Terres Rouges 2", "public_transport": "platform", "shelter": "no", "wheelchair": "no"}}, {"type": "node", "id": 8888174254, "lat": 46.9452088, "lon": 1.9844436, "tags": {"bench": "yes", "bus": "yes", "departures_board": "timetable", "highway": "bus_stop", "name": "Les Ponts", "public_transport": "platform", "shelter": "yes", "wheelchair": "no"}}, {"type": "node", "id": 8888174256, "lat": 46.9493444, "lon": 1.9951715, "tags": {"bench": "yes", "bus": "yes", "departures_board": "timetable", "highway": "bus_stop", "name": "Roosevelt", "public_transport": "platform", "shelter": "yes", "wheelchair": "no"}}, {"type": "node", "id": 8889021775, "lat": 46.9481055, "lon": 1.9967121, "tags": {"bench": "no", "bus": "yes", "departures_board": "timetable", "highway": "bus_stop", "name": "Croix de Pierre", "public_transport": "platform", "shelter": "no", "wheelchair": "no"}}, {"type": "node", "id": 8889021777, "lat": 46.9480827, "lon": 1.9973076, "tags": {"bench": "no", "bus": "yes", "departures_board": "timetable", "highway": "bus_stop", "name": "Croix de Pierre", "public_transport": "platform", "shelter": "no", "wheelchair": "no"}}, {"type": "node", "id": 8889021779, "lat": 46.9443245, "lon": 1.9962298, "tags": {"bench": "no", "bus": "yes", "departures_board": "timetable", "highway": "bus_stop", "name": "Villatte", "public_transport": "platform", "shelter": "no", "wheelchair": "no"}}, {"type": "node", "id": 8889021781, "lat": 46.9410021, "lon": 1.9965425, "tags": {"bench": "no", "bus": "yes", "departures_board": "timetable", "highway": "bus_stop", "name": "Meli", "public_transport": "platform", "shelter": "no", "wheelchair": "no"}}, {"type": "node", "id": 8889021783, "lat": 46.9401084, "lon": 1.9977746, "tags": {"bench": "no", "bus": "yes", "departures_board": "timetable", "highway": "bus_stop", "name": "CCAC", "public_transport": "platform", "shelter": "no", "wheelchair": "no"}}, {"type": "node", "id": 8889021784, "lat": 46.9392734, "lon": 1.9989783, "tags": {"bench": "no", "bus": "yes", "departures_board": "timetable", "highway": "bus_stop", "name": "Rose", "public_transport": "platform", "shelter": "no", "wheelchair": "no"}}, {"type": "node", "id": 8889021786, "lat": 46.938535, "lon": 2.0034601, "tags": {"bench": "no", "bus": "yes", "departures_board": "timetable", "highway": "bus_stop", "name": "Lilas", "public_transport": "platform", "shelter": "no", "wheelchair": "no"}}, {"type": "node", "id": 8889021788, "lat": 46.9412366, "lon": 2.0078571, "tags": {"bench": "no", "bus": "yes", "departures_board": "timetable", "highway": "bus_stop", "name": "Provence", "public_transport": "platform", "shelter": "no", "wheelchair": "no"}}, {"type": "node", "id": 8889021790, "lat": 46.9430156, "lon": 2.009674, "tags": {"bench": "no", "bus": "yes", "departures_board": "timetable", "highway": "bus_stop", "name": "La Marche", "public_transport": "platform", "shelter": "no", "wheelchair": "no"}}, {"type": "node", "id": 8889021792, "lat": 46.944232, "lon": 2.0081522, "tags": {"bench": "no", "bus": "yes", "departures_board": "timetable", "highway": "bus_stop", "name": "Nivernais", "public_transport": "platform", "shelter": "no", "wheelchair": "no"}}, {"type": "node", "id": 8889021794, "lat": 46.945633, "lon": 2.0077908, "tags": {"bench": "no", "bus": "yes", "departures_board": "timetable", "highway": "bus_stop", "name": "Nation", "public_transport": "platform", "shelter": "no", "wheelchair": "no"}}, {"type": "node", "id": 8889021795, "lat": 46.9441186, "lon": 2.0056576, "tags": {"bench": "no", "bus": "yes", "departures_board": "timetable", "highway": "bus_stop", "name": "P\u00e8re Noir", "public_transport": "platform", "shelter": "no", "wheelchair": "no"}}, {"type": "node", "id": 8889021797, "lat": 46.9412802, "lon": 2.0025849, "tags": {"bench": "no", "bus": "yes", "departures_board": "timetable", "highway": "bus_stop", "name": "Bel Air", "public_transport": "platform", "shelter": "no", "wheelchair": "no"}}, {"type": "node", "id": 8889021799, "lat": 46.943543, "lon": 2.0012953, "tags": {"bench": "yes", "bus": "yes", "departures_board": "timetable", "highway": "bus_stop", "name": "De Gaulle", "public_transport": "platform", "shelter": "no", "wheelchair": "no"}}, {"type": "node", "id": 8889021801, "lat": 46.9472602, "lon": 2.0000738, "tags": {"bench": "no", "bus": "yes", "departures_board": "timetable", "highway": "bus_stop", "name": "La Chaume", "public_transport": "platform", "shelter": "no", "wheelchair": "yes"}}, {"type": "node", "id": 8889021803, "lat": 46.9566728, "lon": 2.0025674, "tags": {"bench": "yes", "bus": "yes", "departures_board": "timetable", "highway": "bus_stop", "name": "La Limoise", "public_transport": "platform", "shelter": "yes", "wheelchair": "no"}}, {"type": "node", "id": 8889021805, "lat": 46.9557141, "lon": 2.0044814, "tags": {"bench": "yes", "bus": "yes", "departures_board": "timetable", "highway": "bus_stop", "name": "Tassigny", "public_transport": "platform", "shelter": "yes", "wheelchair": "no"}}, {"type": "node", "id": 8889021807, "lat": 46.9528818, "lon": 2.0043588, "tags": {"bench": "no", "bus": "yes", "departures_board": "timetable", "highway": "bus_stop", "name": "Cimeti\u00e8re", "public_transport": "platform", "shelter": "no", "wheelchair": "no"}}, {"type": "node", "id": 8889021809, "lat": 46.9546415, "lon": 2.0119991, "tags": {"bench": "yes", "bus": "yes", "departures_board": "timetable", "highway": "bus_stop", "name": "Rue des Coinchettes 1", "network": "TIG", "operator": "La Ville d'Issoudun", "public_transport": "platform", "shelter": "yes", "wheelchair": "no"}}, {"type": "node", "id": 8889021811, "lat": 46.9527651, "lon": 2.0089082, "tags": {"bench": "no", "bus": "yes", "departures_board": "timetable", "highway": "bus_stop", "name": "Rue des Coinchettes 2", "network": "TIG", "operator": "La Ville d'Issoudun", "public_transport": "platform", "shelter": "no", "wheelchair": "no"}}, {"type": "node", "id": 8889021813, "lat": 46.9485923, "lon": 2.0073206, "tags": {"bench": "yes", "bus": "yes", "departures_board": "timetable", "highway": "bus_stop", "name": "PEPSI", "public_transport": "platform", "shelter": "yes", "wheelchair": "no"}}, {"type": "node", "id": 8978204120, "lat": 47.0386233, "lon": 1.9206016, "tags": {"bus": "yes", "highway": "bus_stop", "public_transport": "platform", "shelter": "yes"}}, {"type": "node", "id": 9252748403, "lat": 47.2269347, "lon": 2.0599273, "tags": {"name": "Vierzon", "network": "TER Centre \u2212 Val de Loire", "network:wikidata": "Q912775", "operator": "SNCF", "operator:wikidata": "Q13646", "public_transport": "stop_position", "railway": "station", "train": "yes", "uic_ref": "8757600", "wheelchair": "no", "wikidata": "Q2749385", "wikipedia": "fr:Gare de Vierzon-Ville"}}, {"type": "node", "id": 9252880900, "lat": 47.209883, "lon": 2.0996143, "tags": {"name": "Vierzon-Forges", "official_name": "Vierzon Forges", "operator": "SNCF", "public_transport": "station", "railway": "station", "train": "yes", "uic_ref": "8757609", "wheelchair": "no", "wikidata": "Q1901288", "wikipedia": "fr:Gare de Vierzon-Forges"}}, {"type": "node", "id": 9252912958, "lat": 47.1757328, "lon": 2.1624401, "tags": {"addr:city": "Fo\u00ebcy", "addr:postcode": "18500", "addr:street": "Rue Jean Lothe", "name": "Fo\u00ebcy", "operator": "SNCF", "public_transport": "station", "railway": "station", "source": "SNCF - 08/2017", "train": "yes", "uic_ref": "8757610", "wikidata": "Q2577332", "wikimedia_commons": "Category:Gare_de_Fo\u00ebcy", "wikipedia": "fr:Gare de Fo\u00ebcy"}}, {"type": "node", "id": 9252941371, "lat": 47.1394052, "lon": 2.2071866, "tags": {"name": "Mehun-sur-Y\u00e8vre", "operator": "SNCF", "public_transport": "station", "railway": "station", "train": "yes", "uic_ref": "8757611", "wikidata": "Q607296", "wikipedia": "fr:Gare de Mehun-sur-Y\u00e8vre"}}, {"type": "node", "id": 9363927779, "lat": 47.2201105, "lon": 2.1040167, "tags": {"bus": "yes", "highway": "bus_stop", "public_transport": "platform"}}, {"type": "node", "id": 9457697755, "lat": 47.17712, "lon": 2.1655744, "tags": {"bench": "yes", "bus": "yes", "highway": "bus_stop", "public_transport": "platform", "shelter": "yes"}}, {"type": "node", "id": 9473727694, "lat": 46.8531808, "lon": 1.7126617, "tags": {"bus": "yes", "departures_board": "yes", "highway": "bus_stop", "name": "A\u00e9roport", "network": "Horizon", "network:wikidata": "Q3456686", "network:wikipedia": "fr:Transports en commun de Ch\u00e2teauroux", "operator": "Keolis Ch\u00e2teauroux", "public_transport": "platform", "shelter": "no"}}, {"type": "node", "id": 9473739519, "lat": 46.8531235, "lon": 1.7124723, "tags": {"bus": "yes", "departures_board": "yes", "highway": "bus_stop", "name": "A\u00e9roport", "network": "Horizon", "network:wikidata": "Q3456686", "network:wikipedia": "fr:Transports en commun de Ch\u00e2teauroux", "operator": "Keolis Ch\u00e2teauroux", "public_transport": "platform", "shelter": "no"}}, {"type": "node", "id": 9503362649, "lat": 46.852529, "lon": 1.7329603, "tags": {"bus": "yes", "highway": "bus_stop", "public_transport": "platform"}}, {"type": "node", "id": 9504378760, "lat": 46.8533972, "lon": 1.7129223, "tags": {"bus": "yes", "highway": "bus_stop", "public_transport": "platform"}}, {"type": "node", "id": 9505141366, "lat": 46.8513663, "lon": 1.7122658, "tags": {"bus": "yes", "highway": "bus_stop", "public_transport": "platform"}}, {"type": "node", "id": 9763770357, "lat": 46.8191422, "lon": 1.7570946, "tags": {"bus": "yes", "departures_board": "yes", "highway": "bus_stop", "name": "P1 - Parking P1", "public_transport": "platform"}}, {"type": "node", "id": 9763770358, "lat": 46.8149502, "lon": 1.7551624, "tags": {"bus": "yes", "highway": "bus_stop", "name": "P2 - Accueil CNTS", "network": "Fil\u00e9o", "network:wikidata": "Q3072280", "operator": "Keolis", "public_transport": "platform", "shelter": "no"}}, {"type": "node", "id": 9763770359, "lat": 46.8117819, "lon": 1.7625332, "tags": {"bus": "yes", "departures_board": "yes", "highway": "bus_stop", "name": "P5 - Nord", "network": "Tallis", "network:wikidata": "Q3514545", "not:network:wikidata": "Q3072280", "operator": "Keolis", "operator:wikidata": "Q664399", "public_transport": "platform", "wheelchair": "no"}}, {"type": "node", "id": 9763770360, "lat": 46.8117018, "lon": 1.7627528, "tags": {"bus": "yes", "departures_board": "yes", "highway": "bus_stop", "name": "P5 - Sud", "network": "Fil\u00e9o", "network:wikidata": "Q3072280", "operator": "Keolis", "public_transport": "platform", "wheelchair": "no"}}, {"type": "node", "id": 9763770361, "lat": 46.8109378, "lon": 1.7648324, "tags": {"bus": "yes", "highway": "bus_stop", "name": "P6 - 600 M", "network": "Fil\u00e9o", "network:wikidata": "Q3072280", "operator": "Keolis", "public_transport": "platform", "wheelchair": "no"}}, {"type": "node", "id": 9763770362, "lat": 46.8147243, "lon": 1.760523, "tags": {"bus": "yes", "highway": "bus_stop", "name": "P3 - Tir Vitesse", "network": "Fil\u00e9o", "network:wikidata": "Q3072280", "operator": "Keolis", "public_transport": "platform"}}, {"type": "node", "id": 9980594904, "lat": 46.992101, "lon": 2.2525862, "tags": {"name": "Saint-Florent-sur-Cher", "official_name": "St-Florent-sur-Cher", "operator": "SNCF", "public_transport": "station", "railway": "station", "train": "yes", "uic_ref": "8757627", "wikidata": "Q2168788", "wikipedia": "fr:Gare de Saint-Florent-sur-Cher"}}, {"type": "node", "id": 10019609592, "lat": 47.2470671, "lon": 1.9837863, "tags": {"bus": "yes", "highway": "bus_stop", "public_transport": "platform"}}, {"type": "node", "id": 10056019542, "lat": 46.7792272, "lon": 1.7817435, "tags": {"bus": "yes", "highway": "bus_stop", "public_transport": "platform", "ref": "Transport scolaire"}}, {"type": "node", "id": 10056019543, "lat": 46.7790918, "lon": 1.7818052, "tags": {"bus": "yes", "highway": "bus_stop", "public_transport": "platform", "ref": "Transport scolaire"}}, {"type": "node", "id": 10099444009, "lat": 47.2202116, "lon": 2.1039324, "tags": {"bus": "yes", "highway": "bus_stop", "public_transport": "platform"}}, {"type": "node", "id": 10099444010, "lat": 47.2204594, "lon": 2.1058357, "tags": {"bus": "yes", "highway": "bus_stop", "public_transport": "platform"}}, {"type": "node", "id": 10099444011, "lat": 47.2205018, "lon": 2.1056409, "tags": {"bus": "yes", "highway": "bus_stop", "public_transport": "platform"}}, {"type": "node", "id": 10099453143, "lat": 47.2114037, "lon": 2.138311, "tags": {"bus": "yes", "highway": "bus_stop", "public_transport": "platform"}}, {"type": "node", "id": 10099453146, "lat": 47.2062252, "lon": 2.1566514, "tags": {"bus": "yes", "highway": "bus_stop", "public_transport": "platform"}}, {"type": "node", "id": 10099453147, "lat": 47.2064901, "lon": 2.1558549, "tags": {"bus": "yes", "highway": "bus_stop", "public_transport": "platform"}}, {"type": "node", "id": 10100480198, "lat": 47.2291421, "lon": 2.0627063, "tags": {"bus": "yes", "highway": "bus_stop", "public_transport": "platform"}}, {"type": "node", "id": 10100480199, "lat": 47.2290697, "lon": 2.0630291, "tags": {"bus": "yes", "highway": "bus_stop", "public_transport": "platform"}}, {"type": "node", "id": 10100480200, "lat": 47.2290089, "lon": 2.0633188, "tags": {"bus": "yes", "highway": "bus_stop", "public_transport": "platform"}}, {"type": "node", "id": 10100480201, "lat": 47.2287849, "lon": 2.0643523, "tags": {"bus": "yes", "highway": "bus_stop", "public_transport": "platform"}}, {"type": "node", "id": 10110200928, "lat": 46.9563554, "lon": 1.99597, "tags": {"bus": "yes", "highway": "bus_stop", "public_transport": "platform"}}, {"type": "node", "id": 10110227407, "lat": 46.939949, "lon": 1.9866405, "tags": {"bus": "yes", "highway": "bus_stop", "public_transport": "platform"}}, {"type": "node", "id": 10110227414, "lat": 46.9396612, "lon": 2.0091053, "tags": {"bus": "yes", "highway": "bus_stop", "public_transport": "platform"}}, {"type": "node", "id": 10110227415, "lat": 46.9399571, "lon": 2.0095184, "tags": {"bus": "yes", "highway": "bus_stop", "public_transport": "platform"}}, {"type": "node", "id": 10110299329, "lat": 46.9408711, "lon": 1.998262, "tags": {"bus": "yes", "highway": "bus_stop", "public_transport": "platform"}}, {"type": "node", "id": 10110299348, "lat": 46.9430148, "lon": 2.0052711, "tags": {"bus": "yes", "highway": "bus_stop", "public_transport": "platform"}}, {"type": "node", "id": 10125101527, "lat": 47.20862, "lon": 2.0650639, "tags": {"bus": "yes", "highway": "bus_stop", "public_transport": "platform"}}, {"type": "node", "id": 10125101528, "lat": 47.2084049, "lon": 2.0652533, "tags": {"bus": "yes", "highway": "bus_stop", "public_transport": "platform", "shelter": "no"}}, {"type": "node", "id": 10834058407, "lat": 47.1411789, "lon": 2.2090118, "tags": {"bus": "yes", "highway": "bus_stop", "public_transport": "platform"}}, {"type": "node", "id": 11254963689, "lat": 46.9310797, "lon": 2.1195707, "tags": {"bus": "yes", "highway": "bus_stop", "public_transport": "platform"}}, {"type": "node", "id": 11416993138, "lat": 46.9913261, "lon": 2.2425384, "tags": {"bus": "yes", "highway": "bus_stop", "name": "Jean Jaur\u00e8s", "network": "AggloBus", "network:wikidata": "Q3537943", "public_transport": "platform", "shelter": "no"}}, {"type": "node", "id": 11417003011, "lat": 46.9913389, "lon": 2.2428308, "tags": {"bus": "yes", "highway": "bus_stop", "name": "Jean Jaur\u00e8s", "network": "AggloBus", "network:wikidata": "Q3537943", "public_transport": "platform", "shelter": "no"}}, {"type": "node", "id": 11512026398, "lat": 46.805534, "lon": 1.8665721, "tags": {"bench": "no", "bin": "no", "bus": "yes", "highway": "bus_stop", "lit": "no", "name": "M\u00e2ron", "network": "Horizon", "network:wikidata": "Q3456686", "operator": "Keolis Ch\u00e2teauroux", "public_transport": "platform", "shelter": "no", "tactile_paving": "no"}}, {"type": "node", "id": 12092385062, "lat": 46.8501771, "lon": 1.7363562, "tags": {"bench": "no", "bin": "no", "bus": "yes", "highway": "bus_stop", "lit": "no", "name": "Mairie Marvingt", "network": "Horizon", "network:wikidata": "Q3456686", "operator": "Keolis Ch\u00e2teauroux", "public_transport": "platform", "shelter": "no", "tactile_paving": "yes"}}, {"type": "node", "id": 12092385063, "lat": 46.8498167, "lon": 1.736623, "tags": {"bench": "no", "bin": "no", "bus": "yes", "highway": "bus_stop", "lit": "no", "name": "Mairie Marvingt", "network": "Horizon", "network:wikidata": "Q3456686", "operator": "Keolis Ch\u00e2teauroux", "public_transport": "platform", "shelter": "no", "tactile_paving": "yes"}}, {"type": "node", "id": 12092385064, "lat": 46.85267, "lon": 1.7374666, "tags": {"bench": "no", "bin": "no", "bus": "yes", "highway": "bus_stop", "lit": "no", "name": "Elise Deroche", "network": "Horizon", "network:wikidata": "Q3456686", "operator": "Keolis Ch\u00e2teauroux", "public_transport": "platform", "shelter": "no", "tactile_paving": "yes"}}, {"type": "node", "id": 12092385065, "lat": 46.852537, "lon": 1.7370093, "tags": {"bench": "no", "bin": "no", "bus": "yes", "highway": "bus_stop", "lit": "no", "name": "Elise Deroche", "network": "Horizon", "network:wikidata": "Q3456686", "operator": "Keolis Ch\u00e2teauroux", "public_transport": "platform", "shelter": "no", "tactile_paving": "yes"}}, {"type": "node", "id": 12092385066, "lat": 46.8513896, "lon": 1.74208, "tags": {"bench": "no", "bin": "no", "bus": "yes", "highway": "bus_stop", "lit": "no", "name": "Malterie", "network": "Horizon", "network:wikidata": "Q3456686", "operator": "Keolis Ch\u00e2teauroux", "public_transport": "platform", "shelter": "no", "tactile_paving": "yes"}}, {"type": "node", "id": 12092394370, "lat": 46.844826, "lon": 1.7373687, "tags": {"bench": "no", "bin": "no", "bus": "yes", "highway": "bus_stop", "lit": "no", "name": "Th\u00e8rese Peltier", "network": "Horizon", "network:wikidata": "Q3456686", "operator": "Keolis Ch\u00e2teauroux", "public_transport": "platform", "shelter": "no", "tactile_paving": "yes"}}, {"type": "node", "id": 12092394371, "lat": 46.8443334, "lon": 1.7373271, "tags": {"bench": "no", "bin": "no", "bus": "yes", "highway": "bus_stop", "lit": "no", "name": "Th\u00e8rese Peltier", "network": "Horizon", "network:wikidata": "Q3456686", "operator": "Keolis Ch\u00e2teauroux", "public_transport": "platform", "shelter": "no", "tactile_paving": "yes"}}, {"type": "node", "id": 12092394415, "lat": 46.8607677, "lon": 1.71731, "tags": {"bench": "no", "bin": "no", "bus": "yes", "highway": "bus_stop", "lit": "no", "name": "A\u00e9roport", "network": "Horizon", "network:wikidata": "Q3456686", "network:wikipedia": "fr:Transports en commun de Ch\u00e2teauroux", "operator": "Keolis Ch\u00e2teauroux", "public_transport": "platform", "shelter": "no", "tactile_paving": "yes"}}, {"type": "node", "id": 12092394420, "lat": 46.8708639, "lon": 1.7198066, "tags": {"bench": "no", "bin": "yes", "bus": "yes", "highway": "bus_stop", "lit": "yes", "name": "Cere", "network": "Horizon", "network:wikidata": "Q3456686", "network:wikipedia": "fr:Transports en commun de Ch\u00e2teauroux", "operator": "Keolis Ch\u00e2teauroux", "public_transport": "platform", "shelter": "yes", "tactile_paving": "yes"}}, {"type": "node", "id": 12092394425, "lat": 46.8838758, "lon": 1.7119643, "tags": {"bench": "no", "bin": "no", "bus": "yes", "highway": "bus_stop", "lit": "no", "name": "Coings", "network": "Horizon", "network:wikidata": "Q3456686", "network:wikipedia": "fr:Transports en commun de Ch\u00e2teauroux", "operator": "Keolis Ch\u00e2teauroux", "public_transport": "platform", "shelter": "yes", "tactile_paving": "yes"}}, {"type": "node", "id": 12092394430, "lat": 46.8890275, "lon": 1.7363161, "tags": {"bench": "yes", "bin": "no", "bus": "yes", "highway": "bus_stop", "lit": "yes", "name": "Moulin de Notz", "network": "Horizon", "network:wikidata": "Q3456686", "network:wikipedia": "fr:Transports en commun de Ch\u00e2teauroux", "operator": "Keolis Ch\u00e2teauroux", "public_transport": "platform", "shelter": "yes", "tactile_paving": "yes"}}, {"type": "node", "id": 12092394431, "lat": 46.8946412, "lon": 1.7441085, "tags": {"bench": "no", "bin": "no", "bus": "yes", "highway": "bus_stop", "lit": "no", "name": "Les Turnes", "network": "Horizon", "network:wikidata": "Q3456686", "network:wikipedia": "fr:Transports en commun de Ch\u00e2teauroux", "operator": "Keolis Ch\u00e2teauroux", "public_transport": "platform", "shelter": "no", "tactile_paving": "no"}}, {"type": "node", "id": 12092394440, "lat": 46.8819166, "lon": 1.7390273, "tags": {"bench": "yes", "bin": "yes", "bus": "yes", "highway": "bus_stop", "lit": "no", "name": "St. Pierre de Notz", "network": "Horizon", "network:wikidata": "Q3456686", "network:wikipedia": "fr:Transports en commun de Ch\u00e2teauroux", "operator": "Keolis Ch\u00e2teauroux", "public_transport": "platform", "shelter": "yes", "tactile_paving": "no"}},