{"version": 0.6, "generator": "Overpass API 0.7.62.5 1bd436f1", "osm3s": {"timestamp_osm_base": "2025-04-09T14:57:35Z", "copyright": "The data included in this document is from www.openstreetmap.org. The data is made available under ODbL."}, "elements": [{"type": "node", "id": 27410438, "lat": 52.9521534, "lon": -0.8554051, "tags": {"name": "Elton and Orston", "naptan:AtcoCode": "9100ELTON", "network": "National Rail", "network:website": "https://www.nationalrail.co.uk/stations/elo/", "network:wikidata": "Q26334", "public_transport": "station", "railway": "station", "ref:crs": "ELO", "source": "NPE", "train": "yes", "wikidata": "Q2585835", "wikipedia": "en:Elton and Orston railway station"}}, {"type": "node", "id": 152441568, "lat": 52.9447732, "lon": -0.7951793, "tags": {"name": "Bottesford", "naptan:AtcoCode": "9100BOTESFD", "network": "National Rail", "network:website": "https://www.nationalrail.co.uk/stations/btf/", "network:wikidata": "Q26334", "operator": "East Midlands Railway", "public_transport": "station", "railway": "station", "ref:crs": "BTF", "source": "NPE", "wikidata": "Q3985747", "wikipedia": "en:Bottesford railway station"}}, {"type": "node", "id": 175051145, "lat": 52.9395856, "lon": -1.1830631, "tags": {"bus": "yes", "highway": "bus_stop", "local_ref": "UN06", "name": "Lace Street", "naptan:AtcoCode": "3390UN06", "naptan:Bearing": "SW", "naptan:CommonName": "Lace Street", "naptan:Indicator": "Stop UN06", "naptan:Landmark": "Lace Street out", "naptan:NaptanCode": "ntmadtjm", "naptan:PlusbusZoneRef": "NTNG", "naptan:Street": "Beeston Road", "naptan:verified": "yes", "public_transport": "platform", "shelter": "yes", "source": "naptan_import", "wheelchair": "yes"}}, {"type": "node", "id": 175051412, "lat": 52.9397963, "lon": -1.1829336, "tags": {"bus": "yes", "highway": "bus_stop", "local_ref": "UN05", "name": "Lace Street", "naptan:AtcoCode": "3390UN05", "naptan:Bearing": "NE", "naptan:CommonName": "Lace Street", "naptan:Indicator": "Stop UN05", "naptan:Landmark": "Lace Street in", "naptan:NaptanCode": "ntmadtjg", "naptan:PlusbusZoneRef": "NTNG", "naptan:Street": "Beeston Road", "naptan:verified": "yes", "public_transport": "platform", "shelter": "yes", "source": "naptan_import", "wheelchair": "yes"}}, {"type": "node", "id": 298283981, "lat": 52.9525719, "lon": -0.9002697, "tags": {"bus": "yes", "highway": "bus_stop", "public_transport": "platform"}}, {"type": "node", "id": 324257221, "lat": 52.8845732, "lon": -1.1479442, "tags": {"name": "Ruddington Fields", "public_transport": "station", "railway": "station", "train": "yes", "usage": "tourism"}}, {"type": "node", "id": 324650068, "lat": 52.9473037, "lon": -1.1449555, "tags": {"addr:city": "Nottingham", "addr:postcode": "NG2 3AQ", "addr:street": "Carrington Street", "alt_name": "Nottingham Midland", "fhrs:id": "218710", "name": "Nottingham", "naptan:AtcoCode": "9100NTNG", "network": "National Rail", "network:website": "https://www.nationalrail.co.uk/stations/not/", "network:wikidata": "Q26334", "public_transport": "station", "railway": "station", "ref:crs": "NOT", "source": "Local Knowledge", "source:addr": "NCC Open Data planning", "train": "yes", "wheelchair": "yes", "wikidata": "Q1988621", "wikipedia": "en:Nottingham station"}}, {"type": "node", "id": 353396269, "lat": 52.6846639, "lon": -0.9830721, "tags": {"bus": "yes", "highway": "bus_stop", "operator": "Paul James Coaches", "public_transport": "platform"}}, {"type": "node", "id": 387456534, "lat": 52.9547602, "lon": -1.0961274, "tags": {"bench": "yes", "bin": "yes", "bus": "yes", "ele": "24.879639", "highway": "bus_stop", "local_ref": "CK12", "name": "Candle Meadow", "naptan:AtcoCode": "3390CK12", "naptan:Bearing": "W", "naptan:CommonName": "Candle Meadow", "naptan:Indicator": "Stop CK12", "naptan:Landmark": "Candle Meadow", "naptan:NaptanCode": "ntmadajm", "naptan:PlusbusZoneRef": "NTNG", "naptan:Street": "Daleside Road", "naptan:verified": "no", "public_transport": "platform", "ref": "CK12", "shelter": "yes", "source": "naptan_import;survey", "tactile_paving": "no"}}, {"type": "node", "id": 392624870, "lat": 52.9417621, "lon": -1.1523965, "tags": {"bus": "yes", "highway": "bus_stop", "local_ref": "ME22", "name": "Queens Walk", "naptan:AtcoCode": "3390ME22", "naptan:Bearing": "W", "naptan:CommonName": "Queens Walk", "naptan:Indicator": "Stop ME22", "naptan:Landmark": "Mickledon Close", "naptan:NaptanCode": "ntmampjm", "naptan:PlusbusZoneRef": "NTNG", "naptan:Street": "Robin Hood Way", "naptan:verified": "yes", "note": "NCT 48 (& N48)", "public_transport": "platform", "ref": "ME22", "shelter": "yes", "source": "naptan_import;GPS"}}, {"type": "node", "id": 392886710, "lat": 52.9418199, "lon": -1.1517281, "tags": {"bus": "yes", "ele": "24.398926", "highway": "bus_stop", "local_ref": "ME29", "name": "Queens Walk", "naptan:AtcoCode": "3390ME29", "naptan:Bearing": "E", "naptan:CommonName": "Queens Walk", "naptan:Indicator": "Stop ME29", "naptan:Landmark": "Queens Walk", "naptan:NaptanCode": "ntmampmj", "naptan:PlusbusZoneRef": "NTNG", "naptan:Street": "Robin Hood Way", "naptan:verified": "yes", "public_transport": "platform", "ref": "ME29", "shelter": "yes", "source": "naptan_import;GPS"}}, {"type": "node", "id": 392889083, "lat": 52.9414012, "lon": -1.1547399, "tags": {"bus": "yes", "ele": "24.158569", "highway": "bus_stop", "local_ref": "ME28", "name": "Thrumpton Drive", "naptan:AtcoCode": "3390ME28", "naptan:Bearing": "NE", "naptan:CommonName": "Thrumpton Drive", "naptan:Indicator": "Stop ME28", "naptan:Landmark": "Ayton Close", "naptan:NaptanCode": "ntmampmg", "naptan:PlusbusZoneRef": "NTNG", "naptan:Street": "Robin Hood Way", "naptan:verified": "yes", "note": "bus route NCT 48", "public_transport": "platform", "ref": "ME28", "shelter": "yes", "source": "naptan_import;GPS"}}, {"type": "node", "id": 416471225, "lat": 52.9418732, "lon": -1.1490758, "tags": {"bus": "yes", "highway": "bus_stop", "local_ref": "ME30", "name": "Houseman Gardens", "naptan:AtcoCode": "3390ME30", "naptan:Bearing": "E", "naptan:CommonName": "Houseman Gardens", "naptan:Indicator": "Stop ME30", "naptan:Landmark": "Houseman Gardens", "naptan:NaptanCode": "ntmampmp", "naptan:PlusbusZoneRef": "NTNG", "naptan:Street": "Robin Hood Way", "naptan:verified": "yes", "public_transport": "platform", "shelter": "yes", "source": "naptan_import;survey"}}, {"type": "node", "id": 416471226, "lat": 52.9417412, "lon": -1.1494653, "tags": {"bus": "yes", "highway": "bus_stop", "local_ref": "ME21", "name": "Houseman Gardens", "naptan:AtcoCode": "3390ME21", "naptan:Bearing": "W", "naptan:CommonName": "Houseman Gardens", "naptan:Indicator": "Stop ME21", "naptan:Landmark": "Osier Road", "naptan:NaptanCode": "ntmampjg", "naptan:PlusbusZoneRef": "NTNG", "naptan:Street": "Robin Hood Way", "naptan:verified": "yes", "public_transport": "platform", "shelter": "no", "source": "naptan_import;survey"}}, {"type": "node", "id": 416483320, "lat": 52.939996, "lon": -1.1546115, "tags": {"bus": "yes", "ele": "28.965332", "highway": "bus_stop", "local_ref": "ME27", "name": "Soudan Drive", "naptan:AtcoCode": "3390ME27", "naptan:Bearing": "N", "naptan:CommonName": "Soudan Drive", "naptan:Indicator": "Stop ME27", "naptan:Landmark": "Meredith Close", "naptan:NaptanCode": "ntmampmd", "naptan:PlusbusZoneRef": "NTNG", "naptan:Street": "Robin Hood Way", "naptan:verified": "yes", "public_transport": "platform", "ref": "ME27", "shelter": "yes", "source": "naptan_import;GPS"}}, {"type": "node", "id": 416483331, "lat": 52.9401906, "lon": -1.1545128, "tags": {"bus": "yes", "ele": "28.965332", "highway": "bus_stop", "local_ref": "ME24", "name": "Soudan Drive", "naptan:AtcoCode": "3390ME24", "naptan:Bearing": "S", "naptan:CommonName": "Soudan Drive", "naptan:Indicator": "Stop ME24", "naptan:Landmark": "The Cremorne", "naptan:NaptanCode": "ntmampjt", "naptan:PlusbusZoneRef": "NTNG", "naptan:Street": "Robin Hood Way", "naptan:verified": "yes", "note": "Also N48", "public_transport": "platform", "ref": "ME24", "shelter": "yes", "source": "naptan_import;GPS"}}, {"type": "node", "id": 429976620, "lat": 52.9642637, "lon": -1.0784967, "tags": {"bus": "yes", "highway": "bus_stop", "local_ref": "GE0321", "name": "Victoria Road", "naptan:AtcoCode": "3300GE0321", "naptan:Bearing": "S", "naptan:CommonName": "Victoria Road", "naptan:Crossing": "Garnet Street", "naptan:Indicator": "S-bound", "naptan:NaptanCode": "ntsatdwg", "naptan:Notes": "(This stop renumbered from 3300NE03)", "naptan:PlusbusZoneRef": "NTNG", "naptan:Street": "Victoria Road", "naptan:verified": "yes", "public_transport": "platform", "shelter": "yes", "source": "naptan_import"}}, {"type": "node", "id": 429976621, "lat": 52.9602021, "lon": -1.0812752, "tags": {"bus": "yes", "check_date:shelter": "2023-10-08", "highway": "bus_stop", "local_ref": "GE0325", "name": "Chaworth Road", "naptan:AtcoCode": "3300GE0325", "naptan:Bearing": "SW", "naptan:CommonName": "Chaworth Road", "naptan:Crossing": "Vale Road", "naptan:Indicator": "SW-bound", "naptan:NaptanCode": "ntsatdwt", "naptan:Notes": "(This stop renumbered from 3300CK08)", "naptan:PlusbusZoneRef": "NTNG", "naptan:Street": "Chaworth Road", "naptan:verified": "yes", "public_transport": "platform", "shelter": "yes", "source": "naptan_import"}}, {"type": "node", "id": 429976627, "lat": 52.9558684, "lon": -1.0917278, "tags": {"bus": "yes", "ele": "24.879639", "highway": "bus_stop", "name": "New Vale Road", "naptan:AtcoCode": "3300GE0211", "naptan:Bearing": "SW", "naptan:CommonName": "New Vale Road", "naptan:Crossing": "New Vale Road", "naptan:Indicator": "opp", "naptan:NaptanCode": "ntsatmtd", "naptan:Notes": "(This stop renumbered from 3300CK11)", "naptan:PlusbusZoneRef": "NTNG", "naptan:Street": "Vale Road", "naptan:verified": "yes", "public_transport": "platform", "shelter": "yes", "source": "naptan_import;GPS"}}, {"type": "node", "id": 429976628, "lat": 52.9505326, "lon": -1.1221886, "tags": {"bus": "yes", "ele": "28.965332", "highway": "bus_stop", "local_ref": "SN20", "name": "Lyndhurst Road", "naptan:AtcoCode": "3390SN20", "naptan:Bearing": "W", "naptan:CommonName": "Lyndhurst Road", "naptan:Indicator": "Stop SN20", "naptan:Landmark": "Ladysmith Street", "naptan:NaptanCode": "ntmadwjp", "naptan:PlusbusZoneRef": "NTNG", "naptan:Street": "Colwick Road", "naptan:verified": "no", "public_transport": "platform", "ref": "SN20", "source": "GPS;naptan_import"}}, {"type": "node", "id": 429976630, "lat": 52.948856, "lon": -1.1301407, "tags": {"bus": "yes", "ele": "29.926514", "highway": "bus_stop", "local_ref": "SN22", "name": "Meadow Lane", "naptan:AtcoCode": "3390SN22", "naptan:Bearing": "W", "naptan:CommonName": "Meadow Lane", "naptan:Indicator": "Stop SN22", "naptan:Landmark": "Meadow Lane", "naptan:NaptanCode": "ntmadwjw", "naptan:PlusbusZoneRef": "NTNG", "naptan:Street": "Sneinton Hermitage", "naptan:verified": "no", "public_transport": "platform", "ref": "SN22", "source": "naptan_import;GPS"}}, {"type": "node", "id": 429976631, "lat": 52.9504675, "lon": -1.1347887, "tags": {"bus": "yes", "ele": "30.407227", "highway": "bus_stop", "local_ref": "SN23", "name": "Lower Eldon Street", "naptan:AtcoCode": "3390SN23", "naptan:Bearing": "NW", "naptan:CommonName": "Lower Eldon Street", "naptan:Indicator": "Stop SN23", "naptan:Landmark": "Evelyn Street", "naptan:NaptanCode": "ntmadwma", "naptan:PlusbusZoneRef": "NTNG", "naptan:Street": "Manvers Street", "naptan:verified": "yes", "note": "bus stop is named after st opposite", "public_transport": "platform", "ref": "SN23", "shelter": "yes", "source": "naptan_import;GPS"}}, {"type": "node", "id": 429987438, "lat": 52.9511044, "lon": -1.1181696, "tags": {"bench": "yes", "bin": "yes", "bus": "yes", "check_date:shelter": "2023-10-08", "highway": "bus_stop", "local_ref": "SN19", "name": "Colwick Crossing", "naptan:AtcoCode": "3390SN19", "naptan:Bearing": "W", "naptan:CommonName": "Colwick Crossing", "naptan:Indicator": "Stop SN19", "naptan:Landmark": "Greenwood School", "naptan:NaptanCode": "ntmadwjm", "naptan:PlusbusZoneRef": "NTNG", "naptan:Street": "Colwick Road", "naptan:verified": "yes", "public_transport": "platform", "shelter": "yes", "source": "naptan_import;survey", "tactile_paving": "yes", "wheelchair": "yes"}}, {"type": "node", "id": 447725253, "lat": 52.9330765, "lon": -1.1580656, "tags": {"bus": "yes", "check_date:shelter": "2020-11-26", "ele": "24.158569", "highway": "bus_stop", "local_ref": "WI16", "name": "Holly Avenue", "naptan:AtcoCode": "3390WI16", "naptan:Bearing": "NE", "naptan:CommonName": "Holly Avenue", "naptan:Indicator": "Stop WI16", "naptan:Landmark": "Opposite Holly Avenue", "naptan:NaptanCode": "ntmapjmt", "naptan:PlusbusZoneRef": "NTNG", "naptan:Street": "Main Road", "naptan:verified": "yes", "note": "Route L1", "public_transport": "platform", "ref": "WI16", "shelter": "no", "source": "GPS;naptan_import"}}, {"type": "node", "id": 447725254, "lat": 52.9225557, "lon": -1.1355915, "tags": {"bus": "yes", "ele": "20.553711", "highway": "bus_stop", "local_ref": "RU0467", "name": "Repton Road", "naptan:AtcoCode": "3300RU0467", "naptan:Bearing": "NE", "naptan:CommonName": "Repton Road", "naptan:Crossing": "Repton Road", "naptan:Indicator": "opp", "naptan:NaptanCode": "ntsadjpd", "naptan:Notes": "none (This stop renumbered from 3300WB09)", "naptan:PlusbusZoneRef": "NTNG", "naptan:Street": "Eton Road", "naptan:verified": "yes", "public_transport": "platform", "shelter": "yes", "source": "naptan_import;GPS"}}, {"type": "node", "id": 447815274, "lat": 52.9163266, "lon": -1.1759626, "tags": {"bench": "yes", "bin": "yes", "bus": "yes", "highway": "bus_stop", "local_ref": "CL41", "name": "Fabis Drive", "naptan:AtcoCode": "3390CL41", "naptan:Bearing": "NE", "naptan:CommonName": "Fabis Drive", "naptan:Indicator": "Stop CL41", "naptan:Landmark": "Fabis Drive", "naptan:NaptanCode": "ntmadmwt", "naptan:PlusbusZoneRef": "NTNG", "naptan:Street": "Clifton Lane", "naptan:verified": "yes", "public_transport": "platform", "shelter": "yes", "source": "naptan_import;survey"}}, {"type": "node", "id": 447815275, "lat": 52.9161242, "lon": -1.1755331, "tags": {"bench": "yes", "bin": "yes", "bus": "yes", "highway": "bus_stop", "local_ref": "CL01", "name": "Fabis Drive", "naptan:AtcoCode": "3390CL01", "naptan:Bearing": "SW", "naptan:CommonName": "Fabis Drive", "naptan:Indicator": "Stop CL01", "naptan:Landmark": "Sturgeon Avenue", "naptan:NaptanCode": "ntmadmwp", "naptan:PlusbusZoneRef": "NTNG", "naptan:Street": "Clifton Lane", "naptan:verified": "yes", "public_transport": "platform", "ref": "CL01", "shelter": "yes", "source": "naptan_import;survey", "tactile_paving": "yes"}}, {"type": "node", "id": 463214242, "lat": 52.9290776, "lon": -1.0539076, "tags": {"bus": "yes", "highway": "bus_stop", "name": "Cotgrave Golf Club", "naptan:AtcoCode": "3300RU0885", "naptan:Bearing": "S", "naptan:CommonName": "Golf", "naptan:Indicator": "opp", "naptan:NaptanCode": "ntsgtjpj", "naptan:Street": "Main Road", "public_transport": "platform", "source": "survey"}}, {"type": "node", "id": 463214243, "lat": 52.9290737, "lon": -1.0540768, "tags": {"bus": "yes", "highway": "bus_stop", "name": "Cotgrave Golf Club", "naptan:AtcoCode": "3300RU0884", "naptan:Bearing": "N", "naptan:CommonName": "Golf", "naptan:Indicator": "adj", "naptan:NaptanCode": "ntsgtjpg", "naptan:Street": "Main Road", "public_transport": "platform", "source": "survey"}}, {"type": "node", "id": 472398147, "lat": 52.6697432, "lon": -0.7321266, "tags": {"bus": "yes", "ele": "102.265137", "highway": "bus_stop", "name": "Bus Station", "naptan:AtcoCode": "268060093", "naptan:Bearing": "E", "naptan:CommonName": "Bus Station", "naptan:Indicator": "adjacent", "naptan:NaptanCode": "rtladjmj", "naptan:Street": "John Street", "naptan:verified": "no", "public_transport": "platform", "route_ref": "19", "source": "GPS"}}, {"type": "node", "id": 473457383, "lat": 52.8992262, "lon": -1.1003438, "tags": {"bus": "yes", "highway": "bus_stop", "public_transport": "platform"}}, {"type": "node", "id": 473457385, "lat": 52.8990243, "lon": -1.1005326, "tags": {"bus": "yes", "highway": "bus_stop", "public_transport": "platform"}}, {"type": "node", "id": 473465571, "lat": 52.883726, "lon": -1.0836803, "tags": {"bus": "yes", "highway": "bus_stop", "local_ref": "RU0502", "name": "Park Road", "naptan:AtcoCode": "3300RU0502", "naptan:Bearing": "SE", "naptan:CommonName": "Park Road", "naptan:Crossing": "Park Road", "naptan:Indicator": "opp", "naptan:NaptanCode": "ntsajdtp", "naptan:Notes": "none", "naptan:Street": "Station Road", "naptan:verified": "yes", "public_transport": "platform", "shelter": "no", "source": "naptan_import"}}, {"type": "node", "id": 482795004, "lat": 52.8806642, "lon": -1.0830018, "tags": {"bus": "yes", "highway": "bus_stop", "local_ref": "RU0503", "name": "Green Close", "naptan:AtcoCode": "3300RU0503", "naptan:Bearing": "N", "naptan:CommonName": "Green Close", "naptan:Crossing": "Green Close", "naptan:Indicator": "adj", "naptan:NaptanCode": "ntsajdtw", "naptan:Notes": "BW", "naptan:Street": "Station Road", "naptan:verified": "yes", "public_transport": "platform", "shelter": "yes", "source": "naptan_import"}}, {"type": "node", "id": 502317785, "lat": 53.0798895, "lon": -0.6312257, "tags": {"highway": "bus_stop", "name": "Swan's Lane", "naptan:AtcoCode": "270000007799", "naptan:Bearing": "S", "naptan:CommonName": "Swan's Lane", "naptan:Indicator": "opp", "naptan:Landmark": "Swan's Lane", "naptan:NaptanCode": "lingmawj", "naptan:Street": "High Street", "naptan:verified": "no", "source": "naptan_import"}}, {"type": "node", "id": 502317789, "lat": 53.0798463, "lon": -0.6313764, "tags": {"highway": "bus_stop", "name": "Swan's Lane", "naptan:AtcoCode": "270000007800", "naptan:Bearing": "N", "naptan:CommonName": "Swan's Lane", "naptan:Indicator": "adj", "naptan:Landmark": "Swan's Lane", "naptan:NaptanCode": "lingmawm", "naptan:Street": "High Street", "naptan:verified": "no", "source": "naptan_import"}}, {"type": "node", "id": 502317793, "lat": 53.0738667, "lon": -0.6336111, "tags": {"highway": "bus_stop", "name": "Broughton House College", "naptan:AtcoCode": "270000007801", "naptan:Bearing": "N", "naptan:CommonName": "Broughton House College", "naptan:Indicator": "adj", "naptan:Landmark": "Broughton House College", "naptan:NaptanCode": "lingmawp", "naptan:Street": "High Street", "naptan:verified": "no", "source": "naptan_import"}}, {"type": "node", "id": 502317797, "lat": 53.0738022, "lon": -0.6334788, "tags": {"highway": "bus_stop", "name": "Broughton House College", "naptan:AtcoCode": "270000007802", "naptan:Bearing": "S", "naptan:CommonName": "Broughton House College", "naptan:Indicator": "opp", "naptan:Landmark": "Broughton House College", "naptan:NaptanCode": "lingmawt", "naptan:Street": "High Street", "naptan:verified": "no", "source": "naptan_import"}}, {"type": "node", "id": 502317799, "lat": 53.0686962, "lon": -0.6366405, "tags": {"highway": "bus_stop", "name": "Stragglethorpe Lane", "naptan:AtcoCode": "270000007803", "naptan:Bearing": "W", "naptan:CommonName": "Stragglethorpe Lane", "naptan:Indicator": "adj", "naptan:Landmark": "Stragglethorpe Lane", "naptan:NaptanCode": "lingmdad", "naptan:Street": "A17", "naptan:verified": "no", "source": "naptan_import"}}, {"type": "node", "id": 502317800, "lat": 53.0688255, "lon": -0.6361588, "tags": {"highway": "bus_stop", "name": "Stragglethorpe Lane", "naptan:AtcoCode": "270000007804", "naptan:Bearing": "E", "naptan:CommonName": "Stragglethorpe Lane", "naptan:Indicator": "opp", "naptan:Landmark": "Stragglethorpe Lane", "naptan:NaptanCode": "lingmdag", "naptan:Street": "A17", "naptan:verified": "no", "source": "naptan_import"}}, {"type": "node", "id": 502320299, "lat": 52.9753121, "lon": -0.5032907, "tags": {"bus": "yes", "highway": "bus_stop", "name": "The Plough Inn", "naptan:AtcoCode": "270000008395", "naptan:Bearing": "W", "naptan:CommonName": "The Plough Inn", "naptan:Indicator": "opp", "naptan:Landmark": "The Plough Inn", "naptan:NaptanCode": "lingpwam", "naptan:Street": "Main Street", "naptan:verified": "no", "public_transport": "platform", "source": "naptan_import"}}, {"type": "node", "id": 502320303, "lat": 52.9779428, "lon": -0.5108854, "tags": {"highway": "bus_stop", "name": "Town End", "naptan:AtcoCode": "270000008396", "naptan:Bearing": "NW", "naptan:CommonName": "Town End", "naptan:Indicator": "NW - bound", "naptan:Landmark": "Town End", "naptan:NaptanCode": "lingpwap", "naptan:Street": "Main Street", "naptan:verified": "no", "source": "naptan_import"}}, {"type": "node", "id": 502320337, "lat": 52.9769797, "lon": -0.5949813, "tags": {"highway": "bus_stop", "name": "Post Office", "naptan:AtcoCode": "270000008407", "naptan:Bearing": "S", "naptan:CommonName": "Post Office", "naptan:Indicator": "SE - bound", "naptan:Landmark": "Post Office", "naptan:NaptanCode": "lingpwgd", "naptan:Street": "Main Street", "naptan:verified": "no", "source": "naptan_import"}}, {"type": "node", "id": 502320341, "lat": 52.9762264, "lon": -0.6004718, "tags": {"highway": "bus_stop", "name": "Main Street", "naptan:AtcoCode": "270000008408", "naptan:Bearing": "SW", "naptan:CommonName": "Main Street", "naptan:Indicator": "adj", "naptan:Landmark": "Main Street", "naptan:NaptanCode": "lingpwgj", "naptan:Street": "Lincoln Road", "naptan:verified": "no", "public_transport": "platform", "source": "naptan_import"}}, {"type": "node", "id": 502320346, "lat": 52.9761122, "lon": -0.6006989, "tags": {"highway": "bus_stop", "name": "Main Street", "naptan:AtcoCode": "270000008409", "naptan:Bearing": "NE", "naptan:CommonName": "Main Street", "naptan:Indicator": "opp", "naptan:Landmark": "Main Street", "naptan:NaptanCode": "lingpwgm", "naptan:Street": "Lincoln Road", "naptan:verified": "no", "source": "naptan_import"}}, {"type": "node", "id": 502320350, "lat": 52.9674888, "lon": -0.6112819, "tags": {"bus": "yes", "highway": "bus_stop", "name": "Playing Field", "naptan:AtcoCode": "270000008410", "naptan:Bearing": "SW", "naptan:CommonName": "Playing Field", "naptan:Indicator": "adj", "naptan:Landmark": "Playing Field", "naptan:NaptanCode": "lingpwgp", "naptan:Street": "Honington Road", "naptan:verified": "no", "public_transport": "platform", "source": "naptan_import"}}, {"type": "node", "id": 502320353, "lat": 52.9675357, "lon": -0.6114442, "tags": {"bus": "yes", "highway": "bus_stop", "name": "Playing Field", "naptan:AtcoCode": "270000008411", "naptan:Bearing": "NE", "naptan:CommonName": "Playing Field", "naptan:Indicator": "opp", "naptan:Landmark": "Playing Field", "naptan:NaptanCode": "lingpwgt", "naptan:Street": "Honington Road", "naptan:verified": "no", "public_transport": "platform", "source": "naptan_import"}}, {"type": "node", "id": 502320357, "lat": 52.9629987, "lon": -0.6140165, "tags": {"bus": "yes", "highway": "bus_stop", "name": "Primary School", "naptan:AtcoCode": "270000008412", "naptan:Bearing": "E", "naptan:CommonName": "Primary School", "naptan:Indicator": "opp", "naptan:Landmark": "Primary School", "naptan:NaptanCode": "lingpwgw", "naptan:Street": "Church Street", "naptan:verified": "no", "public_transport": "platform", "source": "naptan_import"}}, {"type": "node", "id": 502320371, "lat": 52.9629233, "lon": -0.6137211, "tags": {"bus": "yes", "highway": "bus_stop", "name": "Primary School", "naptan:AtcoCode": "270000008413", "naptan:Bearing": "W", "naptan:CommonName": "Primary School", "naptan:Indicator": "o/s", "naptan:Landmark": "Primary School", "naptan:NaptanCode": "lingpwja", "naptan:Street": "Church Street", "naptan:verified": "no", "public_transport": "platform", "source": "naptan_import"}}, {"type": "node", "id": 502320375, "lat": 52.9626778, "lon": -0.6160966, "tags": {"bus": "yes", "highway": "bus_stop", "name": "The Stags PH", "naptan:AtcoCode": "270000008414", "naptan:Bearing": "NE", "naptan:CommonName": "The Stags PH", "naptan:Indicator": "opp", "naptan:Landmark": "The Stags PH", "naptan:NaptanCode": "lingpwjd", "naptan:Street": "Church Street", "naptan:verified": "no", "public_transport": "platform", "source": "naptan_import"}}, {"type": "node", "id": 502320384, "lat": 52.9466475, "lon": -0.6165039, "tags": {"bus": "yes", "highway": "bus_stop", "name": "Washdyke Lane", "naptan:AtcoCode": "270000008416", "naptan:Bearing": "NE", "naptan:BusStopType": "CUS", "naptan:CommonName": "Washdyke Lane", "naptan:Indicator": "adj", "naptan:Landmark": "Washdyke Lane", "naptan:NaptanCode": "lingpwjm", "naptan:Street": "Main Street", "naptan:verified": "no", "public_transport": "platform", "source": "naptan_import"}}, {"type": "node", "id": 502320387, "lat": 52.9453107, "lon": -0.6188941, "tags": {"bus": "yes", "highway": "bus_stop", "name": "Belton Hall Gates", "naptan:AtcoCode": "270000008417", "naptan:Bearing": "SW", "naptan:CommonName": "Belton Hall Gates", "naptan:Indicator": "adj", "naptan:Landmark": "Belton Hall Gates", "naptan:NaptanCode": "lingpwjp", "naptan:Street": "Main Street", "public_transport": "platform", "source": "naptan_import;survey"}}, {"type": "node", "id": 502320392, "lat": 52.930179, "lon": -0.632175, "tags": {"bus": "yes", "highway": "bus_stop", "name": "Low Road", "naptan:AtcoCode": "270000008418", "naptan:Bearing": "NE", "naptan:CommonName": "Low Road", "naptan:Indicator": "opp", "naptan:Landmark": "Low Road", "naptan:NaptanCode": "lingpwjt", "naptan:Street": "High Road", "naptan:verified": "no", "public_transport": "platform", "source": "naptan_import"}}, {"type": "node", "id": 502320395, "lat": 52.9243487, "lon": -0.6388149, "tags": {"bus": "yes", "highway": "bus_stop", "name": "Rushcliffe Road", "naptan:AtcoCode": "270000008419", "naptan:Bearing": "SE", "naptan:CommonName": "Rushcliffe Road", "naptan:Indicator": "opp", "naptan:Landmark": "Rushcliffe Road", "naptan:NaptanCode": "lingpwjw", "naptan:Street": "Sandcliffe Road", "naptan:verified": "no", "public_transport": "platform", "source": "naptan_import"}}, {"type": "node", "id": 502320398, "lat": 52.9246932, "lon": -0.6398454, "tags": {"bus": "yes", "highway": "bus_stop", "name": "Rushcliffe Road", "naptan:AtcoCode": "270000008420", "naptan:Bearing": "NW", "naptan:CommonName": "Rushcliffe Road", "naptan:Indicator": "adj", "naptan:Landmark": "Rushcliffe Road", "naptan:NaptanCode": "lingpwma", "naptan:Street": "Sandcliffe Road", "naptan:verified": "no", "public_transport": "platform", "source": "naptan_import"}}, {"type": "node", "id": 502320403, "lat": 52.9265939, "lon": -0.6433265, "tags": {"bus": "yes", "highway": "bus_stop", "name": "Sandcliff Road", "naptan:AtcoCode": "270000008421", "naptan:Bearing": "NW", "naptan:CommonName": "Sandcliff Road", "naptan:Indicator": "NW - bound", "naptan:Landmark": "Sandcliff Road", "naptan:NaptanCode": "lingpwmd", "naptan:Street": "Northcliff Road", "naptan:verified": "no", "public_transport": "platform", "source": "naptan_import"}}, {"type": "node", "id": 502320406, "lat": 52.9266555, "lon": -0.6432056, "tags": {"bus": "yes", "highway": "bus_stop", "name": "Sandcliff Road", "naptan:AtcoCode": "270000008422", "naptan:Bearing": "SE", "naptan:CommonName": "Sandcliff Road", "naptan:Indicator": "SE - bound", "naptan:Landmark": "Sandcliff Road", "naptan:NaptanCode": "lingpwmg", "naptan:Street": "Northcliff Road", "naptan:verified": "no", "public_transport": "platform", "source": "naptan_import"}}, {"type": "node", "id": 502320410, "lat": 52.9268881, "lon": -0.6454745, "tags": {"bus": "yes", "highway": "bus_stop", "name": "Northcliff Road", "naptan:AtcoCode": "270000008423", "naptan:Bearing": "S", "naptan:CommonName": "Northcliff Road", "naptan:Indicator": "opp", "naptan:Landmark": "Northcliff Road", "naptan:NaptanCode": "lingpwmj", "naptan:Street": "Kingscliffe Road", "naptan:verified": "no", "public_transport": "platform", "source": "naptan_import"}}, {"type": "node", "id": 502320414, "lat": 52.9290535, "lon": -0.6445737, "tags": {"bus": "yes", "highway": "bus_stop", "name": "Oakdale Close", "naptan:AtcoCode": "270000008424", "naptan:Bearing": "SW", "naptan:CommonName": "Oakdale Close", "naptan:Indicator": "adj", "naptan:Landmark": "Oakdale Close", "naptan:NaptanCode": "lingpwmp", "naptan:Street": "Kingscliffe Road", "naptan:verified": "no", "public_transport": "platform", "source": "naptan_import"}}, {"type": "node", "id": 502320418, "lat": 52.9293935, "lon": -0.6444292, "tags": {"bus": "yes", "highway": "bus_stop", "name": "Oakdale Close", "naptan:AtcoCode": "270000008425", "naptan:Bearing": "NE", "naptan:CommonName": "Oakdale Close", "naptan:Indicator": "opp", "naptan:Landmark": "Oakdale Close", "naptan:NaptanCode": "lingpwmt", "naptan:Street": "Kingscliffe Road", "naptan:verified": "no", "public_transport": "platform", "source": "naptan_import"}}, {"type": "node", "id": 502320421, "lat": 52.9296373, "lon": -0.6429487, "tags": {"bus": "yes", "highway": "bus_stop", "name": "Langdale Crescent", "naptan:AtcoCode": "270000008426", "naptan:Bearing": "SE", "naptan:CommonName": "Langdale Crescent", "naptan:Indicator": "adj", "naptan:Landmark": "Langdale Crescent", "naptan:NaptanCode": "lingpwmw", "naptan:Street": "Longcliffe Road", "naptan:verified": "no", "public_transport": "platform", "source": "naptan_import"}}, {"type": "node", "id": 502320422, "lat": 52.9293982, "lon": -0.6424801, "tags": {"bus": "yes", "highway": "bus_stop", "name": "Langdale Crescent", "naptan:AtcoCode": "270000008427", "naptan:Bearing": "NW", "naptan:CommonName": "Langdale Crescent", "naptan:Indicator": "opp", "naptan:Landmark": "Langdale Crescent", "naptan:NaptanCode": "lingpwpa", "naptan:Street": "Longcliffe Road", "naptan:verified": "no", "public_transport": "platform", "source": "naptan_import"}}, {"type": "node", "id": 502320423, "lat": 52.9284848, "lon": -0.6396522, "tags": {"bus": "yes", "highway": "bus_stop", "name": "Dovedale Close", "naptan:AtcoCode": "270000008428", "naptan:Bearing": "NW", "naptan:CommonName": "Dovedale Close", "naptan:Indicator": "adj", "naptan:Landmark": "Dovedale Close", "naptan:NaptanCode": "lingpwpd", "naptan:Street": "Longcliffe Road", "naptan:verified": "no", "public_transport": "platform", "source": "naptan_import"}}, {"type": "node", "id": 502320425, "lat": 52.9285167, "lon": -0.6392941, "tags": {"bus": "yes", "highway": "bus_stop", "name": "Dovedale Close", "naptan:AtcoCode": "270000008429", "naptan:Bearing": "SE", "naptan:CommonName": "Dovedale Close", "naptan:Indicator": "opp", "naptan:Landmark": "Dovedale Close", "naptan:NaptanCode": "lingpwpg", "naptan:Street": "Longcliffe Road", "naptan:verified": "no", "public_transport": "platform", "source": "naptan_import"}}, {"type": "node", "id": 502320429, "lat": 52.9279567, "lon": -0.6374967, "tags": {"bus": "yes", "highway": "bus_stop", "name": "Redcliffe Road", "naptan:AtcoCode": "270000008430", "naptan:Bearing": "SE", "naptan:CommonName": "Redcliffe Road", "naptan:Indicator": "opp", "naptan:Landmark": "Redcliffe Road", "naptan:NaptanCode": "lingpwpj", "naptan:Street": "Longcliffe Road", "naptan:verified": "no", "public_transport": "platform", "source": "naptan_import"}}, {"type": "node", "id": 502320433, "lat": 52.9277282, "lon": -0.6371766, "tags": {"bus": "yes", "highway": "bus_stop", "name": "Redcliffe Road", "naptan:AtcoCode": "270000008431", "naptan:Bearing": "NW", "naptan:CommonName": "Redcliffe Road", "naptan:Indicator": "adj", "naptan:Landmark": "Redcliffe Road", "naptan:NaptanCode": "lingpwpm", "naptan:Street": "Longcliffe Road", "naptan:verified": "no", "public_transport": "platform", "source": "naptan_import"}}, {"type": "node", "id": 502320436, "lat": 52.9269306, "lon": -0.6350445, "tags": {"bus": "yes", "highway": "bus_stop", "name": "Highcliffe Road", "naptan:AtcoCode": "270000008432", "naptan:Bearing": "NW", "naptan:CommonName": "Highcliffe Road", "naptan:Indicator": "adj", "naptan:Landmark": "Highcliffe Road", "naptan:NaptanCode": "lingpwpt", "naptan:Street": "Longcliffe Road", "naptan:verified": "no", "public_transport": "platform", "source": "naptan_import"}}, {"type": "node", "id": 502320440, "lat": 52.9268719, "lon": -0.6346298, "tags": {"bus": "yes", "highway": "bus_stop", "name": "Highcliffe Road", "naptan:AtcoCode": "270000008433", "naptan:Bearing": "SE", "naptan:CommonName": "Highcliffe Road", "naptan:Indicator": "opp", "naptan:Landmark": "Highcliffe Road", "naptan:NaptanCode": "lingpwpw", "naptan:Street": "Longcliffe Road", "naptan:verified": "no", "public_transport": "platform", "source": "naptan_import"}}, {"type": "node", "id": 502320444, "lat": 52.9209993, "lon": -0.6399463, "tags": {"bus": "yes", "highway": "bus_stop", "name": "Hospital", "naptan:AtcoCode": "270000008434", "naptan:Bearing": "S", "naptan:CommonName": "Hospital", "naptan:Indicator": "opp", "naptan:Landmark": "Hospital", "naptan:NaptanCode": "lingpwta", "naptan:Street": "Manthorpe Road", "naptan:verified": "no", "public_transport": "platform", "source": "naptan_import"}}, {"type": "node", "id": 502320448, "lat": 52.9188955, "lon": -0.6367995, "tags": {"bus": "yes", "highway": "bus_stop", "name": "Hill Avenue", "naptan:AtcoCode": "270000008435", "naptan:Bearing": "NE", "naptan:CommonName": "Hill Avenue", "naptan:Indicator": "NE - bound", "naptan:Landmark": "Hill Avenue", "naptan:NaptanCode": "lingpwtd", "naptan:Street": "Belton Lane", "naptan:verified": "no", "public_transport": "platform", "source": "naptan_import"}}, {"type": "node", "id": 502320452, "lat": 52.9201294, "lon": -0.6346485, "tags": {"bus": "yes", "highway": "bus_stop", "name": "Harrowby Lane", "naptan:AtcoCode": "270000008436", "naptan:Bearing": "NE", "naptan:CommonName": "Harrowby Lane", "naptan:Indicator": "opp", "naptan:Landmark": "Harrowby Lane", "naptan:NaptanCode": "lingpwtg", "naptan:Street": "Belton Lane", "naptan:verified": "no", "public_transport": "platform", "source": "naptan_import"}}, {"type": "node", "id": 502320456, "lat": 52.9214395, "lon": -0.6328669, "tags": {"bus": "yes", "highway": "bus_stop", "name": "Tyson Close", "naptan:AtcoCode": "270000008437", "naptan:Bearing": "SW", "naptan:CommonName": "Tyson Close", "naptan:Indicator": "adj", "naptan:Landmark": "Tyson Close", "naptan:NaptanCode": "lingpwtj", "naptan:Street": "Belton Lane", "naptan:verified": "no", "public_transport": "platform", "source": "naptan_import"}}, {"type": "node", "id": 502320459, "lat": 52.9219814, "lon": -0.6322995, "tags": {"bus": "yes", "highway": "bus_stop", "name": "Tyson Close", "naptan:AtcoCode": "270000008438", "naptan:Bearing": "NE", "naptan:CommonName": "Tyson Close", "naptan:Indicator": "opp", "naptan:Landmark": "Tyson Close", "naptan:NaptanCode": "lingpwtm", "naptan:Street": "Belton Lane", "naptan:verified": "no", "public_transport": "platform", "source": "naptan_import"}}, {"type": "node", "id": 502320464, "lat": 52.9238312, "lon": -0.6297718, "tags": {"bus": "yes", "highway": "bus_stop", "name": "The Royal Queen PH", "naptan:AtcoCode": "270000008439", "naptan:Bearing": "NE", "naptan:CommonName": "The Royal Queen PH", "naptan:Indicator": "opp", "naptan:Landmark": "The Royal Queen PH", "naptan:NaptanCode": "lingpwtp", "naptan:Street": "Belton Lane", "naptan:verified": "no", "public_transport": "platform", "source": "naptan_import"}}, {"type": "node", "id": 502320468, "lat": 52.9271773, "lon": -0.6252477, "tags": {"bus": "yes", "highway": "bus_stop", "name": "St Andrews", "naptan:AtcoCode": "270000008440", "naptan:Bearing": "NW", "naptan:CommonName": "St Andrews", "naptan:Indicator": "adj", "naptan:Landmark": "St Andrews", "naptan:NaptanCode": "lingpwtw", "naptan:Street": "Sunningdale", "naptan:verified": "no", "public_transport": "platform", "source": "naptan_import"}}, {"type": "node", "id": 502320472, "lat": 52.9228738, "lon": -0.6270501, "tags": {"bus": "yes", "highway": "bus_stop", "name": "Almond Grove", "naptan:AtcoCode": "270000008441", "naptan:Bearing": "W", "naptan:CommonName": "Almond Grove", "naptan:Indicator": "adj", "naptan:Landmark": "Almond Grove", "naptan:NaptanCode": "lingtada", "naptan:Street": "Princess Drive", "naptan:verified": "no", "public_transport": "platform", "source": "naptan_import"}}, {"type": "node", "id": 502320486, "lat": 52.9230316, "lon": -0.6274765, "tags": {"bus": "yes", "highway": "bus_stop", "name": "Almond Grove", "naptan:AtcoCode": "270000008442", "naptan:Bearing": "E", "naptan:CommonName": "Almond Grove", "naptan:Indicator": "opp", "naptan:Landmark": "Almond Grove", "naptan:NaptanCode": "lingtadg", "naptan:Street": "Princess Drive", "naptan:verified": "no", "public_transport": "platform", "source": "naptan_import"}}, {"type": "node", "id": 502320489, "lat": 52.9237878, "lon": -0.6252361, "tags": {"bus": "yes", "highway": "bus_stop", "name": "Ash Grove", "naptan:AtcoCode": "270000008443", "naptan:Bearing": "SE", "naptan:CommonName": "Ash Grove", "naptan:Indicator": "adj", "naptan:Landmark": "Ash Grove", "naptan:NaptanCode": "lingtadj", "naptan:Street": "Queensway", "naptan:verified": "no", "public_transport": "platform", "source": "naptan_import"}}, {"type": "node", "id": 502320493, "lat": 52.9229378, "lon": -0.6209342, "tags": {"bus": "yes", "highway": "bus_stop", "name": "Hamilton Road", "naptan:AtcoCode": "270000008444", "naptan:Bearing": "SE", "naptan:CommonName": "Hamilton Road", "naptan:Indicator": "opp", "naptan:Landmark": "Hamilton Road", "naptan:NaptanCode": "lingtadm", "naptan:Street": "Queensway", "naptan:verified": "no", "public_transport": "platform", "source": "naptan_import"}}, {"type": "node", "id": 502320497, "lat": 52.9228284, "lon": -0.6208038, "tags": {"bus": "yes", "highway": "bus_stop", "name": "Hamilton Road", "naptan:AtcoCode": "270000008445", "naptan:Bearing": "NW", "naptan:CommonName": "Hamilton Road", "naptan:Indicator": "adj", "naptan:Landmark": "Hamilton Road", "naptan:NaptanCode": "lingtadp", "naptan:Street": "Queensway", "naptan:verified": "no", "public_transport": "platform", "source": "naptan_import"}}, {"type": "node", "id": 502320500, "lat": 52.9214809, "lon": -0.6177973, "tags": {"bus": "yes", "highway": "bus_stop", "name": "Goldsmith Road", "naptan:AtcoCode": "270000008446", "naptan:Bearing": "N", "naptan:CommonName": "Goldsmith Road", "naptan:Indicator": "adj", "naptan:Landmark": "Goldsmith Road", "naptan:NaptanCode": "lingtadt", "naptan:Street": "Edinburgh Road", "naptan:verified": "no", "public_transport": "platform", "source": "naptan_import"}}, {"type": "node", "id": 502320504, "lat": 52.9220737, "lon": -0.6177486, "tags": {"bus": "yes", "highway": "bus_stop", "name": "Canterbury Close", "naptan:AtcoCode": "270000008447", "naptan:Bearing": "SE", "naptan:CommonName": "Canterbury Close", "naptan:Indicator": "adj", "naptan:Landmark": "Canterbury Close", "naptan:NaptanCode": "lingtadw", "naptan:Street": "Queensway", "naptan:verified": "no", "public_transport": "platform", "source": "naptan_import"}}, {"type": "node", "id": 502320508, "lat": 52.9207737, "lon": -0.6172843, "tags": {"bus": "yes", "highway": "bus_stop", "name": "Dryden Close", "naptan:AtcoCode": "270000008448", "naptan:Bearing": "N", "naptan:CommonName": "Dryden Close", "naptan:Indicator": "adj", "naptan:Landmark": "Dryden Close", "naptan:NaptanCode": "lingtaga", "naptan:Street": "Edinburgh Road", "naptan:verified": "no", "public_transport": "platform", "source": "naptan_import"}}, {"type": "node", "id": 502320512, "lat": 52.9193306, "lon": -0.6076471, "tags": {"bus": "yes", "highway": "bus_stop", "name": "Alma Park Road", "naptan:AtcoCode": "270000008449", "naptan:Bearing": "SE", "naptan:CommonName": "Alma Park Road", "naptan:Indicator": "adj", "naptan:Landmark": "Alma Park Road", "naptan:NaptanCode": "lingtagd", "naptan:Street": "Fifth Avenue", "naptan:verified": "no", "public_transport": "platform", "source": "naptan_import"}}, {"type": "node", "id": 502320516, "lat": 52.9177195, "lon": -0.6044266, "tags": {"bus": "yes", "highway": "bus_stop", "name": "Ninth Avenue", "naptan:AtcoCode": "270000008450", "naptan:Bearing": "SW", "naptan:CommonName": "Ninth Avenue", "naptan:Indicator": "opp", "naptan:Landmark": "Ninth Avenue", "naptan:NaptanCode": "lingtagj", "naptan:Street": "Fifth Avenue", "naptan:verified": "no", "public_transport": "platform", "source": "naptan_import"}}, {"type": "node", "id": 502320520, "lat": 52.9156173, "lon": -0.6106962, "tags": {"bus": "yes", "highway": "bus_stop", "name": "Sandringham Drive", "naptan:AtcoCode": "270000008451", "naptan:Bearing": "NE", "naptan:CommonName": "Sandringham Drive", "naptan:Indicator": "adj", "naptan:Landmark": "Sandringham Drive", "naptan:NaptanCode": "lingtagm", "naptan:Street": "Kenilworth Road", "naptan:verified": "no", "public_transport": "platform", "source": "naptan_import"}}, {"type": "node", "id": 502320524, "lat": 52.9178504, "lon": -0.6102231, "tags": {"bus": "yes", "highway": "bus_stop", "name": "Footpath To Windsor Drv", "naptan:AtcoCode": "270000008452", "naptan:Bearing": "N", "naptan:CommonName": "Footpath To Windsor Drv", "naptan:Indicator": "adj", "naptan:Landmark": "Footpath To Windsor Drive", "naptan:NaptanCode": "lingtagp", "naptan:Street": "Kenilworth Road", "naptan:verified": "no", "public_transport": "platform", "source": "naptan_import"}}, {"type": "node", "id": 502320527, "lat": 52.9190908, "lon": -0.6094397, "tags": {"bus": "yes", "highway": "bus_stop", "name": "Belmont Primary School", "naptan:AtcoCode": "270000008453", "naptan:Bearing": "NE", "naptan:CommonName": "Belmont Primary School", "naptan:Indicator": "adj", "naptan:Landmark": "Belmont Primary School", "naptan:NaptanCode": "lingtagt", "naptan:Street": "Kenilworth Road", "naptan:verified": "no", "public_transport": "platform", "source": "naptan_import"}}, {"type": "node", "id": 502320531, "lat": 52.9193699, "lon": -0.6241414, "tags": {"bus": "yes", "highway": "bus_stop", "name": "New Beacon Road", "naptan:AtcoCode": "270000008454", "naptan:Bearing": "W", "naptan:CommonName": "New Beacon Road", "naptan:Indicator": "adj", "naptan:Landmark": "New Beacon Road", "naptan:NaptanCode": "lingtagw", "naptan:Street": "Harrowby Lane", "naptan:verified": "no", "public_transport": "platform", "source": "naptan_import"}}, {"type": "node", "id": 502320535, "lat": 52.9194993, "lon": -0.621341, "tags": {"bus": "yes", "highway": "bus_stop", "name": "Methodist Church", "naptan:AtcoCode": "270000008455", "naptan:Bearing": "W", "naptan:CommonName": "Methodist Church", "naptan:Indicator": "opp", "naptan:Landmark": "Methodist Church", "naptan:NaptanCode": "lingtaja", "naptan:Street": "Harrowby Lane", "naptan:verified": "no", "public_transport": "platform", "source": "naptan_import"}}, {"type": "node", "id": 502320538, "lat": 52.9196906, "lon": -0.6207845, "tags": {"bus": "yes", "highway": "bus_stop", "name": "Methodist Church", "naptan:AtcoCode": "270000008456", "naptan:Bearing": "NE", "naptan:CommonName": "Methodist Church", "naptan:Indicator": "o/s", "naptan:Landmark": "Methodist Church", "naptan:NaptanCode": "lingtajd", "naptan:Street": "Harrowby Lane", "naptan:verified": "no", "public_transport": "platform", "source": "naptan_import"}}, {"type": "node", "id": 502320540, "lat": 52.9199172, "lon": -0.6178471, "tags": {"bus": "yes", "highway": "bus_stop", "name": "Byron Avenue", "naptan:AtcoCode": "270000008457", "naptan:Bearing": "SE", "naptan:CommonName": "Byron Avenue", "naptan:Indicator": "opp", "naptan:Landmark": "Byron Avenue", "naptan:NaptanCode": "lingtajg", "naptan:Street": "Harrowby Lane", "naptan:verified": "no", "public_transport": "platform", "source": "naptan_import"}}, {"type": "node", "id": 502320542, "lat": 52.9197934, "lon": -0.6164825, "tags": {"bus": "yes", "highway": "bus_stop", "name": "Byron Avenue", "naptan:AtcoCode": "270000008458", "naptan:Bearing": "W", "naptan:CommonName": "Byron Avenue", "naptan:Indicator": "adj", "naptan:Landmark": "Byron Avenue", "naptan:NaptanCode": "lingtajm", "naptan:Street": "Harrowby Lane", "naptan:verified": "no", "public_transport": "platform", "source": "naptan_import"}}, {"type": "node", "id": 502320546, "lat": 52.9200198, "lon": -0.6127716, "tags": {"bus": "yes", "highway": "bus_stop", "name": "Tennyson Avenue", "naptan:AtcoCode": "270000008459", "naptan:Bearing": "W", "naptan:CommonName": "Tennyson Avenue", "naptan:Indicator": "adj", "naptan:Landmark": "Tennyson Avenue", "naptan:NaptanCode": "lingtajp", "naptan:Street": "Harrowby Lane", "naptan:verified": "no", "public_transport": "platform", "source": "naptan_import"}}, {"type": "node", "id": 502320553, "lat": 52.9200978, "lon": -0.6125162, "tags": {"bus": "yes", "highway": "bus_stop", "name": "Tennyson Avenue", "naptan:AtcoCode": "270000008460", "naptan:Bearing": "E", "naptan:CommonName": "Tennyson Avenue", "naptan:Indicator": "opp", "naptan:Landmark": "Tennyson Avenue", "naptan:NaptanCode": "lingtajt", "naptan:Street": "Harrowby Lane", "naptan:verified": "no", "public_transport": "platform", "source": "naptan_import"}}, {"type": "node", "id": 502320559, "lat": 52.9187081, "lon": -0.6082323, "tags": {"bus": "yes", "highway": "bus_stop", "name": "Alma Park Road", "naptan:AtcoCode": "270000008461", "naptan:Bearing": "SE", "naptan:CommonName": "Alma Park Road", "naptan:Landmark": "Alma Park Road", "naptan:NaptanCode": "lingtajw", "naptan:Street": "Harrowby Lane", "naptan:verified": "no", "public_transport": "platform", "source": "naptan_import"}}, {"type": "node", "id": 502320566, "lat": 52.9182205, "lon": -0.6367314, "tags": {"bus": "yes", "highway": "bus_stop", "name": "Wyndham Park School", "naptan:AtcoCode": "270000008462", "naptan:Bearing": "NW", "naptan:CommonName": "Wyndham Park School", "naptan:Indicator": "adj", "naptan:Landmark": "Wyndham Park School", "naptan:NaptanCode": "lingtama", "naptan:Street": "Hill Avenue", "naptan:verified": "no", "public_transport": "platform", "source": "naptan_import"}}, {"type": "node", "id": 502320573, "lat": 52.9183836, "lon": -0.6368453, "tags": {"bus": "yes", "highway": "bus_stop", "name": "Wyndham Park School", "naptan:AtcoCode": "270000008463", "naptan:Bearing": "SE", "naptan:CommonName": "Wyndham Park School", "naptan:Indicator": "opp", "naptan:Landmark": "Wyndham Park School", "naptan:NaptanCode": "lingtamd", "naptan:Street": "Hill Avenue", "naptan:verified": "no", "public_transport": "platform", "source": "naptan_import"}}, {"type": "node", "id": 502320580, "lat": 52.9175303, "lon": -0.6322166, "tags": {"bus": "yes", "highway": "bus_stop", "name": "Gorse Rise", "naptan:AtcoCode": "270000008464", "naptan:Bearing": "E", "naptan:CommonName": "Gorse Rise", "naptan:Indicator": "adj", "naptan:Landmark": "Gorse Rise", "naptan:NaptanCode": "lingtamg", "naptan:Street": "Hill Avenue", "naptan:verified": "no", "public_transport": "platform", "source": "naptan_import"}}, {"type": "node", "id": 502320587, "lat": 52.916593, "lon": -0.6288997, "tags": {"bus": "yes", "highway": "bus_stop", "name": "Turnor Crescent", "naptan:AtcoCode": "270000008465", "naptan:Bearing": "SE", "naptan:CommonName": "Turnor Crescent", "naptan:Indicator": "opp", "naptan:Landmark": "Turnor Crescent", "naptan:NaptanCode": "lingtamj", "naptan:Street": "Hill Avenue", "naptan:verified": "no", "public_transport": "platform", "source": "naptan_import"}}, {"type": "node", "id": 502320595, "lat": 52.9164639, "lon": -0.6286212, "tags": {"bus": "yes", "highway": "bus_stop", "name": "Turnor Crescent", "naptan:AtcoCode": "270000008466", "naptan:Bearing": "NW", "naptan:CommonName": "Turnor Crescent", "naptan:Indicator": "adj", "naptan:Landmark": "Turnor Crescent", "naptan:NaptanCode": "lingtamp", "naptan:Street": "Hill Avenue", "naptan:verified": "no", "public_transport": "platform", "source": "naptan_import"}}, {"type": "node", "id": 502320602, "lat": 52.9189026, "lon": -0.6241562, "tags": {"bus": "yes", "highway": "bus_stop", "name": "Sharpe Road", "naptan:AtcoCode": "270000008467", "naptan:Bearing": "NE", "naptan:CommonName": "Sharpe Road", "naptan:Indicator": "adj", "naptan:Landmark": "Sharpe Road", "naptan:NaptanCode": "lingtamt", "naptan:Street": "New Beacon Road", "naptan:verified": "no", "public_transport": "platform", "source": "naptan_import"}}, {"type": "node", "id": 502320606, "lat": 52.9190238, "lon": -0.6237508, "tags": {"bus": "yes", "highway": "bus_stop", "name": "Sharpe Road", "naptan:AtcoCode": "270000008468", "naptan:Bearing": "SW", "naptan:CommonName": "Sharpe Road", "naptan:Indicator": "opp", "naptan:Landmark": "Sharpe Road", "naptan:NaptanCode": "lingtamw", "naptan:Street": "New Beacon Road", "naptan:verified": "no", "public_transport": "platform", "source": "naptan_import"}}, {"type": "node", "id": 502320610, "lat": 52.9175071, "lon": -0.6255391, "tags": {"bus": "yes", "highway": "bus_stop", "name": "Youth Centre", "naptan:AtcoCode": "270000008469", "naptan:Bearing": "SW", "naptan:CommonName": "Youth Centre", "naptan:Indicator": "adj", "naptan:Landmark": "Youth Centre", "naptan:NaptanCode": "lingtapa", "naptan:Street": "New Beacon Road", "naptan:verified": "no", "public_transport": "platform", "source": "naptan_import"}}, {"type": "node", "id": 502320614, "lat": 52.9159527, "lon": -0.6334116, "tags": {"bus": "yes", "highway": "bus_stop", "name": "St Mary's School", "naptan:AtcoCode": "270000008470", "naptan:Bearing": "NE", "naptan:CommonName": "St Mary's School", "naptan:Indicator": "opp", "naptan:Landmark": "St Mary's School", "naptan:NaptanCode": "lingtapd", "naptan:Street": "Sandon Road", "naptan:verified": "no", "public_transport": "platform", "source": "naptan_import"}}, {"type": "node", "id": 502320628, "lat": 52.9104391, "lon": -0.6370948, "tags": {"bus": "yes", "highway": "bus_stop", "name": "Welham Street", "naptan:AtcoCode": "270000008471", "naptan:Bearing": "NE", "naptan:CommonName": "Welham Street", "naptan:Indicator": "adj", "naptan:Landmark": "Welham Street", "naptan:NaptanCode": "lingtapg", "naptan:Street": "St Catherine's Road", "naptan:verified": "no", "public_transport": "platform", "source": "naptan_import"}}, {"type": "node", "id": 502320633, "lat": 52.9103746, "lon": -0.6369629, "tags": {"bus": "yes", "highway": "bus_stop", "name": "Welham Street", "naptan:AtcoCode": "270000008472", "naptan:Bearing": "SW", "naptan:CommonName": "Welham Street", "naptan:Indicator": "opp", "naptan:Landmark": "Welham Street", "naptan:NaptanCode": "lingtapj", "naptan:Street": "St Catherine's Road", "naptan:verified": "no", "public_transport": "platform", "source": "naptan_import"}}, {"type": "node", "id": 502320637, "lat": 52.9043554, "lon": -0.6302972, "tags": {"bus": "yes", "highway": "bus_stop", "name": "Harrowby Road", "naptan:AtcoCode": "270000008473", "naptan:Bearing": "SE", "naptan:CommonName": "Harrowby Road", "naptan:Indicator": "SE - bound", "naptan:Landmark": "Harrowby Road", "naptan:NaptanCode": "lingtapm", "naptan:Street": "Bridge End Road", "naptan:verified": "no", "public_transport": "platform", "source": "naptan_import"}}, {"type": "node", "id": 502320640, "lat": 52.9037222, "lon": -0.6283991, "tags": {"bus": "yes", "highway": "bus_stop", "name": "Somerby Hill Garage", "naptan:AtcoCode": "270000008474", "naptan:Bearing": "SE", "naptan:CommonName": "Somerby Hill Garage", "naptan:Indicator": "o/s", "naptan:Landmark": "Garage", "naptan:NaptanCode": "lingtapt", "naptan:Street": "Somerby Hill", "naptan:verified": "no", "public_transport": "platform", "source": "naptan_import"}}, {"type": "node", "id": 502320644, "lat": 52.9035056, "lon": -0.6283316, "tags": {"bus": "yes", "highway": "bus_stop", "name": "Somerby Hill Garage", "naptan:AtcoCode": "270000008475", "naptan:Bearing": "NW", "naptan:CommonName": "Somerby Hill Garage", "naptan:Indicator": "opp", "naptan:Landmark": "Garage", "naptan:NaptanCode": "lingtapw", "naptan:Street": "Somerby Hill", "naptan:verified": "no", "public_transport": "platform", "source": "naptan_import"}}, {"type": "node", "id": 502320649, "lat": 52.902, "lon": -0.6248554, "tags": {"bus": "yes", "highway": "bus_stop", "name": "Somerby Grove", "naptan:AtcoCode": "270000008476", "naptan:Bearing": "NW", "naptan:CommonName": "Somerby Grove", "naptan:Indicator": "adj", "naptan:Landmark": "Bridge End Road", "naptan:NaptanCode": "lingtata", "naptan:Street": "Somerby Grove", "naptan:verified": "no", "public_transport": "platform", "source": "naptan_import"}}, {"type": "node", "id": 502320654, "lat": 52.9029578, "lon": -0.640898, "tags": {"bus": "yes", "highway": "bus_stop", "name": "Victoria Street", "naptan:AtcoCode": "270000008477", "naptan:Bearing": "W", "naptan:CommonName": "Victoria Street", "naptan:Indicator": "adj", "naptan:Landmark": "Victoria Street", "naptan:NaptanCode": "lingtatd", "naptan:Street": "Springfield Road", "naptan:verified": "no", "public_transport": "platform", "shelter": "no", "source": "naptan_import"}}, {"type": "node", "id": 502320657, "lat": 52.9028956, "lon": -0.6417475, "tags": {"bus": "yes", "highway": "bus_stop", "name": "Victoria Street", "naptan:AtcoCode": "270000008478", "naptan:Bearing": "NE", "naptan:CommonName": "Victoria Street", "naptan:Indicator": "opp", "naptan:Landmark": "Victoria Street", "naptan:NaptanCode": "lingtatg", "naptan:Street": "Springfield Road", "naptan:verified": "no", "public_transport": "platform", "source": "naptan_import"}}, {"type": "node", "id": 502320661, "lat": 52.9014623, "lon": -0.6508767, "tags": {"bus": "yes", "highway": "bus_stop", "name": "Buckminster Gardens", "naptan:AtcoCode": "270000008479", "naptan:Bearing": "SW", "naptan:CommonName": "Buckminster Gardens", "naptan:Indicator": "adj", "naptan:Landmark": "Buckminster Gardens", "naptan:NaptanCode": "lingtatj", "naptan:Street": "Springfield Road", "naptan:verified": "no", "public_transport": "platform", "source": "naptan_import"}}, {"type": "node", "id": 502320665, "lat": 52.8997693, "lon": -0.6522079, "tags": {"bus": "yes", "highway": "bus_stop", "name": "Denton Close", "naptan:AtcoCode": "270000008480", "naptan:Bearing": "NW", "naptan:CommonName": "Denton Close", "naptan:Indicator": "adj", "naptan:Landmark": "Denton Close", "naptan:NaptanCode": "lingtatm", "naptan:Street": "Denton Avenue", "naptan:verified": "no", "public_transport": "platform", "source": "naptan_import"}}, {"type": "node", "id": 502320669, "lat": 52.8996409, "lon": -0.6519889, "tags": {"bus": "yes", "highway": "bus_stop", "name": "Denton Close", "naptan:AtcoCode": "270000008481", "naptan:Bearing": "SE", "naptan:CommonName": "Denton Close", "naptan:Indicator": "opp", "naptan:Landmark": "Denton Close", "naptan:NaptanCode": "lingtatp", "naptan:Street": "Denton Avenue", "naptan:verified": "no", "public_transport": "platform", "source": "naptan_import"}}, {"type": "node", "id": 502320672, "lat": 52.8973507, "lon": -0.6518448, "tags": {"bus": "yes", "highway": "bus_stop", "name": "Hunt Lea Avenue", "naptan:AtcoCode": "270000008482", "naptan:Bearing": "NE", "naptan:CommonName": "Hunt Lea Avenue", "naptan:Indicator": "adj", "naptan:Landmark": "Hunt Lea Avenue", "naptan:NaptanCode": "lingtatw", "naptan:Street": "Denton Avenue", "naptan:verified": "no", "public_transport": "platform", "source": "naptan_import"}}, {"type": "node", "id": 502320676, "lat": 52.897249, "lon": -0.6519442, "tags": {"bus": "yes", "highway": "bus_stop", "name": "Hunt Lea Avenue", "naptan:AtcoCode": "270000008483", "naptan:Bearing": "SW", "naptan:CommonName": "Hunt Lea Avenue", "naptan:Indicator": "opp", "naptan:Landmark": "Hunt Lea Avenue", "naptan:NaptanCode": "lingtawa", "naptan:Street": "Denton Avenue", "naptan:verified": "no", "public_transport": "platform", "source": "naptan_import"}}, {"type": "node", "id": 502320679, "lat": 52.896232, "lon": -0.6558113, "tags": {"bus": "yes", "highway": "bus_stop", "name": "Kitty Briggs Lane", "naptan:AtcoCode": "270000008484", "naptan:Bearing": "NE", "naptan:CommonName": "Kitty Briggs Lane", "naptan:Indicator": "adj", "naptan:Landmark": "Kitty Briggs Lane", "naptan:NaptanCode": "lingtawd", "naptan:Street": "Denton Avenue", "naptan:verified": "no", "public_transport": "platform", "source": "naptan_import"}}, {"type": "node", "id": 502320684, "lat": 52.8961438, "lon": -0.6559627, "tags": {"bus": "yes", "highway": "bus_stop", "name": "Kitty Briggs Lane", "naptan:AtcoCode": "270000008485", "naptan:Bearing": "SW", "naptan:CommonName": "Kitty Briggs Lane", "naptan:Indicator": "opp", "naptan:Landmark": "Kitty Briggs Lane", "naptan:NaptanCode": "lingtawg", "naptan:Street": "Denton Avenue", "naptan:verified": "no", "public_transport": "platform", "source": "naptan_import"}}, {"type": "node", "id": 502320685, "lat": 52.8986013, "lon": -0.6578342, "tags": {"bus": "yes", "highway": "bus_stop", "name": "Bethesda Hall", "naptan:AtcoCode": "270000008486", "naptan:Bearing": "SE", "naptan:CommonName": "Bethesda Hall", "naptan:Indicator": "opp", "naptan:Landmark": "Bethesda Hall", "naptan:NaptanCode": "lingtawj", "naptan:Street": "Kitty Bridge Lane", "naptan:verified": "no", "public_transport": "platform", "source": "naptan_import"}}, {"type": "node", "id": 502320686, "lat": 52.8998884, "lon": -0.6539883, "tags": {"bus": "yes", "highway": "bus_stop", "name": "Fire Station", "naptan:AtcoCode": "270000008487", "naptan:Bearing": "SW", "naptan:CommonName": "Fire Station", "naptan:Indicator": "opp", "naptan:Landmark": "Fire Station", "naptan:NaptanCode": "lingtawm", "naptan:Street": "Harlaxton Road", "naptan:verified": "no", "public_transport": "platform", "source": "naptan_import"}}, {"type": "node", "id": 502320687, "lat": 52.9035469, "lon": -0.6595102, "tags": {"bus": "yes", "highway": "bus_stop", "name": "Stour Court", "naptan:AtcoCode": "270000008488", "naptan:Bearing": "NE", "naptan:CommonName": "Stour Court", "naptan:Indicator": "adj", "naptan:Landmark": "Stour Court", "naptan:NaptanCode": "lingtawp", "naptan:Street": "Goodliff Road", "naptan:verified": "no", "public_transport": "platform", "source": "naptan_import"}}, {"type": "node", "id": 502320689, "lat": 52.9061014, "lon": -0.6580336, "tags": {"bus": "yes", "highway": "bus_stop", "name": "East Avenue", "naptan:AtcoCode": "270000008489", "naptan:Bearing": "N", "naptan:CommonName": "East Avenue", "naptan:Indicator": "adj", "naptan:Landmark": "East Avenue", "naptan:NaptanCode": "lingtawt", "naptan:Street": "Goodliff Road", "naptan:verified": "no", "public_transport": "platform", "source": "naptan_import"}}, {"type": "node", "id": 502320692, "lat": 52.907061, "lon": -0.6578255, "tags": {"bus": "yes", "highway": "bus_stop", "name": "Hillingford Way", "naptan:AtcoCode": "270000008490", "naptan:Bearing": "N", "naptan:CommonName": "Hillingford Way", "naptan:Indicator": "adj", "naptan:Landmark": "Hillingford Way", "naptan:NaptanCode": "lingtdad", "naptan:Street": "Goodliff Road", "naptan:verified": "no", "public_transport": "platform", "source": "naptan_import"}}, {"type": "node", "id": 502320696, "lat": 52.9071308, "lon": -0.6576301, "tags": {"bus": "yes", "highway": "bus_stop", "name": "Hillingford Way", "naptan:AtcoCode": "270000008491", "naptan:Bearing": "S", "naptan:CommonName": "Hillingford Way", "naptan:Indicator": "opp", "naptan:Landmark": "Hillingford Way", "naptan:NaptanCode": "lingtdag", "naptan:Street": "Goodliff Road", "naptan:verified": "no", "public_transport": "platform", "source": "naptan_import"}}, {"type": "node", "id": 502320699, "lat": 52.906861, "lon": -0.6560324, "tags": {"bus": "yes", "highway": "bus_stop", "name": "Avon Close", "naptan:AtcoCode": "270000008492", "naptan:Bearing": "W", "naptan:CommonName": "Avon Close", "naptan:Indicator": "adj", "naptan:Landmark": "Avon Close", "naptan:NaptanCode": "lingtdaj", "naptan:Street": "Foston Road", "naptan:verified": "no", "public_transport": "platform", "source": "naptan_import"}}, {"type": "node", "id": 502320704, "lat": 52.9015808, "lon": -0.6589613, "tags": {"bus": "yes", "highway": "bus_stop", "name": "Muston Road", "naptan:AtcoCode": "270000008493", "naptan:Bearing": "NW", "naptan:CommonName": "Muston Road", "naptan:Indicator": "adj", "naptan:Landmark": "Muston Road", "naptan:NaptanCode": "lingtdam", "naptan:Street": "Hornsby Road", "naptan:verified": "no", "public_transport": "platform", "source": "naptan_import"}}, {"type": "node", "id": 502320707, "lat": 52.9026517, "lon": -0.6622439, "tags": {"bus": "yes", "highway": "bus_stop", "name": "Rose & Castle PH", "naptan:AtcoCode": "270000008494", "naptan:Bearing": "S", "naptan:CommonName": "Rose & Castle PH", "naptan:Indicator": "opp", "naptan:Landmark": "Rose & Castle PH", "naptan:NaptanCode": "lingtdap", "naptan:Street": "Hornsby Road", "naptan:verified": "no", "public_transport": "platform", "source": "naptan_import"}}, {"type": "node", "id": 502320710, "lat": 52.9026444, "lon": -0.6623928, "tags": {"bus": "yes", "highway": "bus_stop", "name": "Rose & Castle PH", "naptan:AtcoCode": "270000008495", "naptan:Bearing": "N", "naptan:CommonName": "Rose & Castle PH", "naptan:Indicator": "adj", "naptan:Landmark": "Rose & Castle PH", "naptan:NaptanCode": "lingtdat", "naptan:Street": "Hornsby Road", "naptan:verified": "no", "public_transport": "platform", "source": "naptan_import"}}, {"type": "node", "id": 502320713, "lat": 52.9100787, "lon": -0.6592023, "tags": {"bus": "yes", "highway": "bus_stop", "name": "Brading Avenue", "naptan:AtcoCode": "270000008496", "naptan:Bearing": "NE", "naptan:CommonName": "Brading Avenue", "naptan:Indicator": "adj", "naptan:Landmark": "Brading Avenue", "naptan:NaptanCode": "lingtdaw", "naptan:Street": "Dysart Road", "naptan:verified": "no", "public_transport": "platform", "shelter": "yes", "source": "naptan_import"}}, {"type": "node", "id": 502320716, "lat": 52.9098456, "lon": -0.662394, "tags": {"bus": "yes", "highway": "bus_stop", "name": "The Avenue", "naptan:AtcoCode": "270000008497", "naptan:Bearing": "E", "naptan:CommonName": "The Avenue", "naptan:Indicator": "opp", "naptan:Landmark": "The Avenue", "naptan:NaptanCode": "lingtdga", "naptan:Street": "Dysart Road", "naptan:verified": "no", "public_transport": "platform", "source": "naptan_import"}}, {"type": "node", "id": 502320720, "lat": 52.9097078, "lon": -0.6669339, "tags": {"bus": "yes", "highway": "bus_stop", "name": "Barrowby Gate", "naptan:AtcoCode": "270000008498", "naptan:Bearing": "W", "naptan:CommonName": "Barrowby Gate", "naptan:Indicator": "opp", "naptan:Landmark": "Barrowby Gate", "naptan:NaptanCode": "lingtdgd", "naptan:Street": "Dysart Road", "naptan:verified": "no", "public_transport": "platform", "source": "naptan_import"}}, {"type": "node", "id": 502320723, "lat": 52.909797, "lon": -0.6668717, "tags": {"bus": "yes", "highway": "bus_stop", "name": "Barrowby Gate", "naptan:AtcoCode": "270000008499", "naptan:Bearing": "E", "naptan:CommonName": "Barrowby Gate", "naptan:Indicator": "adj", "naptan:Landmark": "Barrowby Gate", "naptan:NaptanCode": "lingtdgj", "naptan:Street": "Dysart Road", "naptan:verified": "no", "public_transport": "platform", "source": "naptan_import"}}, {"type": "node", "id": 502320736, "lat": 52.9105701, "lon": -0.6684689, "tags": {"bus": "yes", "highway": "bus_stop", "name": "High Meadow", "naptan:AtcoCode": "270000008500", "naptan:Bearing": "NW", "naptan:CommonName": "High Meadow", "naptan:Indicator": "NW - bound", "naptan:Landmark": "High Meadow", "naptan:NaptanCode": "lingtdgm", "naptan:Street": "Barrowby Gate", "naptan:verified": "no", "public_transport": "platform", "source": "naptan_import"}}, {"type": "node", "id": 502320740, "lat": 52.910658, "lon": -0.6682878, "tags": {"bus": "yes", "highway": "bus_stop", "name": "High Meadow", "naptan:AtcoCode": "270000008501", "naptan:Bearing": "SE", "naptan:CommonName": "High Meadow", "naptan:Indicator": "SE - bound", "naptan:Landmark": "High Meadow", "naptan:NaptanCode": "lingtdgp", "naptan:Street": "Barrowby Gate", "naptan:verified": "no", "public_transport": "platform", "source": "naptan_import"}}, {"type": "node", "id": 502320744, "lat": 52.9098147, "lon": -0.6716596, "tags": {"bus": "yes", "highway": "bus_stop", "name": "Valley Road", "naptan:AtcoCode": "270000008502", "naptan:Bearing": "E", "naptan:CommonName": "Valley Road", "naptan:Indicator": "adj", "naptan:Landmark": "Valley Road", "naptan:NaptanCode": "lingtdgt", "naptan:Street": "Dysart Road", "naptan:verified": "no", "public_transport": "platform", "source": "naptan_import"}}, {"type": "node", "id": 502320748, "lat": 52.9097119, "lon": -0.6713058, "tags": {"bus": "yes", "highway": "bus_stop", "name": "Valley Road", "naptan:AtcoCode": "270000008503", "naptan:Bearing": "W", "naptan:CommonName": "Valley Road", "naptan:Indicator": "opp", "naptan:Landmark": "Valley Road", "naptan:NaptanCode": "lingtdgw", "naptan:Street": "Dysart Road", "naptan:verified": "no", "public_transport": "platform", "source": "naptan_import"}}, {"type": "node", "id": 502320752, "lat": 52.9174213, "lon": -0.6919969, "tags": {"bus": "yes", "highway": "bus_stop", "name": "The White Swan PH", "naptan:AtcoCode": "270000008504", "naptan:Bearing": "E", "naptan:CommonName": "The White Swan PH", "naptan:Indicator": "E - bound", "naptan:Landmark": "The White Swan PH", "naptan:NaptanCode": "lingtdja", "naptan:Street": "High Road", "naptan:verified": "no", "public_transport": "platform", "source": "naptan_import"}}, {"type": "node", "id": 502320756, "lat": 52.9174078, "lon": -0.6883235, "tags": {"bus": "yes", "highway": "bus_stop", "name": "Butt Lane", "naptan:AtcoCode": "270000008505", "naptan:Bearing": "E", "naptan:CommonName": "Butt Lane", "naptan:Indicator": "adj", "naptan:Landmark": "Butt Lane", "naptan:NaptanCode": "lingtdjd", "naptan:Street": "High Road", "naptan:verified": "no", "public_transport": "platform", "source": "naptan_import"}}, {"type": "node", "id": 502320760, "lat": 52.9173231, "lon": -0.687984, "tags": {"bus": "yes", "highway": "bus_stop", "name": "Butt Lane", "naptan:AtcoCode": "270000008506", "naptan:Bearing": "W", "naptan:CommonName": "Butt Lane", "naptan:Indicator": "opp", "naptan:Landmark": "Butt Lane", "naptan:NaptanCode": "lingtdjg", "naptan:Street": "High Road", "naptan:verified": "no", "public_transport": "platform", "source": "naptan_import"}}, {"type": "node", "id": 502320763, "lat": 52.9172731, "lon": -0.6842671, "tags": {"bus": "yes", "highway": "bus_stop", "name": "Reeding Road", "naptan:AtcoCode": "270000008507", "naptan:Bearing": "E", "naptan:CommonName": "Reeding Road", "naptan:Indicator": "opp", "naptan:Landmark": "Reeding Road", "naptan:NaptanCode": "lingtdjm", "naptan:Street": "High Road", "naptan:verified": "no", "public_transport": "platform", "source": "naptan_import"}}, {"type": "node", "id": 502320767, "lat": 52.9172049, "lon": -0.6846113, "tags": {"bus": "yes", "highway": "bus_stop", "name": "Reeding Road", "naptan:AtcoCode": "270000008508", "naptan:Bearing": "W", "naptan:BusStopType": "CUS", "naptan:CommonName": "Reeding Road", "naptan:Indicator": "adj", "naptan:Landmark": "Reeding Road", "naptan:NaptanCode": "lingtdjp", "naptan:Street": "High Road", "naptan:verified": "no", "public_transport": "platform", "source": "naptan_import"}}, {"type": "node", "id": 502320771, "lat": 52.9153324, "lon": -0.6835675, "tags": {"bus": "yes", "highway": "bus_stop", "name": "Reedings Close", "naptan:AtcoCode": "270000008509", "naptan:Bearing": "S", "naptan:CommonName": "Reedings Close", "naptan:Indicator": "adj", "naptan:Landmark": "Reedings Close", "naptan:NaptanCode": "lingtdjt", "naptan:Street": "Reeding Road", "naptan:verified": "no", "public_transport": "platform", "source": "naptan_import"}}, {"type": "node", "id": 502320789, "lat": 52.9135844, "lon": -0.6832189, "tags": {"bus": "yes", "highway": "bus_stop", "name": "Leys Close", "naptan:AtcoCode": "270000008510", "naptan:Bearing": "SE", "naptan:CommonName": "Leys Close", "naptan:Indicator": "adj", "naptan:Landmark": "Leys Close", "naptan:NaptanCode": "lingtdjw", "naptan:Street": "Reedings Road", "naptan:verified": "no", "public_transport": "platform", "source": "naptan_import"}}, {"type": "node", "id": 502320794, "lat": 52.9104756, "lon": -0.6882504, "tags": {"bus": "yes", "highway": "bus_stop", "name": "Westry Corner", "naptan:AtcoCode": "270000008511", "naptan:Bearing": "NW", "naptan:CommonName": "Westry Corner", "naptan:Indicator": "NW - bound", "naptan:Landmark": "Westry Corner", "naptan:NaptanCode": "lingtdma", "naptan:Street": "Low Road", "naptan:verified": "no", "public_transport": "platform", "source": "naptan_import"}}, {"type": "node", "id": 502320800, "lat": 52.9169413, "lon": -0.6602121, "tags": {"bus": "yes", "highway": "bus_stop", "name": "Newton House Nursing Home", "naptan:AtcoCode": "270000008512", "naptan:Bearing": "E", "naptan:CommonName": "Newton House Nursing Home", "naptan:Indicator": "adj", "naptan:Landmark": "Newton House Nursing Home", "naptan:NaptanCode": "lingtdmd", "naptan:Street": "Barrowby Road", "naptan:verified": "no", "public_transport": "platform", "source": "naptan_import"}}, {"type": "node", "id": 502320806, "lat": 52.9168514, "lon": -0.6602149, "tags": {"bus": "yes", "highway": "bus_stop", "name": "Newton House Nursing Home", "naptan:AtcoCode": "270000008513", "naptan:Bearing": "W", "naptan:CommonName": "Newton House Nursing Home", "naptan:Indicator": "opp", "naptan:Landmark": "Newton House Nursing Home", "naptan:NaptanCode": "lingtdmg", "naptan:Street": "Barrowby Road", "naptan:verified": "no", "public_transport": "platform", "source": "naptan_import"}}, {"type": "node", "id": 502320809, "lat": 52.9251784, "lon": -0.6548255, "tags": {"bus": "yes", "highway": "bus_stop", "name": "2 Stephenson Avenue", "naptan:AtcoCode": "270000008514", "naptan:Bearing": "SW", "naptan:CommonName": "2 Stephenson Avenue", "naptan:Indicator": "adj", "naptan:Landmark": "Number 2", "naptan:NaptanCode": "lingtdmj", "naptan:Street": "Stephenson Avenue", "naptan:verified": "no", "public_transport": "platform", "source": "naptan_import"}}, {"type": "node", "id": 502320811, "lat": 52.9252692, "lon": -0.6549119, "tags": {"bus": "yes", "highway": "bus_stop", "name": "2 Stephenson Avenue", "naptan:AtcoCode": "270000008515", "naptan:Bearing": "NE", "naptan:CommonName": "2 Stephenson Avenue", "naptan:Indicator": "opp", "naptan:Landmark": "Number 2", "naptan:NaptanCode": "lingtdmp", "naptan:Street": "Stephenson Avenue", "naptan:verified": "no", "public_transport": "platform", "source": "naptan_import"}}, {"type": "node", "id": 502320814, "lat": 52.9269756, "lon": -0.6531631, "tags": {"bus": "yes", "highway": "bus_stop", "name": "Vale Road", "naptan:AtcoCode": "270000008516", "naptan:Bearing": "NE", "naptan:CommonName": "Vale Road", "naptan:Indicator": "adj", "naptan:Landmark": "Vale Road", "naptan:NaptanCode": "lingtdmt", "naptan:Street": "Stephenson Avenue", "naptan:verified": "no", "public_transport": "platform", "source": "naptan_import"}}, {"type": "node", "id": 502320817, "lat": 52.9284692, "lon": -0.6509, "tags": {"bus": "yes", "highway": "bus_stop", "name": "Ostler Close", "naptan:AtcoCode": "270000008517", "naptan:Bearing": "NE", "naptan:CommonName": "Ostler Close", "naptan:Indicator": "adj", "naptan:Landmark": "Ostler Close", "naptan:NaptanCode": "lingtdmw", "naptan:Street": "Stephenson Avenue", "naptan:verified": "no", "public_transport": "platform", "source": "naptan_import"}}, {"type": "node", "id": 502320821, "lat": 52.9285652, "lon": -0.6506441, "tags": {"bus": "yes", "highway": "bus_stop", "name": "Ostler Close", "naptan:AtcoCode": "270000008518", "naptan:Bearing": "SW", "naptan:CommonName": "Ostler Close", "naptan:Indicator": "opp", "naptan:Landmark": "Ostler Close", "naptan:NaptanCode": "lingtdpa", "naptan:Street": "Stephenson Avenue", "naptan:verified": "no", "public_transport": "platform", "source": "naptan_import"}}, {"type": "node", "id": 502320826, "lat": 52.929656, "lon": -0.6516962, "tags": {"bus": "yes", "highway": "bus_stop", "name": "Beaumont Drive", "naptan:AtcoCode": "270000008519", "naptan:Bearing": "SW", "naptan:CommonName": "Beaumont Drive", "naptan:Indicator": "opp", "naptan:Landmark": "Beaumont Drive", "naptan:NaptanCode": "lingtdpd", "naptan:Street": "Cliffe Road", "naptan:verified": "no", "public_transport": "platform", "source": "naptan_import"}}, {"type": "node", "id": 502320829, "lat": 52.9294265, "lon": -0.6520753, "tags": {"bus": "yes", "highway": "bus_stop", "name": "Beaumont Drive", "naptan:AtcoCode": "270000008520", "naptan:Bearing": "NE", "naptan:CommonName": "Beaumont Drive", "naptan:Indicator": "adj", "naptan:Landmark": "Beaumont Drive", "naptan:NaptanCode": "lingtdpg", "naptan:Street": "Cliffe Road", "naptan:verified": "no", "public_transport": "platform", "source": "naptan_import"}}, {"type": "node", "id": 502320832, "lat": 52.9283874, "lon": -0.6531936, "tags": {"bus": "yes", "highway": "bus_stop", "name": "Arnold Avenue", "naptan:AtcoCode": "270000008521", "naptan:Bearing": "SW", "naptan:CommonName": "Arnold Avenue", "naptan:Indicator": "opp", "naptan:Landmark": "Arnold Avenue", "naptan:NaptanCode": "lingtdpj", "naptan:Street": "Cliffe Road", "naptan:verified": "no", "public_transport": "platform", "source": "naptan_import"}}, {"type": "node", "id": 502320833, "lat": 52.9281955, "lon": -0.6537203, "tags": {"bus": "yes", "highway": "bus_stop", "name": "Arnold Avenue", "naptan:AtcoCode": "270000008522", "naptan:Bearing": "NE", "naptan:CommonName": "Arnold Avenue", "naptan:Indicator": "adj", "naptan:Landmark": "Arnold Avenue", "naptan:NaptanCode": "lingtdpm", "naptan:Street": "Cliffe Road", "naptan:verified": "no", "public_transport": "platform", "source": "naptan_import"}}, {"type": "node", "id": 502320834, "lat": 52.9262935, "lon": -0.6556537, "tags": {"bus": "yes", "highway": "bus_stop", "name": "18 Cliffe Road", "naptan:AtcoCode": "270000008523", "naptan:Bearing": "SW", "naptan:CommonName": "18 Cliffe Road", "naptan:Indicator": "adj", "naptan:Landmark": "Number 18", "naptan:NaptanCode": "lingtdpt", "naptan:Street": "Cliffe Road", "naptan:verified": "no", "public_transport": "platform", "source": "naptan_import"}}, {"type": "node", "id": 502320835, "lat": 52.935411, "lon": -0.6669476, "tags": {"bus": "yes", "highway": "bus_stop", "name": "Green Street", "naptan:AtcoCode": "270000008524", "naptan:Bearing": "N", "naptan:CommonName": "Green Street", "naptan:Indicator": "adj", "naptan:Landmark": "Green Street", "naptan:NaptanCode": "lingtdpw", "naptan:Street": "High Street", "naptan:verified": "no", "public_transport": "platform", "source": "naptan_import"}}, {"type": "node", "id": 502320838, "lat": 52.9336953, "lon": -0.6670747, "tags": {"bus": "yes", "highway": "bus_stop", "name": "High Street", "naptan:AtcoCode": "270000008525", "naptan:Bearing": "NW", "naptan:CommonName": "High Street", "naptan:Landmark": "High Street", "naptan:NaptanCode": "lingtdta", "naptan:Street": "Pond Street", "naptan:verified": "no", "public_transport": "platform", "source": "naptan_import"}}, {"type": "node", "id": 502320840, "lat": 52.9348046, "lon": -0.6705968, "tags": {"bus": "yes", "highway": "bus_stop", "name": "Spring End", "naptan:AtcoCode": "270000008526", "naptan:Bearing": "N", "naptan:CommonName": "Spring End", "naptan:Landmark": "Spring End", "naptan:NaptanCode": "lingtdtd", "naptan:Street": "Green Street", "naptan:verified": "no", "public_transport": "platform", "source": "naptan_import"}}, {"type": "node", "id": 502320843, "lat": 52.9334806, "lon": -0.6663671, "tags": {"bus": "yes", "highway": "bus_stop", "name": "Primary School", "naptan:AtcoCode": "270000008527", "naptan:Bearing": "NW", "naptan:CommonName": "Primary School", "naptan:Indicator": "opp", "naptan:Landmark": "Primary School", "naptan:NaptanCode": "lingtdtg", "naptan:Street": "High Street", "naptan:verified": "no", "public_transport": "platform", "source": "naptan_import"}}, {"type": "node", "id": 502320846, "lat": 52.9319282, "lon": -0.6642277, "tags": {"bus": "yes", "highway": "bus_stop", "name": "The Knoll", "naptan:AtcoCode": "270000008528", "naptan:Bearing": "SE", "naptan:CommonName": "The Knoll", "naptan:Indicator": "opp", "naptan:Landmark": "The Knoll", "naptan:NaptanCode": "lingtdtj", "naptan:Street": "Grantham Road", "naptan:verified": "no", "public_transport": "platform", "source": "naptan_import"}}, {"type": "node", "id": 502320848, "lat": 52.9314147, "lon": -0.6633359, "tags": {"bus": "yes", "highway": "bus_stop", "name": "The Knoll", "naptan:AtcoCode": "270000008529", "naptan:Bearing": "NW", "naptan:CommonName": "The Knoll", "naptan:Indicator": "adj", "naptan:Landmark": "The Knoll", "naptan:NaptanCode": "lingtdtm", "naptan:Street": "Grantham Road", "naptan:verified": "no", "public_transport": "platform", "source": "naptan_import"}}, {"type": "node", "id": 502320851, "lat": 52.9272923, "lon": -0.6589106, "tags": {"bus": "yes", "highway": "bus_stop", "name": "Orchard Close", "naptan:AtcoCode": "270000008530", "naptan:Bearing": "SE", "naptan:CommonName": "Orchard Close", "naptan:Indicator": "adj", "naptan:Landmark": "Orchard Close", "naptan:NaptanCode": "lingtdtp", "naptan:Street": "Gonerby Road", "naptan:verified": "no", "public_transport": "platform", "source": "naptan_import"}}, {"type": "node", "id": 502320854, "lat": 52.9270217, "lon": -0.6588297, "tags": {"bus": "yes", "highway": "bus_stop", "name": "Orchard Close", "naptan:AtcoCode": "270000008531", "naptan:Bearing": "NW", "naptan:CommonName": "Orchard Close", "naptan:Indicator": "opp", "naptan:Landmark": "Orchard Close", "naptan:NaptanCode": "lingtdtw", "naptan:Street": "Gonerby Road", "naptan:verified": "no", "public_transport": "platform", "source": "naptan_import"}}, {"type": "node", "id": 502320856, "lat": 52.9254999, "lon": -0.6562288, "tags": {"bus": "yes", "highway": "bus_stop", "name": "Cliffe Avenue", "naptan:AtcoCode": "270000008532", "naptan:Bearing": "SE", "naptan:CommonName": "Cliffe Avenue", "naptan:Indicator": "adj", "naptan:Landmark": "Cliffe Avenue", "naptan:NaptanCode": "lingtdwa", "naptan:Street": "Gonerby Road", "naptan:verified": "no", "public_transport": "platform", "source": "naptan_import"}}, {"type": "node", "id": 502320859, "lat": 52.9222723, "lon": -0.6498729, "tags": {"bus": "yes", "highway": "bus_stop", "name": "Playing Fields", "naptan:AtcoCode": "270000008533", "naptan:Bearing": "SE", "naptan:CommonName": "Playing Fields", "naptan:Indicator": "adj", "naptan:Landmark": "Playing Fields", "naptan:NaptanCode": "lingtdwd", "naptan:Street": "Gonerby Road", "naptan:verified": "no", "public_transport": "platform", "source": "naptan_import"}}, {"type": "node", "id": 502320861, "lat": 52.9222016, "lon": -0.6499792, "tags": {"bus": "yes", "highway": "bus_stop", "name": "Playing Fields", "naptan:AtcoCode": "270000008534", "naptan:Bearing": "NW", "naptan:CommonName": "Playing Fields", "naptan:Indicator": "opp", "naptan:Landmark": "Playing Fields", "naptan:NaptanCode": "lingtdwg", "naptan:Street": "Gonerby Road", "naptan:verified": "no", "public_transport": "platform", "source": "naptan_import"}}, {"type": "node", "id": 502320863, "lat": 52.9173559, "lon": -0.6405216, "tags": {"bus": "yes", "highway": "bus_stop", "name": "Slate Mill Place", "naptan:AtcoCode": "270000008535", "naptan:Bearing": "NE", "naptan:CommonName": "Slate Mill Place", "naptan:Indicator": "opp", "naptan:Landmark": "Slate Mill Place", "naptan:NaptanCode": "lingtdwj", "naptan:Street": "Manthorpe Road", "naptan:verified": "no", "public_transport": "platform", "source": "naptan_import"}}, {"type": "node", "id": 502320866, "lat": 52.9018046, "lon": -0.6517285, "tags": {"bus": "yes", "highway": "bus_stop", "name": "Public House", "naptan:AtcoCode": "270000008536", "naptan:Bearing": "SW", "naptan:CommonName": "Public House", "naptan:Landmark": "Public House", "naptan:NaptanCode": "lingtdwm", "naptan:Street": "Harlaxton Road", "naptan:verified": "no", "public_transport": "platform", "shelter": "yes"}}, {"type": "node", "id": 502320868, "lat": 52.9046283, "lon": -0.6502133, "tags": {"bus": "yes", "highway": "bus_stop", "name": "Magistrates Court", "naptan:AtcoCode": "270000008537", "naptan:Bearing": "SW", "naptan:CommonName": "Magistrates Court", "naptan:Indicator": "adj", "naptan:Landmark": "Magistrates Court", "naptan:NaptanCode": "lingtdwp", "naptan:Street": "Harlaxton Road", "naptan:verified": "no", "public_transport": "platform", "source": "naptan_import"}}, {"type": "node", "id": 502320870, "lat": 52.9051225, "lon": -0.6501831, "tags": {"bus": "yes", "highway": "bus_stop", "name": "Magistrates Court", "naptan:AtcoCode": "270000008538", "naptan:Bearing": "NE", "naptan:CommonName": "Magistrates Court", "naptan:Indicator": "opp", "naptan:Landmark": "Magistrates Court", "naptan:NaptanCode": "lingtdwt", "naptan:Street": "Harlaxton Road", "naptan:verified": "no", "public_transport": "platform", "source": "naptan_import"}}, {"type": "node", "id": 502320872, "lat": 52.9146365, "lon": -0.6456486, "tags": {"bus": "yes", "highway": "bus_stop", "name": "Asda", "naptan:AtcoCode": "270000008539", "naptan:Bearing": "NE", "naptan:CommonName": "Asda", "naptan:Landmark": "Asda", "naptan:NaptanCode": "lingtgad", "naptan:Street": "Union Street", "naptan:verified": "no", "public_transport": "platform", "source": "naptan_import"}}, {"type": "node", "id": 502320873, "lat": 52.914046, "lon": -0.6435403, "tags": {"bus": "yes", "highway": "bus_stop", "name": "Vine Street", "naptan:AtcoCode": "270000008540", "naptan:Bearing": "NW", "naptan:CommonName": "Vine Street", "naptan:Indicator": "opp", "naptan:Landmark": "Vine Street", "naptan:NaptanCode": "lingtgag", "naptan:Street": "Watergate", "naptan:verified": "no", "public_transport": "platform", "source": "naptan_import"}}, {"type": "node", "id": 502320874, "lat": 52.9037608, "lon": -0.6356539, "tags": {"bus": "yes", "highway": "bus_stop", "name": "Springfield Road", "naptan:AtcoCode": "270000008541", "naptan:Bearing": "SE", "naptan:CommonName": "Springfield Road", "naptan:Indicator": "opp", "naptan:Landmark": "Springfield Road", "naptan:NaptanCode": "lingtgaj", "naptan:Street": "South Parade", "naptan:verified": "no", "public_transport": "platform", "source": "naptan_import"}}, {"type": "node", "id": 502320876, "lat": 52.9035364, "lon": -0.6356907, "tags": {"bus": "yes", "highway": "bus_stop", "name": "Springfield Road", "naptan:AtcoCode": "270000008542", "naptan:Bearing": "NW", "naptan:CommonName": "Springfield Road", "naptan:Indicator": "adj", "naptan:Landmark": "Springfield Road", "naptan:NaptanCode": "lingtgam", "naptan:Street": "South Parade", "naptan:verified": "no", "public_transport": "platform", "source": "naptan_import"}}, {"type": "node", "id": 502320879, "lat": 52.8941679, "lon": -0.6340673, "tags": {"bus": "yes", "highway": "bus_stop", "name": "Mobile Homes Park", "naptan:AtcoCode": "270000008543", "naptan:Bearing": "N", "naptan:CommonName": "Mobile Homes Park", "naptan:Indicator": "adj", "naptan:Landmark": "Mobile Homes Park", "naptan:NaptanCode": "lingtgap", "naptan:Street": "B1174", "naptan:verified": "no", "public_transport": "platform", "source": "naptan_import"}}, {"type": "node", "id": 502320883, "lat": 52.8939856, "lon": -0.63385, "tags": {"bus": "yes", "highway": "bus_stop", "name": "Mobile Homes Park", "naptan:AtcoCode": "270000008544", "naptan:Bearing": "S", "naptan:CommonName": "Mobile Homes Park", "naptan:Indicator": "opp", "naptan:Landmark": "Mobile Homes Park", "naptan:NaptanCode": "lingtgat", "naptan:Street": "B1174", "naptan:verified": "no", "public_transport": "platform", "source": "naptan_import"}}, {"type": "node", "id": 502320886, "lat": 52.9079645, "lon": -0.6384662, "tags": {"bus": "yes", "highway": "bus_stop", "name": "The Barley Mow PH", "naptan:AtcoCode": "270000008545", "naptan:Bearing": "NW", "naptan:CommonName": "The Barley Mow PH", "naptan:Landmark": "The Barley Mow PH", "naptan:NaptanCode": "lingtgaw", "naptan:Street": "London Road", "naptan:verified": "no", "public_transport": "platform", "source": "naptan_import"}}, {"type": "node", "id": 502320888, "lat": 52.9112115, "lon": -0.6416783, "tags": {"bench": "yes", "bus": "yes", "highway": "bus_stop", "name": "Boots", "naptan:AtcoCode": "270000008546", "naptan:Bearing": "NW", "naptan:CommonName": "Boots", "naptan:Indicator": "o/s", "naptan:Landmark": "Boots", "naptan:NaptanCode": "lingtgda", "naptan:Street": "St Peter's Hill", "naptan:verified": "no", "public_transport": "platform", "shelter": "yes", "source": "naptan_import", "tactile_paving": "no"}}, {"type": "node", "id": 502320890, "lat": 52.887258, "lon": -0.6886245, "tags": {"bus": "yes", "highway": "bus_stop", "name": "Gregory Arms PH", "naptan:AtcoCode": "270000008547", "naptan:Bearing": "SW", "naptan:CommonName": "Gregory Arms PH", "naptan:Indicator": "opp", "naptan:Landmark": "Gregory Arms PH", "naptan:NaptanCode": "lingtgdg", "naptan:Street": "A607", "naptan:verified": "no", "public_transport": "platform", "source": "naptan_import"}}, {"type": "node", "id": 502320891, "lat": 52.8848067, "lon": -0.6946137, "tags": {"bus": "yes", "highway": "bus_stop", "name": "Rectory Lane", "naptan:AtcoCode": "270000008548", "naptan:Bearing": "NE", "naptan:CommonName": "Rectory Lane", "naptan:Indicator": "NE - bound", "naptan:Landmark": "Rectory Lane", "naptan:NaptanCode": "lingtgdj", "naptan:Street": "A607", "naptan:verified": "no", "public_transport": "platform", "source": "naptan_import"}}, {"type": "node", "id": 502320894, "lat": 52.8801189, "lon": -0.7090653, "tags": {"bus": "yes", "highway": "bus_stop", "name": "The Laurels", "naptan:AtcoCode": "270000008550", "naptan:Bearing": "N", "naptan:CommonName": "The Laurels", "naptan:Indicator": "o/s", "naptan:Landmark": "The Laurels", "naptan:NaptanCode": "lingtgdp", "naptan:Street": "Main Street", "naptan:verified": "no", "public_transport": "platform", "source": "naptan_import"}}, {"type": "node", "id": 502320895, "lat": 52.8830709, "lon": -0.7101814, "tags": {"bus": "yes", "highway": "bus_stop", "name": "Hungate Road", "naptan:AtcoCode": "270000008551", "naptan:Bearing": "NW", "naptan:CommonName": "Hungate Road", "naptan:Indicator": "adj", "naptan:Landmark": "Hungate Road", "naptan:NaptanCode": "lingtgdt", "naptan:Street": "Main Street", "naptan:verified": "no", "public_transport": "platform", "source": "naptan_import"}}, {"type": "node", "id": 502320896, "lat": 52.8832323, "lon": -0.7101469, "tags": {"bus": "yes", "highway": "bus_stop", "name": "Hungate Road", "naptan:AtcoCode": "270000008552", "naptan:Bearing": "SE", "naptan:CommonName": "Hungate Road", "naptan:Indicator": "opp", "naptan:Landmark": "Hungate Road", "naptan:NaptanCode": "lingtgdw", "naptan:Street": "Main Street", "naptan:verified": "no", "public_transport": "platform", "source": "naptan_import"}}, {"type": "node", "id": 502320897, "lat": 52.8922687, "lon": -0.7590628, "tags": {"bus": "yes", "highway": "bus_stop", "name": "Cobleas", "naptan:AtcoCode": "270000008553", "naptan:Bearing": "N", "naptan:CommonName": "Cobleas", "naptan:Indicator": "adj", "naptan:Landmark": "Cobleas", "naptan:NaptanCode": "lingtgja", "naptan:Street": "Village Street", "naptan:verified": "no", "public_transport": "platform", "source": "naptan_import"}}, {"type": "node", "id": 502320898, "lat": 52.8979195, "lon": -0.757106, "tags": {"bus": "yes", "highway": "bus_stop", "name": "Worthington Lane", "naptan:AtcoCode": "270000008554", "naptan:Bearing": "N", "naptan:CommonName": "Worthington Lane", "naptan:Indicator": "adj", "naptan:Landmark": "Worthington Lane", "naptan:NaptanCode": "lingtgjd", "naptan:Street": "Village Street", "naptan:verified": "no", "public_transport": "platform", "source": "naptan_import"}}, {"type": "node", "id": 502320899, "lat": 52.9529622, "lon": -0.7203239, "tags": {"bus": "yes", "highway": "bus_stop", "name": "Back Lane", "naptan:AtcoCode": "270000008555", "naptan:Bearing": "SE", "naptan:CommonName": "Back Lane", "naptan:Indicator": "opp", "naptan:Landmark": "Back Lane", "naptan:NaptanCode": "lingtgjg", "naptan:Street": "Gonerby Lane", "naptan:verified": "no", "public_transport": "platform", "source": "naptan_import"}}, {"type": "node", "id": 502320900, "lat": 52.9529472, "lon": -0.7206072, "tags": {"bus": "yes", "highway": "bus_stop", "name": "Back Lane", "naptan:AtcoCode": "270000008556", "naptan:Bearing": "NW", "naptan:BusStopType": "CUS", "naptan:CommonName": "Back Lane", "naptan:Indicator": "adj", "naptan:Landmark": "Back Lane", "naptan:NaptanCode": "lingtgjm", "naptan:Street": "Gonerby Lane", "naptan:verified": "no", "public_transport": "platform", "source": "naptan_import"}}, {"type": "node", "id": 502320902, "lat": 52.9944428, "lon": -0.7585229, "tags": {"bus": "yes", "highway": "bus_stop", "name": "Village Hall", "naptan:AtcoCode": "270000008557", "naptan:Bearing": "S", "naptan:CommonName": "Village Hall", "naptan:Indicator": "opp", "naptan:Landmark": "Village Hall", "naptan:NaptanCode": "lingtgjp", "naptan:Street": "Main Road", "naptan:verified": "no", "public_transport": "platform", "source": "naptan_import"}}, {"type": "node", "id": 502320903, "lat": 52.9911006, "lon": -0.7569948, "tags": {"bus": "yes", "highway": "bus_stop", "name": "The Reindeer PH", "naptan:AtcoCode": "270000008558", "naptan:Bearing": "NW", "naptan:CommonName": "The Reindeer PH", "naptan:Indicator": "opp", "naptan:Landmark": "The Reindeer PH", "naptan:NaptanCode": "lingtgjt", "naptan:Street": "Main Road", "naptan:verified": "no", "public_transport": "platform", "source": "naptan_import"}}, {"type": "node", "id": 502320904, "lat": 52.991116, "lon": -0.756756, "tags": {"bus": "yes", "highway": "bus_stop", "name": "The Reindeer PH", "naptan:AtcoCode": "270000008559", "naptan:Bearing": "SE", "naptan:CommonName": "The Reindeer PH", "naptan:Indicator": "adj", "naptan:Landmark": "The Reindeer PH", "naptan:NaptanCode": "lingtgjw", "naptan:Street": "Main Road", "naptan:verified": "no", "public_transport": "platform", "source": "naptan_import"}}, {"type": "node", "id": 502320905, "lat": 52.9759195, "lon": -0.7233542, "tags": {"bus": "yes", "highway": "bus_stop", "name": "Chapel Lane", "naptan:AtcoCode": "270000008560", "naptan:Bearing": "N", "naptan:CommonName": "Chapel Lane", "naptan:Indicator": "N - bound", "naptan:Landmark": "Chapel Lane", "naptan:NaptanCode": "lingtgma", "naptan:Street": "Main Street", "naptan:verified": "no", "public_transport": "platform", "source": "naptan_import"}}, {"type": "node", "id": 502320906, "lat": 52.9935698, "lon": -0.5891832, "tags": {"highway": "bus_stop", "name": "St Nicholas Church", "naptan:AtcoCode": "270000008561", "naptan:Bearing": "SW", "naptan:CommonName": "St Nicholas Church", "naptan:Indicator": "opp", "naptan:Landmark": "St Nicholas Church", "naptan:NaptanCode": "lingtgmd", "naptan:Street": "Main Street", "naptan:verified": "yes", "public_transport": "platform", "source": "naptan_import"}}, {"type": "node", "id": 502320907, "lat": 52.9982697, "lon": -0.5829651, "tags": {"highway": "bus_stop", "name": "Newark Lane", "naptan:AtcoCode": "270000008562", "naptan:Bearing": "SE", "naptan:CommonName": "Newark Lane", "naptan:Indicator": "opp", "naptan:Landmark": "Newark Lane", "naptan:NaptanCode": "lingtgmg", "naptan:Street": "Main Street", "naptan:verified": "no", "public_transport": "platform", "source": "naptan_import"}}, {"type": "node", "id": 502320908, "lat": 52.9982536, "lon": -0.5831295, "tags": {"highway": "bus_stop", "name": "Newark Lane", "naptan:AtcoCode": "270000008563", "naptan:Bearing": "NW", "naptan:CommonName": "Newark Lane", "naptan:Indicator": "adj", "naptan:Landmark": "Newark Lane", "naptan:NaptanCode": "lingtgmj", "naptan:Street": "Main Street", "naptan:verified": "no", "source": "naptan_import"}}, {"type": "node", "id": 502320909, "lat": 53.0064519, "lon": -0.5868405, "tags": {"highway": "bus_stop", "name": "Village Pump", "naptan:AtcoCode": "270000008564", "naptan:Bearing": "S", "naptan:CommonName": "Village Pump", "naptan:Indicator": "opp", "naptan:Landmark": "Village Pump", "naptan:NaptanCode": "lingtgmp", "naptan:Street": "Main Street", "naptan:verified": "no", "public_transport": "platform", "source": "naptan_import"}}, {"type": "node", "id": 502320910, "lat": 53.0179881, "lon": -0.5976298, "tags": {"highway": "bus_stop", "name": "Hough Road", "naptan:AtcoCode": "270000008565", "naptan:Bearing": "SE", "naptan:CommonName": "Hough Road", "naptan:Indicator": "opp", "naptan:Landmark": "Hough Road", "naptan:NaptanCode": "lingtgmt", "naptan:Street": "Lincoln Road", "naptan:verified": "no", "public_transport": "platform", "source": "naptan_import"}}, {"type": "node", "id": 502320912, "lat": 53.0178181, "lon": -0.5976949, "tags": {"highway": "bus_stop", "name": "Hough Road", "naptan:AtcoCode": "270000008566", "naptan:Bearing": "NW", "naptan:CommonName": "Hough Road", "naptan:Indicator": "adj", "naptan:Landmark": "Hough Road", "naptan:NaptanCode": "lingtgmw", "naptan:Street": "Lincoln Road", "naptan:verified": "no", "source": "naptan_import"}}, {"type": "node", "id": 502320913, "lat": 53.0234948, "lon": -0.6026101, "tags": {"highway": "bus_stop", "name": "Eastcliffe Square", "naptan:AtcoCode": "270000008567", "naptan:Bearing": "S", "naptan:CommonName": "Eastcliffe Square", "naptan:Indicator": "adj", "naptan:Landmark": "Eastcliffe Square", "naptan:NaptanCode": "lingtgpa", "naptan:Street": "High Street", "naptan:verified": "no", "public_transport": "platform", "source": "naptan_import"}}, {"type": "node", "id": 502320914, "lat": 53.0252562, "lon": -0.6025531, "tags": {"highway": "bus_stop", "name": "Red Lion PH", "naptan:AtcoCode": "270000008568", "naptan:Bearing": "NE", "naptan:CommonName": "Red Lion PH", "naptan:Indicator": "opp", "naptan:Landmark": "Red Lion PH", "naptan:NaptanCode": "lingtgpd", "naptan:Street": "High Street", "naptan:verified": "no", "source": "naptan_import"}}, {"type": "node", "id": 502320915, "lat": 53.0443605, "lon": -0.5855334, "tags": {"highway": "bus_stop", "name": "Fulbeck House", "naptan:AtcoCode": "270000008569", "naptan:Bearing": "SW", "naptan:CommonName": "Fulbeck House", "naptan:Indicator": "opp", "naptan:Landmark": "Fulbeck House", "naptan:NaptanCode": "lingtgpg", "naptan:Street": "Cliff Road", "naptan:verified": "no", "public_transport": "platform", "source": "naptan_import"}}, {"type": "node", "id": 502320916, "lat": 53.0443227, "lon": -0.5856915, "tags": {"highway": "bus_stop", "name": "Fulbeck House", "naptan:AtcoCode": "270000008570", "naptan:Bearing": "NE", "naptan:CommonName": "Fulbeck House", "naptan:Indicator": "adj", "naptan:Landmark": "Fulbeck House", "naptan:NaptanCode": "lingtgpj", "naptan:Street": "Cliff Road", "naptan:verified": "no", "source": "naptan_import"}}, {"type": "node", "id": 502320917, "lat": 53.0629995, "lon": -0.5762598, "tags": {"highway": "bus_stop", "name": "North Road", "naptan:AtcoCode": "270000008571", "naptan:Bearing": "NE", "naptan:CommonName": "North Road", "naptan:Indicator": "adj", "naptan:Landmark": "North Road", "naptan:NaptanCode": "lingtgpm", "naptan:Street": "Cliff Road", "naptan:verified": "no", "source": "naptan_import"}}, {"type": "node", "id": 502320919, "lat": 53.0628298, "lon": -0.5763549, "tags": {"highway": "bus_stop", "name": "North Road", "naptan:AtcoCode": "270000008572", "naptan:Bearing": "SW", "naptan:CommonName": "North Road", "naptan:Indicator": "opp", "naptan:Landmark": "North Road", "naptan:NaptanCode": "lingtgpt", "naptan:Street": "Cliff Road", "naptan:verified": "no", "public_transport": "platform", "source": "naptan_import"}}, {"type": "node", "id": 502320920, "lat": 53.073705, "lon": -0.5589489, "tags": {"highway": "bus_stop", "name": "Hall Lane Green", "naptan:AtcoCode": "270000008573", "naptan:Bearing": "N", "naptan:CommonName": "Hall Lane Green", "naptan:Indicator": "adj", "naptan:Landmark": "Green", "naptan:NaptanCode": "lingtgpw", "naptan:Street": "Hall Lane", "naptan:verified": "no", "source": "naptan_import"}}, {"type": "node", "id": 502320922, "lat": 53.0736941, "lon": -0.5587851, "tags": {"highway": "bus_stop", "name": "Hall Lane Green", "naptan:AtcoCode": "270000008574", "naptan:Bearing": "S", "naptan:CommonName": "Hall Lane Green", "naptan:Indicator": "opp", "naptan:Landmark": "Green", "naptan:NaptanCode": "lingtgta", "naptan:Street": "Hall Lane", "naptan:verified": "no", "public_transport": "platform", "source": "naptan_import"}}, {"type": "node", "id": 502320927, "lat": 52.7627558, "lon": -0.628624, "tags": {"bus": "yes", "highway": "bus_stop", "name": "Post Office", "naptan:AtcoCode": "270000008579", "naptan:Bearing": "N", "naptan:CommonName": "Post Office", "naptan:Indicator": "adj", "naptan:Landmark": "Post Office", "naptan:NaptanCode": "lingtgtp", "naptan:Street": "Water Lane", "naptan:verified": "no", "public_transport": "platform", "source": "naptan_import"}}, {"type": "node", "id": 502320928, "lat": 52.7627185, "lon": -0.6285066, "tags": {"bus": "yes", "highway": "bus_stop", "name": "Post Office", "naptan:AtcoCode": "270000008580", "naptan:Bearing": "S", "naptan:CommonName": "Post Office", "naptan:Indicator": "opp", "naptan:Landmark": "Post Office", "naptan:NaptanCode": "lingtgtw", "naptan:Street": "Water Lane", "naptan:verified": "no", "public_transport": "platform", "source": "naptan_import"}}, {"type": "node", "id": 502320930, "lat": 52.7685958, "lon": -0.6275214, "tags": {"bus": "yes", "highway": "bus_stop", "name": "Cemetery", "naptan:AtcoCode": "270000008581", "naptan:Bearing": "N", "naptan:CommonName": "Cemetery", "naptan:Indicator": "adj", "naptan:Landmark": "Cemetery", "naptan:NaptanCode": "lingtgwa", "naptan:Street": "North Witham Road", "naptan:verified": "no", "public_transport": "platform", "source": "naptan_import"}}, {"type": "node", "id": 502320931, "lat": 52.7687381, "lon": -0.6273835, "tags": {"bus": "yes", "highway": "bus_stop", "name": "Cemetery", "naptan:AtcoCode": "270000008582", "naptan:Bearing": "S", "naptan:CommonName": "Cemetery", "naptan:Indicator": "opp", "naptan:Landmark": "Cemetery", "naptan:NaptanCode": "lingtgwd", "naptan:Street": "North Witham Road", "naptan:verified": "no", "public_transport": "platform", "source": "naptan_import"}}, {"type": "node", "id": 502320932, "lat": 52.768702, "lon": -0.6328248, "tags": {"bus": "yes", "highway": "bus_stop", "name": "Footpath To Playground", "naptan:AtcoCode": "270000008583", "naptan:Bearing": "W", "naptan:CommonName": "Footpath To Playground", "naptan:Indicator": "adj", "naptan:Landmark": "Footpath To Playground", "naptan:NaptanCode": "lingtgwg", "naptan:Street": "Moor Lane", "naptan:verified": "yes", "public_transport": "platform", "source": "naptan_import"}}, {"type": "node", "id": 502320933, "lat": 52.7680477, "lon": -0.6353354, "tags": {"bus": "yes", "highway": "bus_stop", "name": "Unwin Green", "naptan:AtcoCode": "270000008584", "naptan:Bearing": "SE", "naptan:CommonName": "Unwin Green", "naptan:Indicator": "adj", "naptan:Landmark": "Unwin Green", "naptan:NaptanCode": "lingtgwj", "naptan:Street": "Templars Way", "naptan:verified": "no", "public_transport": "platform", "source": "naptan_import"}}, {"type": "node", "id": 502320934, "lat": 52.7867008, "lon": -0.6289239, "tags": {"bus": "yes", "highway": "bus_stop", "name": "Gunby Road", "naptan:AtcoCode": "270000008585", "naptan:Bearing": "N", "naptan:CommonName": "Gunby Road", "naptan:Indicator": "adj", "naptan:Landmark": "Gunby Road", "naptan:NaptanCode": "lingtgwm", "naptan:Street": "Old Post Lane", "naptan:verified": "no", "public_transport": "platform", "source": "naptan_import"}}, {"type": "node", "id": 502320935, "lat": 52.7866452, "lon": -0.6287774, "tags": {"bus": "yes", "highway": "bus_stop", "name": "Gunby Road", "naptan:AtcoCode": "270000008586", "naptan:Bearing": "S", "naptan:CommonName": "Gunby Road", "naptan:Indicator": "opp", "naptan:Landmark": "Gunby Road", "naptan:NaptanCode": "lingtgwp", "naptan:Street": "Old Post Lane", "naptan:verified": "no", "public_transport": "platform", "source": "naptan_import"}}, {"type": "node", "id": 502320936, "lat": 52.786239, "lon": -0.629413, "tags": {"bus": "yes", "highway": "bus_stop", "name": "Hall", "naptan:AtcoCode": "270000008587", "naptan:Bearing": "SW", "naptan:CommonName": "Hall", "naptan:Indicator": "opp", "naptan:Landmark": "Hall", "naptan:NaptanCode": "lingtgwt", "naptan:Street": "Gunby Road", "naptan:verified": "no", "public_transport": "platform", "source": "naptan_import"}},