{"version": 0.6, "generator": "Overpass API 0.7.62.5 1bd436f1", "osm3s": {"timestamp_osm_base": "2025-04-09T15:08:45Z", "copyright": "The data included in this document is from www.openstreetmap.org. The data is made available under ODbL."}, "elements": [{"type": "node", "id": 43401074, "lat": 52.4978134, "lon": 0.1778063, "tags": {"addr:city": "March", "addr:country": "GB", "addr:postcode": "PE15 0HG", "addr:street": "Station Road", "name": "Manea", "naptan:AtcoCode": "9100MANEA", "network": "National Rail", "network:website": "https://www.nationalrail.co.uk/stations/mne/", "network:wikidata": "Q26334", "public_transport": "station", "railway": "station", "ref:crs": "MNE", "source": "OS_OpenData_StreetView", "wikidata": "Q2486636", "wikipedia": "en:Manea railway station"}}, {"type": "node", "id": 49247569, "lat": 52.4474224, "lon": 0.5343584, "tags": {"name": "Lakenheath", "naptan:AtcoCode": "9100LAKNHTH", "network": "National Rail", "network:website": "https://www.nationalrail.co.uk/stations/lak/", "network:wikidata": "Q26334", "public_transport": "station", "railway": "station", "ref:crs": "LAK", "request_stop": "yes", "source": "NPE", "wikidata": "Q2579323", "wikipedia": "en:Lakenheath railway station"}}, {"type": "node", "id": 71948729, "lat": 52.6041596, "lon": 0.3656086, "tags": {"name": "Downham Market", "naptan:AtcoCode": "9100DOWNHAM", "network": "National Rail", "network:website": "https://www.nationalrail.co.uk/stations/dow/", "network:wikidata": "Q26334", "public_transport": "station", "railway": "station", "ref:crs": "DOW", "train": "yes", "wikidata": "Q980263", "wikipedia": "en:Downham Market railway station"}}, {"type": "node", "id": 98001419, "lat": 52.5495767, "lon": -0.1180869, "tags": {"name": "Whittlesea", "naptan:AtcoCode": "9100WHTLSEA", "network": "National Rail", "network:website": "https://www.nationalrail.co.uk/stations/wle/", "network:wikidata": "Q26334", "nickname": "Whittlesey", "note": "station name really _is_ spelled differently friom the town!", "public_transport": "station", "railway": "station", "ref:crs": "WLE", "source": "survey", "train": "yes", "wikidata": "Q2123705", "wikipedia": "en:Whittlesea railway station"}}, {"type": "node", "id": 255378119, "lat": 52.4138207, "lon": 0.2757796, "tags": {"created_by": "JOSM", "highway": "bus_stop"}}, {"type": "node", "id": 273917294, "lat": 52.5368677, "lon": 0.08635, "tags": {"bus": "yes", "highway": "bus_stop", "public_transport": "platform", "source": "survey"}}, {"type": "node", "id": 303201650, "lat": 52.3816541, "lon": 0.0088285, "tags": {"bus": "yes", "highway": "bus_stop", "operator": "Go Whippet", "public_transport": "platform", "shelter": "yes"}}, {"type": "node", "id": 303201654, "lat": 52.3807197, "lon": 0.0036862, "tags": {"bus": "yes", "highway": "bus_stop", "operator": "Go Whippet", "public_transport": "platform", "source": "survey"}}, {"type": "node", "id": 305549761, "lat": 52.35377, "lon": 0.0316119, "tags": {"bus": "yes", "highway": "bus_stop", "name": "Chapel Lane", "naptan:AtcoCode": "0500HEARI007", "naptan:Bearing": "W", "naptan:CommonName": "Chapel Lane", "naptan:Indicator": "opp", "naptan:Landmark": "Chapel Lane", "naptan:NaptanCode": "cmbdmwgw", "naptan:ShortCommonName": "Chapel Lane", "naptan:Street": "High Street", "naptan:verified": "no", "note": "15A and 15 stop here.", "operator": "Stagecoach", "public_transport": "platform", "shelter": "no", "source": "survey;naptan_import"}}, {"type": "node", "id": 312413149, "lat": 52.3865061, "lon": 0.0001672, "tags": {"bus": "yes", "highway": "bus_stop", "name": "Coronation Avenue", "naptan:AtcoCode": "0500HSOME011", "naptan:Bearing": "N", "naptan:CommonName": "Coronation Avenue", "naptan:Indicator": "opp", "naptan:Landmark": "Coronation Avenue", "naptan:NaptanCode": "cmbdpwaj", "naptan:ShortCommonName": "Coronation Avenue", "naptan:Street": "Parkhall Road", "naptan:verified": "no", "note": "Shares pole with Stagecoach sign.;15 stops here.", "operator": "Stagecoach;Go Whippet;whippet", "public_transport": "platform", "source": "survey;naptan_import"}}, {"type": "node", "id": 312413504, "lat": 52.3828473, "lon": -0.0030139, "tags": {"bus": "yes", "highway": "bus_stop", "note": "Shares pole with Stagecoach sign.", "operator": "Go Whippet", "public_transport": "platform", "source": "survey"}}, {"type": "node", "id": 312413505, "lat": 52.3828333, "lon": -0.0030112, "tags": {"bus": "yes", "highway": "bus_stop", "note": "15 stops here.", "operator": "Stagecoach", "public_transport": "platform"}}, {"type": "node", "id": 312413506, "lat": 52.3827365, "lon": -0.0030507, "tags": {"bus": "yes", "highway": "bus_stop", "note": "15 stops here.", "operator": "Stagecoach", "public_transport": "platform", "source": "survey"}}, {"type": "node", "id": 391990896, "lat": 52.5936459, "lon": 0.3736805, "tags": {"highway": "bus_stop", "name": "green, adj", "naptan:AtcoCode": "2900D1771", "naptan:Bearing": "N", "naptan:CommonName": "green", "naptan:Indicator": "adj", "naptan:Locality": "Downham Market", "naptan:NaptanCode": "nfogpajd", "naptan:Street": "Greenwich Close", "naptan:verified": "no", "source": "naptan_import"}}, {"type": "node", "id": 391990919, "lat": 52.5941644, "lon": 0.3736742, "tags": {"highway": "bus_stop", "name": "Harebell Road, nr", "naptan:AtcoCode": "2900D1763", "naptan:Bearing": "SE", "naptan:CommonName": "Harebell Road", "naptan:Indicator": "nr", "naptan:Landmark": "os 45", "naptan:Locality": "Downham Market", "naptan:NaptanCode": "nfogmjwm", "naptan:Street": "Greenwich Close", "naptan:verified": "no", "source": "naptan_import"}}, {"type": "node", "id": 410286119, "lat": 52.6087784, "lon": 0.377611, "tags": {"bus": "yes", "highway": "bus_stop", "name": "Grimshoe Road, adj", "naptan:AtcoCode": "2900D1772", "naptan:Bearing": "N", "naptan:CommonName": "Grimshoe Road", "naptan:Indicator": "adj", "naptan:Landmark": "Grimshoe Road", "naptan:Locality": "Downham Market", "naptan:NaptanCode": "nfogmpap", "naptan:ShortCommonName": "Grimshoe Road", "naptan:Street": "Wimbotsham Road", "naptan:verified": "no", "public_transport": "platform", "source": "naptan_import"}}, {"type": "node", "id": 410286466, "lat": 52.609951, "lon": 0.3788561, "tags": {"alt_name": "Clackclose- Wimbotsham Road opp Gallow Drive", "bus": "yes", "highway": "bus_stop", "name": "Gallow Drive, opp", "naptan:AltCommonName": "Clackclose- Wimbotsham Road opp Gallow Drive", "naptan:AtcoCode": "2900D179", "naptan:Bearing": "SW", "naptan:CommonName": "Gallow Drive", "naptan:Indicator": "opp", "naptan:Landmark": "Gallow Drive", "naptan:Locality": "Downham Market", "naptan:NaptanCode": "nfoapagw", "naptan:Street": "Wimbotsham Road", "naptan:verified": "no", "public_transport": "platform", "source": "naptan_import"}}, {"type": "node", "id": 410286486, "lat": 52.6101762, "lon": 0.3789584, "tags": {"bus": "yes", "highway": "bus_stop", "name": "Gallow Drive, adj", "naptan:AtcoCode": "2900D1759", "naptan:Bearing": "NE", "naptan:CommonName": "Gallow Drive", "naptan:Indicator": "adj", "naptan:Locality": "Downham Market", "naptan:NaptanCode": "nfogmdad", "naptan:Street": "Wimbotsham Road", "naptan:verified": "no", "public_transport": "platform", "source": "naptan_import"}}, {"type": "node", "id": 410286608, "lat": 52.6074068, "lon": 0.3892049, "tags": {"bus": "yes", "highway": "bus_stop", "name": "Lancaster Crescent, W-bound", "naptan:AtcoCode": "2900D174", "naptan:Bearing": "W", "naptan:CommonName": "Lancaster Crescent", "naptan:Indicator": "W-bound", "naptan:Locality": "Downham Market", "naptan:NaptanCode": "nfoapadt", "naptan:Street": "Retreat Estate", "naptan:verified": "no", "public_transport": "platform", "source": "naptan_import"}}, {"type": "node", "id": 410286621, "lat": 52.6085729, "lon": 0.3900412, "tags": {"bus": "yes", "highway": "bus_stop", "name": "Stirling Close, adj", "naptan:AtcoCode": "2900D1741", "naptan:Bearing": "E", "naptan:CommonName": "Stirling Close", "naptan:Indicator": "adj", "naptan:Landmark": "Stirling Close", "naptan:Locality": "Downham Market", "naptan:NaptanCode": "nfogmwmg", "naptan:Street": "Retreat Estate", "naptan:verified": "no", "public_transport": "platform", "source": "naptan_import"}}, {"type": "node", "id": 410286625, "lat": 52.6082816, "lon": 0.3851228, "tags": {"bus": "yes", "highway": "bus_stop", "name": "The Firs, adj", "naptan:AtcoCode": "2900D1729", "naptan:Bearing": "SW", "naptan:CommonName": "The Firs", "naptan:Indicator": "adj", "naptan:Landmark": "public house", "naptan:Locality": "Downham Market", "naptan:NaptanCode": "nfoamwtg", "naptan:ShortCommonName": "The Firs", "naptan:Street": "Lynn Road", "naptan:verified": "no", "public_transport": "platform", "source": "naptan_import"}}, {"type": "node", "id": 410286628, "lat": 52.6087138, "lon": 0.3856147, "tags": {"bus": "yes", "highway": "bus_stop", "name": "The Firs, opp", "naptan:AtcoCode": "2900D1768", "naptan:Bearing": "NE", "naptan:CommonName": "The Firs", "naptan:Indicator": "opp", "naptan:Landmark": "public house", "naptan:Locality": "Downham Market", "naptan:NaptanCode": "nfogmpaj", "naptan:ShortCommonName": "The Firs", "naptan:Street": "Downham Market Lynn Road", "naptan:verified": "no", "public_transport": "platform", "source": "naptan_import"}}, {"type": "node", "id": 410286724, "lat": 52.6076767, "lon": 0.3834864, "tags": {"bus": "yes", "highway": "bus_stop", "name": "Civray Avenue, opp", "naptan:AtcoCode": "2900D1730", "naptan:Bearing": "NE", "naptan:CommonName": "Civray Avenue", "naptan:Indicator": "opp", "naptan:Landmark": "Civray Avenue", "naptan:Locality": "Downham Market", "naptan:NaptanCode": "nfoamwtj", "naptan:ShortCommonName": "Civray Avenue", "naptan:Street": "Lynn Road", "naptan:verified": "no", "public_transport": "platform", "source": "naptan_import"}}, {"type": "node", "id": 410286772, "lat": 52.6020799, "lon": 0.3785797, "tags": {"bus": "yes", "highway": "bus_stop", "name": "Howdale Road, opp", "naptan:AtcoCode": "2900D175", "naptan:Bearing": "NE", "naptan:CommonName": "Howdale Road", "naptan:Indicator": "opp", "naptan:Landmark": "Howdale Road", "naptan:Locality": "Downham Market", "naptan:NaptanCode": "nfoapagd", "naptan:Street": "Church Road", "public_transport": "platform", "shelter": "no", "source": "naptan_import;survey"}}, {"type": "node", "id": 410286773, "lat": 52.6020794, "lon": 0.378779, "tags": {"bus": "yes", "highway": "bus_stop", "name": "Court House, adj", "naptan:AtcoCode": "2900D1717", "naptan:Bearing": "S", "naptan:CommonName": "Court House", "naptan:Indicator": "adj", "naptan:Landmark": "Court House", "naptan:Locality": "Downham Market", "naptan:NaptanCode": "nfoamwmp", "naptan:Street": "Church Road", "naptan:verified": "no", "public_transport": "platform", "source": "naptan_import"}}, {"type": "node", "id": 430364263, "lat": 52.7596883, "lon": 0.4002597, "tags": {"bus": "yes", "highway": "bus_stop", "name": "Burkitt Street, opp", "naptan:AtcoCode": "2900K13778", "naptan:Bearing": "W", "naptan:CommonName": "Burkitt Street", "naptan:Indicator": "opp", "naptan:Landmark": "Burkitt Street", "naptan:Locality": "North Lynn", "naptan:NaptanCode": "nfogpgjg", "naptan:PlusbusZoneRef": "KLYNN", "naptan:Street": "Loke Road", "naptan:verified": "no", "public_transport": "platform", "source": "naptan_import"}}, {"type": "node", "id": 430364264, "lat": 52.7597605, "lon": 0.400285, "tags": {"bus": "yes", "highway": "bus_stop", "name": "Burkitt Street, adj", "naptan:AtcoCode": "2900K13777", "naptan:Bearing": "E", "naptan:CommonName": "Burkitt Street", "naptan:Indicator": "adj", "naptan:Locality": "North Lynn", "naptan:NaptanCode": "nfogpgjd", "naptan:PlusbusZoneRef": "KLYNN", "naptan:Street": "Loke Road", "naptan:verified": "no", "public_transport": "platform", "source": "naptan_import"}}, {"type": "node", "id": 430364298, "lat": 52.7593016, "lon": 0.4045876, "tags": {"bus": "yes", "highway": "bus_stop", "name": "Townsend Terrace, adj", "naptan:AtcoCode": "2900K1376", "naptan:Bearing": "E", "naptan:CommonName": "Townsend Terrace", "naptan:Indicator": "adj", "naptan:Locality": "North Lynn", "naptan:NaptanCode": "nfodatag", "naptan:PlusbusZoneRef": "KLYNN", "naptan:Street": "Loke Road", "naptan:verified": "no", "public_transport": "platform", "source": "naptan_import"}}, {"type": "node", "id": 430364336, "lat": 52.7622807, "lon": 0.4063621, "tags": {"bus": "yes", "highway": "bus_stop", "public_transport": "platform"}}, {"type": "node", "id": 430364362, "lat": 52.7628698, "lon": 0.4050487, "tags": {"bus": "yes", "highway": "bus_stop", "name": "Turbus Road, adj", "naptan:AtcoCode": "2900K1404", "naptan:Bearing": "NW", "naptan:CommonName": "Turbus Road", "naptan:Indicator": "adj", "naptan:Locality": "North Lynn", "naptan:NaptanCode": "nfogptpt", "naptan:PlusbusZoneRef": "KLYNN", "naptan:Street": "Losinga Road", "naptan:verified": "no", "public_transport": "platform", "source": "naptan_import"}}, {"type": "node", "id": 430364371, "lat": 52.7643739, "lon": 0.4044186, "tags": {"bus": "yes", "highway": "bus_stop", "name": "St Edmundsbury Road, adj", "naptan:AtcoCode": "2900K1383", "naptan:Bearing": "NW", "naptan:CommonName": "St Edmundsbury Road", "naptan:Indicator": "adj", "naptan:Landmark": "Church", "naptan:Locality": "North Lynn", "naptan:NaptanCode": "nfodatda", "naptan:PlusbusZoneRef": "KLYNN", "naptan:Street": "Losinga Road", "naptan:verified": "no", "public_transport": "platform", "source": "naptan_import"}}, {"type": "node", "id": 430364448, "lat": 52.7679744, "lon": 0.414884, "tags": {"bus": "yes", "highway": "bus_stop", "name": "no 73, opp", "naptan:AtcoCode": "2900K11387", "naptan:Bearing": "E", "naptan:CommonName": "no 73", "naptan:Indicator": "opp", "naptan:Locality": "North Lynn", "naptan:NaptanCode": "nfogpgdg", "naptan:PlusbusZoneRef": "KLYNN", "naptan:Street": "Reid Way", "naptan:verified": "no", "public_transport": "platform", "source": "naptan_import"}}, {"type": "node", "id": 430364465, "lat": 52.7672014, "lon": 0.4186933, "tags": {"bus": "yes", "highway": "bus_stop", "name": "Reid Way, opp", "naptan:AtcoCode": "2900K1388", "naptan:Bearing": "S", "naptan:CommonName": "Reid Way", "naptan:Indicator": "opp", "naptan:Landmark": "Garden Court", "naptan:Locality": "North Lynn", "naptan:NaptanCode": "nfodatdt", "naptan:PlusbusZoneRef": "KLYNN", "naptan:ShortCommonName": "Reid Way", "naptan:Street": "Reid Way", "naptan:verified": "no", "public_transport": "platform", "source": "naptan_import"}}, {"type": "node", "id": 430364507, "lat": 52.7666278, "lon": 0.4144975, "tags": {"bus": "yes", "highway": "bus_stop", "name": "Hope Court, opp", "naptan:AtcoCode": "2900K1321", "naptan:Bearing": "NW", "naptan:CommonName": "Hope Court", "naptan:Indicator": "opp", "naptan:Locality": "North Lynn", "naptan:NaptanCode": "nfodapaw", "naptan:PlusbusZoneRef": "KLYNN", "naptan:Street": "Reid Way", "naptan:verified": "no", "public_transport": "platform", "source": "naptan_import"}}, {"type": "node", "id": 430364890, "lat": 52.7640135, "lon": 0.4100623, "tags": {"bus": "yes", "highway": "bus_stop", "public_transport": "platform"}}, {"type": "node", "id": 430364891, "lat": 52.7641086, "lon": 0.4102777, "tags": {"bus": "yes", "highway": "bus_stop", "name": "Waterside, opp", "naptan:AtcoCode": "2900K1381", "naptan:Bearing": "S", "naptan:CommonName": "Waterside", "naptan:Indicator": "opp", "naptan:Locality": "North Lynn", "naptan:NaptanCode": "nfodataw", "naptan:PlusbusZoneRef": "KLYNN", "naptan:Street": "Columbia Way", "naptan:verified": "no", "public_transport": "platform", "source": "naptan_import"}}, {"type": "node", "id": 430364893, "lat": 52.7577078, "lon": 0.4083451, "tags": {"bus": "yes", "highway": "bus_stop", "name": "Highgate School, adj", "naptan:AtcoCode": "2900K1372", "naptan:Bearing": "E", "naptan:CommonName": "Highgate School", "naptan:Indicator": "adj", "naptan:Landmark": "Highgate Infants School", "naptan:Locality": "King's Lynn", "naptan:NaptanCode": "nfodapwm", "naptan:PlusbusZoneRef": "KLYNN", "naptan:Street": "Gaywood Road", "naptan:verified": "no", "public_transport": "platform", "source": "naptan_import"}}, {"type": "node", "id": 431331216, "lat": 52.7390477, "lon": 0.3954371, "tags": {"highway": "bus_stop", "name": "Beloe Crescent, adj", "naptan:AtcoCode": "2900K13109", "naptan:Bearing": "N", "naptan:CommonName": "Beloe Crescent", "naptan:Indicator": "adj", "naptan:Locality": "South Lynn", "naptan:NaptanCode": "nfodajtm", "naptan:PlusbusZoneRef": "KLYNN", "naptan:Street": "Saddlebow Road", "naptan:verified": "no", "source": "naptan_import;survey"}}, {"type": "node", "id": 443719921, "lat": 52.7403999, "lon": 0.4098942, "tags": {"bus": "yes", "highway": "bus_stop", "name": "McDonalds layby, adj", "naptan:AtcoCode": "2900K13137", "naptan:Bearing": "NW", "naptan:CommonName": "McDonalds layby", "naptan:Indicator": "adj", "naptan:Landmark": "McDonalds Layby", "naptan:Locality": "King's Lynn", "naptan:NaptanCode": "nfodamgt", "naptan:PlusbusZoneRef": "KLYNN", "naptan:Street": "Hardwick Road", "naptan:verified": "no", "public_transport": "platform", "source": "naptan_import"}}, {"type": "node", "id": 447081960, "lat": 52.601148, "lon": 0.3586435, "tags": {"bus": "yes", "highway": "bus_stop", "name": "Bu Shelter, adj", "naptan:AtcoCode": "2900D184", "naptan:Bearing": "NE", "naptan:CommonName": "Bu Shelter", "naptan:Indicator": "adj", "naptan:Landmark": "Bu Shelter", "naptan:Locality": "Downham Market", "naptan:NaptanCode": "nfogmdam", "naptan:Street": "Bridge Road", "naptan:verified": "no", "public_transport": "platform", "shelter": "yes", "source": "naptan_import"}}, {"type": "node", "id": 447081961, "lat": 52.6012361, "lon": 0.358914, "tags": {"bus": "yes", "highway": "bus_stop", "name": "Bus Shelter, opp", "naptan:AtcoCode": "2900D183", "naptan:Bearing": "SW", "naptan:CommonName": "Bus Shelter", "naptan:Indicator": "opp", "naptan:Landmark": "Bus Shelter", "naptan:Locality": "Downham Market", "naptan:NaptanCode": "nfogmdaj", "naptan:Street": "Bridge Road", "naptan:verified": "no", "public_transport": "platform", "shelter": "no", "source": "naptan_import"}}, {"type": "node", "id": 447082028, "lat": 52.6061045, "lon": 0.379431, "tags": {"bus": "yes", "highway": "bus_stop", "name": "Pine Close, opp", "naptan:AtcoCode": "2900D1770", "naptan:Bearing": "NW", "naptan:CommonName": "Pine Close", "naptan:Indicator": "opp", "naptan:Landmark": "Pine Close", "naptan:Locality": "Downham Market", "naptan:NaptanCode": "nfogmpam", "naptan:ShortCommonName": "Pine Close", "naptan:Street": "Clackclose Road", "naptan:verified": "no", "public_transport": "platform", "source": "naptan_import"}}, {"type": "node", "id": 447082060, "lat": 52.6027029, "lon": 0.3892688, "tags": {"bus": "yes", "highway": "bus_stop", "name": "High School, opp", "naptan:AtcoCode": "2900D1767", "naptan:Bearing": "W", "naptan:CommonName": "High School", "naptan:Indicator": "opp", "naptan:Landmark": "High School", "naptan:Locality": "Downham Market", "naptan:NaptanCode": "nfogmpag", "naptan:Street": "Bexwell Road", "public_transport": "platform", "source": "naptan_import;survey"}}, {"type": "node", "id": 471492799, "lat": 52.4477215, "lon": 0.5354794, "tags": {"highway": "bus_stop", "name": "Railway Station", "naptan:AtcoCode": "390020000", "naptan:Bearing": "N", "naptan:BusStopType": "CUS", "naptan:CommonName": "Railway Station", "naptan:Indicator": "adj", "naptan:Landmark": "Railway Station", "naptan:NaptanCode": "sufagwgj", "naptan:Street": "Station Road", "naptan:verified": "no", "source": "naptan_import"}}, {"type": "node", "id": 471492800, "lat": 52.4476907, "lon": 0.5356542, "tags": {"highway": "bus_stop", "name": "Railway Station", "naptan:AtcoCode": "390020001", "naptan:Bearing": "SW", "naptan:BusStopType": "CUS", "naptan:CommonName": "Railway Station", "naptan:Indicator": "opp", "naptan:Landmark": "Railway Station", "naptan:NaptanCode": "sufagwgm", "naptan:Street": "Station Road", "naptan:verified": "no", "source": "naptan_import"}}, {"type": "node", "id": 502322832, "lat": 52.710419, "lon": -0.2415424, "tags": {"bus": "yes", "highway": "bus_stop", "name": "Blue Bell Inn", "naptan:AtcoCode": "270000009477", "naptan:Bearing": "SW", "naptan:CommonName": "Blue Bell Inn", "naptan:Indicator": "o/s", "naptan:Landmark": "Blue Bell Inn", "naptan:NaptanCode": "linjdagd", "naptan:Street": "Littleworth Drove", "naptan:verified": "no", "public_transport": "platform", "source": "naptan_import"}}, {"type": "node", "id": 502323123, "lat": 52.7951103, "lon": 0.1013244, "tags": {"bus": "yes", "highway": "bus_stop", "name": "Albert Avenue, opp", "naptan:AtcoCode": "270000009621", "naptan:Bearing": "NW", "naptan:CommonName": "Albert Avenue", "naptan:Indicator": "opp", "naptan:Landmark": "Albert Avenue", "naptan:NaptanCode": "linjdmat", "naptan:Street": "Main Road", "naptan:verified": "no", "public_transport": "platform", "shelter": "yes", "source": "naptan_import", "tactile_paving": "no"}}, {"type": "node", "id": 502323128, "lat": 52.7931652, "lon": 0.1050426, "tags": {"bus": "yes", "highway": "bus_stop", "name": "Hoddins Way", "naptan:AtcoCode": "270000009622", "naptan:Bearing": "NW", "naptan:CommonName": "Gedney Road Garage", "naptan:Indicator": "opp", "naptan:Landmark": "Garage", "naptan:NaptanCode": "linjdmaw", "naptan:Street": "Gedney Road", "naptan:verified": "no", "public_transport": "platform", "source": "naptan_import"}}, {"type": "node", "id": 502323132, "lat": 52.7926831, "lon": 0.1060384, "tags": {"bus": "yes", "highway": "bus_stop", "name": "Hoddins Way", "naptan:AtcoCode": "270000009623", "naptan:Bearing": "SE", "naptan:CommonName": "Gedney Road Garage", "naptan:Indicator": "adj", "naptan:Landmark": "Garage", "naptan:NaptanCode": "linjdmda", "naptan:Street": "Gedney Road", "naptan:verified": "no", "public_transport": "platform", "source": "naptan_import"}}, {"type": "node", "id": 502323135, "lat": 52.7905222, "lon": 0.1100784, "tags": {"bus": "yes", "highway": "bus_stop", "name": "Docking's Holt, adj", "naptan:AtcoCode": "270000009624", "naptan:Bearing": "SE", "naptan:CommonName": "Docking's Holt", "naptan:Indicator": "adj", "naptan:Landmark": "Docking's Holt", "naptan:NaptanCode": "linjdmdg", "naptan:Street": "Gedney Road", "naptan:verified": "no", "public_transport": "platform", "source": "naptan_import"}}, {"type": "node", "id": 502323139, "lat": 52.7904342, "lon": 0.1099684, "tags": {"bus": "yes", "highway": "bus_stop", "name": "Docking's Holt, opp", "naptan:AtcoCode": "270000009625", "naptan:Bearing": "NW", "naptan:CommonName": "Docking's Holt", "naptan:Indicator": "opp", "naptan:Landmark": "Docking's Holt", "naptan:NaptanCode": "linjdmdj", "naptan:Street": "Gedney Road", "naptan:verified": "no", "public_transport": "platform", "source": "naptan_import"}}, {"type": "node", "id": 502323145, "lat": 52.788851, "lon": 0.1165658, "tags": {"bench": "no", "bin": "no", "bus": "yes", "highway": "bus_stop", "lit": "yes", "name": "Limewalk, adj", "naptan:AtcoCode": "270000009626", "naptan:Bearing": "SE", "naptan:CommonName": "Limewalk", "naptan:Indicator": "adj", "naptan:Landmark": "Limewalk", "naptan:NaptanCode": "linjdmdm", "naptan:Street": "Gedney Road", "naptan:verified": "no", "public_transport": "platform", "shelter": "no", "source": "naptan_import", "tactile_paving": "no"}}, {"type": "node", "id": 502323149, "lat": 52.788809, "lon": 0.1164007, "tags": {"bench": "no", "bin": "no", "bus": "yes", "highway": "bus_stop", "lit": "yes", "name": "Limewalk, opp", "naptan:AtcoCode": "270000009627", "naptan:Bearing": "NW", "naptan:CommonName": "Limewalk", "naptan:Indicator": "opp", "naptan:Landmark": "Limewalk", "naptan:NaptanCode": "linjdmdp", "naptan:Street": "Gedney Road", "naptan:verified": "no", "public_transport": "platform", "shelter": "no", "source": "naptan_import", "tactile_paving": "no"}}, {"type": "node", "id": 502323153, "lat": 52.7863244, "lon": 0.1206871, "tags": {"bus": "yes", "highway": "bus_stop", "name": "Market Court", "naptan:AtcoCode": "270000009628", "naptan:Bearing": "SE", "naptan:CommonName": "Market Court", "naptan:Indicator": "opp", "naptan:Landmark": "Market Court", "naptan:NaptanCode": "linjdmdt", "naptan:Street": "Market Street", "naptan:verified": "no", "public_transport": "platform", "source": "naptan_import"}}, {"type": "node", "id": 502323157, "lat": 52.784028, "lon": 0.1241236, "tags": {"bus": "yes", "fixme": "Need to verify location", "highway": "bus_stop", "name": "St Mary's Church", "naptan:AtcoCode": "270000009629", "naptan:Bearing": "NW", "naptan:CommonName": "Post Office", "naptan:Indicator": "opp", "naptan:Landmark": "Post Office", "naptan:NaptanCode": "linjdmdw", "naptan:Street": "High Street", "naptan:verified": "no", "public_transport": "platform", "source": "naptan_import"}}, {"type": "node", "id": 502323162, "lat": 52.7804659, "lon": 0.1314173, "tags": {"bus": "yes", "highway": "bus_stop", "name": "The Olde Ship Inn, opp", "naptan:AtcoCode": "270000009630", "naptan:Bearing": "NW", "naptan:CommonName": "The Olde Ship Inn", "naptan:Indicator": "opp", "naptan:Landmark": "The Olde Ship Inn", "naptan:NaptanCode": "linjdmga", "naptan:Street": "London Road", "naptan:verified": "no", "public_transport": "platform", "source": "naptan_import"}}, {"type": "node", "id": 502323166, "lat": 52.7806405, "lon": 0.1312034, "tags": {"bus": "yes", "highway": "bus_stop", "name": "The Olde Ship Inn, adj", "naptan:AtcoCode": "270000009631", "naptan:Bearing": "SE", "naptan:CommonName": "The Olde Ship Inn", "naptan:Indicator": "adj", "naptan:Landmark": "The Olde Ship Inn", "naptan:NaptanCode": "linjdmgd", "naptan:Street": "London Road", "naptan:verified": "no", "public_transport": "platform", "source": "naptan_import"}}, {"type": "node", "id": 502323184, "lat": 52.7798396, "lon": 0.1407285, "tags": {"bus": "yes", "highway": "bus_stop", "name": "75 Bridge Road, adj", "naptan:AtcoCode": "270000009632", "naptan:Bearing": "E", "naptan:CommonName": "Bridge Road", "naptan:Indicator": "adj", "naptan:Landmark": "Number 75", "naptan:NaptanCode": "linjdmgj", "naptan:Street": "Bridge Road", "naptan:verified": "no", "public_transport": "platform", "source": "naptan_import"}}, {"type": "node", "id": 502323188, "lat": 52.7797717, "lon": 0.1395092, "tags": {"bus": "yes", "highway": "bus_stop", "name": "75 Bridge Road, opp", "naptan:AtcoCode": "270000009633", "naptan:Bearing": "W", "naptan:CommonName": "Bridge Road", "naptan:Indicator": "opp", "naptan:Landmark": "Number 65", "naptan:NaptanCode": "linjdmgm", "naptan:Street": "Bridge Road", "naptan:verified": "no", "public_transport": "platform", "source": "naptan_import"}}, {"type": "node", "id": 502323193, "lat": 52.7909574, "lon": 0.1289935, "tags": {"bus": "yes", "highway": "bus_stop", "name": "Butterfly Park", "naptan:AtcoCode": "270000009634", "naptan:Bearing": "N", "naptan:CommonName": "Butterfly Park", "naptan:Indicator": "opp", "naptan:Landmark": "Butterfly Park", "naptan:NaptanCode": "linjdmgp", "naptan:Street": "Little London", "naptan:verified": "no", "public_transport": "platform", "source": "naptan_import"}}, {"type": "node", "id": 502323204, "lat": 52.7958818, "lon": 0.1286555, "tags": {"bus": "yes", "highway": "bus_stop", "name": "Daniel's Gate", "naptan:AtcoCode": "270000009635", "naptan:Bearing": "SW", "naptan:CommonName": "Daniel's Gate", "naptan:Landmark": "Daniel's Gate", "naptan:NaptanCode": "linjdmgt", "naptan:Street": "Little London", "naptan:verified": "no", "public_transport": "platform", "source": "naptan_import"}}, {"type": "node", "id": 502323281, "lat": 52.7436753, "lon": 0.1267764, "tags": {"highway": "bus_stop", "name": "Lowgate", "naptan:AtcoCode": "270000009652", "naptan:Bearing": "W", "naptan:CommonName": "Lowgate", "naptan:Indicator": "W - bound", "naptan:Landmark": "Lowgate", "naptan:NaptanCode": "linjdmtd", "naptan:Street": "Hix's Lane", "naptan:verified": "no", "public_transport": "platform", "source": "naptan_import"}}, {"type": "node", "id": 502323285, "lat": 52.7676863, "lon": 0.1215427, "tags": {"highway": "bus_stop", "name": "Gimmel's Gate Telephone Box", "naptan:AtcoCode": "270000009653", "naptan:Bearing": "W", "naptan:CommonName": "Gimmel's Gate Telephone Box", "naptan:Indicator": "adj", "naptan:Landmark": "Telephone Box", "naptan:NaptanCode": "linjdmtg", "naptan:Street": "Gimmel's Gate", "naptan:verified": "no", "source": "naptan_import"}}, {"type": "node", "id": 502323290, "lat": 52.7677758, "lon": 0.1215618, "tags": {"highway": "bus_stop", "name": "Gimmel's Gate Telephone Box", "naptan:AtcoCode": "270000009654", "naptan:Bearing": "E", "naptan:CommonName": "Gimmel's Gate Telephone Box", "naptan:Indicator": "opp", "naptan:Landmark": "Telephone Box", "naptan:NaptanCode": "linjdmtj", "naptan:Street": "Gimmel's Gate", "naptan:verified": "no", "source": "naptan_import"}}, {"type": "node", "id": 502323294, "lat": 52.7445546, "lon": 0.0674064, "tags": {"highway": "bus_stop", "name": "St James's Church", "naptan:AtcoCode": "270000009657", "naptan:Bearing": "SW", "naptan:CommonName": "St James's Church", "naptan:Indicator": "opp", "naptan:Landmark": "St James's Church", "naptan:NaptanCode": "linjdmtw", "naptan:Street": "Draw Dike", "naptan:verified": "no", "source": "naptan_import"}}, {"type": "node", "id": 502323299, "lat": 52.7461866, "lon": -0.0036951, "tags": {"bench": "no", "bin": "no", "highway": "bus_stop", "lit": "no", "name": "Plough Inn", "naptan:AtcoCode": "270000009658", "naptan:Bearing": "NE", "naptan:CommonName": "Plough Inn", "naptan:Indicator": "opp", "naptan:Landmark": "Plough Inn", "naptan:NaptanCode": "linjdmwa", "naptan:Street": "Jekyl's Bank", "naptan:verified": "no", "shelter": "no", "source": "naptan_import"}}, {"type": "node", "id": 502323303, "lat": 52.7505835, "lon": 0.0432716, "tags": {"bus": "yes", "highway": "bus_stop", "name": "Clifton's Bridge", "naptan:AtcoCode": "270000009659", "naptan:Bearing": "SE", "naptan:CommonName": "Clifton's Bridge", "naptan:Landmark": "Clifton's Bridge", "naptan:NaptanCode": "linjdmwd", "naptan:Street": "Raven's Bank", "naptan:verified": "no", "public_transport": "platform", "source": "naptan_import"}}, {"type": "node", "id": 502323308, "lat": 52.7592888, "lon": 0.0520234, "tags": {"highway": "bus_stop", "name": "Clark's Hill", "naptan:AtcoCode": "270000009660", "naptan:Bearing": "NW", "naptan:CommonName": "Clark's Hill", "naptan:Landmark": "Clark's Hill", "naptan:NaptanCode": "linjdmwg", "naptan:Street": "Cockbourn Fen Dike", "naptan:verified": "no", "source": "naptan_import"}}, {"type": "node", "id": 502323313, "lat": 52.771002, "lon": 0.0249702, "tags": {"highway": "bus_stop", "name": "Moorgate", "naptan:AtcoCode": "270000009662", "naptan:Bearing": "SE", "naptan:CommonName": "Moorgate", "naptan:Landmark": "Moorgate", "naptan:NaptanCode": "linjdmwm", "naptan:Street": "Strong's Bank", "naptan:verified": "no", "source": "naptan_import"}}, {"type": "node", "id": 502323314, "lat": 52.7592847, "lon": 0.0176829, "tags": {"highway": "bus_stop", "name": "Hawthorne Lodge", "naptan:AtcoCode": "270000009663", "naptan:Bearing": "SW", "naptan:CommonName": "Hawthorne Lodge", "naptan:Landmark": "Hawthorne Lodge", "naptan:NaptanCode": "linjdmwp", "naptan:Street": "Neal's Gate", "naptan:verified": "no", "source": "naptan_import"}}, {"type": "node", "id": 502323319, "lat": 52.7618756, "lon": -0.0143607, "tags": {"highway": "bus_stop", "name": "Rose Crescent", "naptan:AtcoCode": "270000009664", "naptan:Bearing": "S", "naptan:CommonName": "Rose Crescent", "naptan:Indicator": "adj", "naptan:Landmark": "Rose Crescent", "naptan:NaptanCode": "linjdmwt", "naptan:Street": "Cranesgate North", "naptan:verified": "no", "source": "naptan_import"}}, {"type": "node", "id": 502323321, "lat": 52.7612579, "lon": -0.0145222, "tags": {"highway": "bus_stop", "name": "Village Hall", "naptan:AtcoCode": "270000009665", "naptan:Bearing": "SW", "naptan:CommonName": "Village Hall", "naptan:Indicator": "adj", "naptan:Landmark": "Village Hall", "naptan:NaptanCode": "linjdpad", "naptan:Street": "Crane's Gate", "naptan:verified": "no", "source": "naptan_import"}}, {"type": "node", "id": 502323325, "lat": 52.7613048, "lon": -0.0146386, "tags": {"highway": "bus_stop", "name": "Village Hall", "naptan:AtcoCode": "270000009666", "naptan:Bearing": "NE", "naptan:CommonName": "Village Hall", "naptan:Indicator": "opp", "naptan:Landmark": "Village Hall", "naptan:NaptanCode": "linjdpag", "naptan:Street": "Crane's Gate", "naptan:verified": "no", "source": "naptan_import"}}, {"type": "node", "id": 502323330, "lat": 52.7615182, "lon": -0.0139619, "tags": {"highway": "bus_stop", "name": "Cranesgate North", "naptan:AtcoCode": "270000009667", "naptan:Bearing": "W", "naptan:CommonName": "Cranesgate North", "naptan:Indicator": "opp", "naptan:Landmark": "Cranesgate North", "naptan:NaptanCode": "linjdpaj", "naptan:Street": "Raven's Bank", "naptan:verified": "no", "source": "naptan_import"}}, {"type": "node", "id": 502323334, "lat": 52.7615441, "lon": -0.014435, "tags": {"highway": "bus_stop", "name": "Cranesgate North", "naptan:AtcoCode": "270000009668", "naptan:Bearing": "E", "naptan:CommonName": "Cranesgate North", "naptan:Indicator": "adj", "naptan:Landmark": "Cranesgate North", "naptan:NaptanCode": "linjdpam", "naptan:Street": "Raven's Bank", "naptan:verified": "no", "source": "naptan_import"}}, {"type": "node", "id": 502323340, "lat": 52.7585263, "lon": -0.0335131, "tags": {"highway": "bus_stop", "name": "St Catherine's Bridge", "naptan:AtcoCode": "270000009670", "naptan:Bearing": "W", "naptan:CommonName": "St Catherine's Bridge", "naptan:Indicator": "Westbound", "naptan:Landmark": "St Catherine's Bridge", "naptan:NaptanCode": "linjdpat", "naptan:Street": "Raven's Bank", "naptan:verified": "no", "source": "naptan_import"}}, {"type": "node", "id": 502323344, "lat": 52.7585989, "lon": -0.0335543, "tags": {"highway": "bus_stop", "name": "St Catherine's Bridge", "naptan:AtcoCode": "270000009671", "naptan:Bearing": "E", "naptan:CommonName": "St Catherine's Bridge", "naptan:Indicator": "Eastbound", "naptan:Landmark": "St Catherine's Bridge", "naptan:NaptanCode": "linjdpaw", "naptan:Street": "Raven's Bank", "naptan:verified": "no", "source": "naptan_import"}}, {"type": "node", "id": 502323504, "lat": 52.6648367, "lon": 0.0146893, "tags": {"highway": "bus_stop", "local_ref": "NR", "name": "Four Horseshoes PH", "naptan:AtcoCode": "270000009705", "naptan:Bearing": "NW", "naptan:CommonName": "Four Horseshoes PH", "naptan:Indicator": "nr", "naptan:Landmark": "Four Horseshoes PH", "naptan:NaptanCode": "linjdptp", "naptan:Street": "Broadgate Road", "naptan:verified": "no", "public_transport": "platform", "source": "naptan_import"}}, {"type": "node", "id": 502323509, "lat": 52.6656702, "lon": -0.0026793, "tags": {"highway": "bus_stop", "name": "Coronation Avenue", "naptan:AtcoCode": "270000009706", "naptan:Bearing": "E", "naptan:CommonName": "Coronation Avenue", "naptan:Indicator": "opp", "naptan:Landmark": "Coronation Avenue", "naptan:NaptanCode": "linjdptw", "naptan:Street": "B1166", "naptan:verified": "no", "source": "naptan_import"}}, {"type": "node", "id": 502323513, "lat": 52.6796878, "lon": -0.016597, "tags": {"bus": "yes", "highway": "bus_stop", "name": "Duke's Head PH", "naptan:AtcoCode": "270000009707", "naptan:Bearing": "SE", "naptan:CommonName": "Duke's Head PH", "naptan:Indicator": "adj", "naptan:Landmark": "Duke's Head PH", "naptan:NaptanCode": "linjdpwa", "naptan:Street": "Highstock Lane", "naptan:verified": "no", "public_transport": "platform", "source": "naptan_import"}}, {"type": "node", "id": 502323518, "lat": 52.6840309, "lon": -0.0203801, "tags": {"highway": "bus_stop", "name": "Memorial Hall", "naptan:AtcoCode": "270000009708", "naptan:Bearing": "NE", "naptan:CommonName": "Memorial Hall", "naptan:Indicator": "opp", "naptan:Landmark": "Memorial Hall", "naptan:NaptanCode": "linjdpwd", "naptan:Street": "Hillgate", "naptan:verified": "no", "public_transport": "platform", "source": "naptan_import"}}, {"type": "node", "id": 502323521, "lat": 52.6855126, "lon": -0.0240416, "tags": {"highway": "bus_stop", "name": "West Drove North", "naptan:AtcoCode": "270000009709", "naptan:Bearing": "SE", "naptan:CommonName": "West Drove North", "naptan:Indicator": "adj", "naptan:Landmark": "West Drove North", "naptan:NaptanCode": "linjdpwg", "naptan:Street": "Lincoln's Avenue", "naptan:verified": "no", "public_transport": "platform", "source": "naptan_import"}}, {"type": "node", "id": 502323524, "lat": 52.68531, "lon": -0.0237549, "tags": {"highway": "bus_stop", "name": "West Drove North", "naptan:AtcoCode": "270000009710", "naptan:Bearing": "NW", "naptan:CommonName": "West Drove North", "naptan:Indicator": "opp", "naptan:Landmark": "West Drove North", "naptan:NaptanCode": "linjdpwj", "naptan:Street": "Lincoln's Avenue", "naptan:verified": "no", "public_transport": "platform", "source": "naptan_import"}}, {"type": "node", "id": 502323530, "lat": 52.6877927, "lon": -0.0324615, "tags": {"highway": "bus_stop", "name": "New Fen Drove", "naptan:AtcoCode": "270000009711", "naptan:Bearing": "NW", "naptan:CommonName": "New Fen Drove", "naptan:Indicator": "adj", "naptan:Landmark": "New Fen Drove", "naptan:NaptanCode": "linjdpwm", "naptan:Street": "Long Lane", "naptan:verified": "no", "public_transport": "platform", "source": "naptan_import"}}, {"type": "node", "id": 502323533, "lat": 52.6877628, "lon": -0.0322853, "tags": {"highway": "bus_stop", "name": "New Fen Drove", "naptan:AtcoCode": "270000009712", "naptan:Bearing": "SE", "naptan:CommonName": "New Fen Drove", "naptan:Indicator": "opp", "naptan:Landmark": "New Fen Drove", "naptan:NaptanCode": "linjdpwp", "naptan:Street": "Long Lane", "naptan:verified": "no", "public_transport": "platform", "source": "naptan_import"}}, {"type": "node", "id": 502323538, "lat": 52.6926551, "lon": -0.0356021, "tags": {"highway": "bus_stop", "name": "St Polycarp's Church", "naptan:AtcoCode": "270000009713", "naptan:Bearing": "W", "naptan:CommonName": "St Polycarp's Church", "naptan:Indicator": "opp", "naptan:Landmark": "St Polycarp's Church", "naptan:NaptanCode": "linjdpwt", "naptan:Street": "Long Lane", "naptan:verified": "no", "public_transport": "platform", "source": "naptan_import"}}, {"type": "node", "id": 502323541, "lat": 52.6924963, "lon": -0.0395899, "tags": {"highway": "bus_stop", "name": "Chapel Drove", "naptan:AtcoCode": "270000009714", "naptan:Bearing": "E", "naptan:CommonName": "Chapel Drove", "naptan:Indicator": "opp", "naptan:Landmark": "Chapel Drove", "naptan:NaptanCode": "linjdtad", "naptan:Street": "Drove Road", "naptan:verified": "no", "public_transport": "platform", "source": "naptan_import"}}, {"type": "node", "id": 502323546, "lat": 52.7027108, "lon": -0.0521575, "tags": {"highway": "bus_stop", "name": "Green Bank", "naptan:AtcoCode": "270000009715", "naptan:Bearing": "W", "naptan:CommonName": "Green Bank", "naptan:Indicator": "W - bound", "naptan:Landmark": "Green Bank", "naptan:NaptanCode": "linjdtag", "naptan:Street": "Farrow Road", "naptan:verified": "no", "public_transport": "platform", "source": "naptan_import"}}, {"type": "node", "id": 502323550, "lat": 52.7018198, "lon": -0.0482748, "tags": {"highway": "bus_stop", "name": "Parsons Lane", "naptan:AtcoCode": "270000009716", "naptan:Bearing": "NE", "naptan:CommonName": "Parsons Lane", "naptan:Indicator": "opp", "naptan:Landmark": "Parsons Lane", "naptan:NaptanCode": "linjdtaj", "naptan:Street": "Broadgate", "naptan:verified": "no", "public_transport": "platform", "source": "naptan_import"}}, {"type": "node", "id": 502323554, "lat": 52.6990319, "lon": -0.0504269, "tags": {"highway": "bus_stop", "name": "Post Office", "naptan:AtcoCode": "270000009717", "naptan:Bearing": "SW", "naptan:CommonName": "Post Office", "naptan:Indicator": "opp", "naptan:Landmark": "Post Office", "naptan:NaptanCode": "linjdtam", "naptan:Street": "Broadgate", "naptan:verified": "no", "source": "naptan_import"}}, {"type": "node", "id": 502323559, "lat": 52.6915346, "lon": -0.0554371, "tags": {"highway": "bus_stop", "name": "Broadgate Drove Road", "naptan:AtcoCode": "270000009718", "naptan:Bearing": "SW", "naptan:CommonName": "Broadgate Drove Road", "naptan:Indicator": "SW - bound", "naptan:Landmark": "Drove Road", "naptan:NaptanCode": "linjdtap", "naptan:Street": "Broadgate", "naptan:verified": "no", "public_transport": "platform", "source": "naptan_import"}}, {"type": "node", "id": 502323562, "lat": 52.6915458, "lon": -0.0555698, "tags": {"highway": "bus_stop", "name": "Broadgate Drove Road", "naptan:AtcoCode": "270000009719", "naptan:Bearing": "NE", "naptan:CommonName": "Broadgate Drove Road", "naptan:Indicator": "NE - bound", "naptan:Landmark": "Drove Road", "naptan:NaptanCode": "linjdtat", "naptan:Street": "Broadgate", "naptan:verified": "no", "public_transport": "platform", "source": "naptan_import"}}, {"type": "node", "id": 502323565, "lat": 52.69232, "lon": -0.0682765, "tags": {"highway": "bus_stop", "name": "Back Bank", "naptan:AtcoCode": "270000009720", "naptan:Bearing": "W", "naptan:CommonName": "Back Bank", "naptan:Indicator": "opp", "naptan:Landmark": "Back Bank", "naptan:NaptanCode": "linjdtaw", "naptan:Street": "Hull's Drove", "naptan:verified": "no", "source": "naptan_import"}}, {"type": "node", "id": 502323570, "lat": 52.6801326, "lon": -0.1583616, "tags": {"bus": "yes", "highway": "bus_stop", "name": "The Gardens", "naptan:AtcoCode": "270000009721", "naptan:Bearing": "NE", "naptan:CommonName": "The Gardens", "naptan:Indicator": "adj", "naptan:Landmark": "The Gardens", "naptan:NaptanCode": "linjdtda", "naptan:Street": "Postland Road", "naptan:verified": "no", "public_transport": "platform", "source": "naptan_import"}}, {"type": "node", "id": 502323578, "lat": 52.6793099, "lon": -0.1621241, "tags": {"bus": "yes", "highway": "bus_stop", "name": "Eastlands", "naptan:AtcoCode": "270000009722", "naptan:Bearing": "NE", "naptan:CommonName": "Eastlands", "naptan:Indicator": "adj", "naptan:Landmark": "Eastlands", "naptan:NaptanCode": "linjdtdg", "naptan:Street": "Postland Road", "naptan:verified": "no", "public_transport": "platform", "source": "naptan_import"}}, {"type": "node", "id": 502323595, "lat": 52.6770923, "lon": -0.1669805, "tags": {"bus": "yes", "highway": "bus_stop", "name": "Ambury Gardens", "naptan:AtcoCode": "270000009723", "naptan:Bearing": "N", "naptan:CommonName": "Ambury Gardens", "naptan:Indicator": "opp", "naptan:Landmark": "Ambury Gardens", "naptan:NaptanCode": "linjdtdj", "naptan:Street": "Hall Street", "naptan:verified": "no", "public_transport": "platform", "source": "naptan_import"}}, {"type": "node", "id": 502323599, "lat": 52.6771168, "lon": -0.1668167, "tags": {"bus": "yes", "highway": "bus_stop", "name": "Ambury Gardens", "naptan:AtcoCode": "270000009724", "naptan:Bearing": "S", "naptan:CommonName": "Ambury Gardens", "naptan:Indicator": "adj", "naptan:Landmark": "Ambury Gardens", "naptan:NaptanCode": "linjdtdm", "naptan:Street": "Hall Street", "naptan:verified": "no", "public_transport": "platform", "source": "naptan_import"}}, {"type": "node", "id": 502323603, "lat": 52.6753379, "lon": -0.1703969, "tags": {"bus": "yes", "highway": "bus_stop", "name": "Jareys Close", "naptan:AtcoCode": "270000009725", "naptan:Bearing": "NE", "naptan:CommonName": "Jareys Close", "naptan:Indicator": "opp", "naptan:Landmark": "Jareys Close", "naptan:NaptanCode": "linjdtdp", "naptan:Street": "West Street", "naptan:verified": "no", "public_transport": "platform", "source": "naptan_import"}}, {"type": "node", "id": 502323608, "lat": 52.6732124, "lon": -0.168415, "tags": {"bus": "yes", "highway": "bus_stop", "name": "South View Primary School", "naptan:AtcoCode": "270000009726", "naptan:Bearing": "SE", "naptan:CommonName": "South View Primary School", "naptan:Indicator": "adj", "naptan:Landmark": "South View Primary School", "naptan:NaptanCode": "linjdtdt", "naptan:Street": "Broadway", "naptan:verified": "no", "public_transport": "platform", "source": "naptan_import"}}, {"type": "node", "id": 502323610, "lat": 52.673047, "lon": -0.1681852, "tags": {"bus": "yes", "highway": "bus_stop", "name": "South View Primary School", "naptan:AtcoCode": "270000009727", "naptan:Bearing": "NW", "naptan:CommonName": "South View Primary School", "naptan:Indicator": "opp", "naptan:Landmark": "South View Primary School", "naptan:NaptanCode": "linjdtdw", "naptan:Street": "Broadway", "naptan:verified": "no", "public_transport": "platform", "source": "naptan_import"}}, {"type": "node", "id": 502323613, "lat": 52.6701979, "lon": -0.1665148, "tags": {"bus": "yes", "highway": "bus_stop", "name": "Alderlands Close", "naptan:AtcoCode": "270000009728", "naptan:Bearing": "SW", "naptan:CommonName": "Alderlands Close", "naptan:Indicator": "opp", "naptan:Landmark": "Alderlands Close", "naptan:NaptanCode": "linjdtga", "naptan:Street": "Peterborough Road", "naptan:verified": "no", "public_transport": "platform", "source": "naptan_import"}}, {"type": "node", "id": 502323614, "lat": 52.670076, "lon": -0.1667713, "tags": {"bus": "yes", "highway": "bus_stop", "name": "Alderlands Close", "naptan:AtcoCode": "270000009729", "naptan:Bearing": "NE", "naptan:CommonName": "Alderlands Close", "naptan:Indicator": "adj", "naptan:Landmark": "Alderlands Close", "naptan:NaptanCode": "linjdtgd", "naptan:Street": "Peterborough Road", "naptan:verified": "no", "public_transport": "platform", "source": "naptan_import"}}, {"type": "node", "id": 502323615, "lat": 52.667607, "lon": -0.1681614, "tags": {"bus": "yes", "highway": "bus_stop", "name": "63 Peterborough Road", "naptan:AtcoCode": "270000009730", "naptan:Bearing": "NE", "naptan:CommonName": "63 Peterborough Road", "naptan:Indicator": "o/s", "naptan:Landmark": "Number 63", "naptan:NaptanCode": "linjdtgj", "naptan:Street": "Peterborough Road", "naptan:verified": "no", "public_transport": "platform", "source": "naptan_import"}}, {"type": "node", "id": 502323616, "lat": 52.667346, "lon": -0.1681427, "tags": {"bus": "yes", "highway": "bus_stop", "name": "48 Peterborough Road", "naptan:AtcoCode": "270000009731", "naptan:Bearing": "SW", "naptan:CommonName": "48 Peterborough Road", "naptan:Indicator": "o/s", "naptan:Landmark": "Number 48", "naptan:NaptanCode": "linjdtgm", "naptan:Street": "Peterborough Road", "naptan:verified": "no", "public_transport": "platform", "source": "naptan_import"}}, {"type": "node", "id": 502323618, "lat": 52.7170073, "lon": -0.1349248, "tags": {"highway": "bus_stop", "name": "Queens Bank", "naptan:AtcoCode": "270000009732", "naptan:Bearing": "SE", "naptan:CommonName": "Queens Bank", "naptan:Indicator": "adj", "naptan:Landmark": "Queens Bank", "naptan:NaptanCode": "linjdtgp", "naptan:Street": "Barrier Bank", "naptan:verified": "no", "source": "naptan_import"}}, {"type": "node", "id": 502323619, "lat": 52.7376955, "lon": -0.0747141, "tags": {"highway": "bus_stop", "name": "Snakehall Bridge", "naptan:AtcoCode": "270000009733", "naptan:Bearing": "N", "naptan:CommonName": "Snakehall Bridge", "naptan:Indicator": "N - bound", "naptan:Landmark": "Snakehall Bridge", "naptan:NaptanCode": "linjdtgt", "naptan:Street": "Eaugate Road", "naptan:verified": "no", "public_transport": "platform", "source": "naptan_import"}}, {"type": "node", "id": 502323621, "lat": 52.7377555, "lon": -0.0745337, "tags": {"highway": "bus_stop", "name": "Snakehall Bridge", "naptan:AtcoCode": "270000009734", "naptan:Bearing": "S", "naptan:CommonName": "Snakehall Bridge", "naptan:Indicator": "S - bound", "naptan:Landmark": "Snakehall Bridge", "naptan:NaptanCode": "linjdtgw", "naptan:Street": "Eaugate Road", "naptan:verified": "no", "public_transport": "platform", "source": "naptan_import"}}, {"type": "node", "id": 502323627, "lat": 52.7464008, "lon": -0.0848202, "tags": {"highway": "bus_stop", "name": "Church", "naptan:AtcoCode": "270000009736", "naptan:Bearing": "W", "naptan:CommonName": "Church", "naptan:Indicator": "adj", "naptan:Landmark": "Church", "naptan:NaptanCode": "linjdtjd", "naptan:Street": "Roman Road", "naptan:verified": "no", "public_transport": "platform", "source": "naptan_import"}}, {"type": "node", "id": 502323636, "lat": 52.7464931, "lon": -0.0777488, "tags": {"highway": "bus_stop", "name": "Cekhira Avenue", "naptan:AtcoCode": "270000009738", "naptan:Bearing": "E", "naptan:CommonName": "Cekhira Avenue", "naptan:Indicator": "opp", "naptan:Landmark": "Cekhira Avenue", "naptan:NaptanCode": "linjdtjm", "naptan:Street": "Roman Road", "naptan:verified": "no", "public_transport": "platform", "source": "naptan_import"}}, {"type": "node", "id": 502323691, "lat": 52.7375344, "lon": -0.1275306, "tags": {"highway": "bus_stop", "name": "Backgate", "naptan:AtcoCode": "270000009753", "naptan:Bearing": "SE", "naptan:CommonName": "Backgate", "naptan:Indicator": "adj", "naptan:Landmark": "Backgate", "naptan:NaptanCode": "linjdtpm", "naptan:Street": "Barrier Bank", "naptan:verified": "no", "source": "naptan_import"}}, {"type": "node", "id": 502323707, "lat": 52.7373272, "lon": -0.1275099, "tags": {"highway": "bus_stop", "name": "Backgate", "naptan:AtcoCode": "270000009754", "naptan:Bearing": "NW", "naptan:CommonName": "Backgate", "naptan:Indicator": "opp", "naptan:Landmark": "Backgate", "naptan:NaptanCode": "linjdtpt", "naptan:Street": "Barrier Bank", "naptan:verified": "no", "source": "naptan_import"}}, {"type": "node", "id": 502323710, "lat": 52.7383098, "lon": -0.1270974, "tags": {"highway": "bus_stop", "name": "Barrier Bank", "naptan:AtcoCode": "270000009755", "naptan:Bearing": "N", "naptan:CommonName": "Barrier Bank", "naptan:Indicator": "N - bound", "naptan:Landmark": "Barrier Bank", "naptan:NaptanCode": "linjdtpw", "naptan:Street": "Backgate", "naptan:verified": "no", "source": "naptan_import"}}, {"type": "node", "id": 502323714, "lat": 52.7383703, "lon": -0.1269467, "tags": {"highway": "bus_stop", "name": "Barrier Bank", "naptan:AtcoCode": "270000009756", "naptan:Bearing": "S", "naptan:CommonName": "Barrier Bank", "naptan:Indicator": "S - bound", "naptan:Landmark": "Barrier Bank", "naptan:NaptanCode": "linjdtwa", "naptan:Street": "Backgate", "naptan:verified": "no", "source": "naptan_import"}}, {"type": "node", "id": 502326031, "lat": 52.7787232, "lon": 0.1522213, "tags": {"bus": "yes", "highway": "bus_stop", "name": "Hospital Drove, opp", "naptan:AtcoCode": "270000010243", "naptan:Bearing": "NW", "naptan:CommonName": "Hospital Drove", "naptan:Indicator": "opp", "naptan:Landmark": "Hospital Drove", "naptan:NaptanCode": "linjmdtj", "naptan:Street": "Bridge Road", "naptan:verified": "no", "public_transport": "platform", "shelter": "yes", "source": "naptan_import"}}, {"type": "node", "id": 502326036, "lat": 52.7752724, "lon": 0.1659619, "tags": {"bus": "yes", "highway": "bus_stop", "name": "Fields Farm North, adj", "naptan:AtcoCode": "270000010244", "naptan:Bearing": "NW", "naptan:CommonName": "Farm End Lane", "naptan:Indicator": "adj", "naptan:Landmark": "Farm End Lane", "naptan:NaptanCode": "linjmdtm", "naptan:Street": "Bridge Road", "naptan:verified": "no", "public_transport": "platform", "source": "naptan_import"}}, {"type": "node", "id": 502326040, "lat": 52.7753456, "lon": 0.1660575, "tags": {"bus": "yes", "highway": "bus_stop", "name": "Fields Farm North, opp", "naptan:AtcoCode": "270000010245", "naptan:Bearing": "SE", "naptan:CommonName": "Farm End Lane", "naptan:Indicator": "opp", "naptan:Landmark": "Farm End Lane", "naptan:NaptanCode": "linjmdtp", "naptan:Street": "Bridge Road", "naptan:verified": "no", "public_transport": "platform", "source": "naptan_import"}}, {"type": "node", "id": 502326043, "lat": 52.7732044, "lon": 0.1733315, "tags": {"bench": "no", "bus": "yes", "highway": "bus_stop", "name": "Nightingale Way, opp", "naptan:AtcoCode": "270000010246", "naptan:Bearing": "NW", "naptan:CommonName": "Nightingale Way", "naptan:Indicator": "opp", "naptan:Landmark": "Nightingale Way", "naptan:NaptanCode": "linjmdtw", "naptan:Street": "Bridge Road", "naptan:verified": "no", "public_transport": "platform", "shelter": "no", "source": "naptan_import"}}, {"type": "node", "id": 502326047, "lat": 52.7721521, "lon": 0.1777565, "tags": {"bench": "no", "bus": "yes", "highway": "bus_stop", "name": "Withington Street, adj", "naptan:AtcoCode": "270000010247", "naptan:Bearing": "SE", "naptan:CommonName": "Withington Street", "naptan:Indicator": "adj", "naptan:Landmark": "Withington Street", "naptan:NaptanCode": "linjmdwa", "naptan:Street": "Bridge Road", "naptan:verified": "no", "public_transport": "platform", "shelter": "no", "source": "naptan_import"}}, {"type": "node", "id": 502326050, "lat": 52.7720555, "lon": 0.177633, "tags": {"bus": "yes", "highway": "bus_stop", "name": "Withington Street, opp", "naptan:AtcoCode": "270000010248", "naptan:Bearing": "NW", "naptan:CommonName": "Withington Street", "naptan:Indicator": "opp", "naptan:Landmark": "Withington Street", "naptan:NaptanCode": "linjmdwd", "naptan:Street": "Bridge Road", "naptan:verified": "no", "public_transport": "platform", "source": "naptan_import"}}, {"type": "node", "id": 502326051, "lat": 52.7710937, "lon": 0.1815286, "tags": {"bus": "yes", "highway": "bus_stop", "name": "Greyhound PH, adj", "naptan:AtcoCode": "270000010249", "naptan:Bearing": "SE", "naptan:CommonName": "Greyhound PH", "naptan:Indicator": "adj", "naptan:Landmark": "Greyhound PH", "naptan:NaptanCode": "linjmdwg", "naptan:Street": "Bridge Road", "naptan:verified": "no", "public_transport": "platform", "source": "naptan_import"}}, {"type": "node", "id": 502326053, "lat": 52.7710355, "lon": 0.1812736, "tags": {"bus": "yes", "highway": "bus_stop", "name": "Greyhound PH, opp", "naptan:AtcoCode": "270000010250", "naptan:Bearing": "NW", "naptan:CommonName": "Greyhound PH", "naptan:Indicator": "opp", "naptan:Landmark": "Greyhound PH", "naptan:NaptanCode": "linjmdwj", "naptan:Street": "Bridge Road", "naptan:verified": "no", "public_transport": "platform", "source": "naptan_import"}}, {"type": "node", "id": 502326054, "lat": 52.7689281, "lon": 0.1892625, "tags": {"bus": "yes", "highway": "bus_stop", "name": "Village Hall, opp", "naptan:AtcoCode": "270000010251", "naptan:Bearing": "SE", "naptan:CommonName": "Village Hall", "naptan:Indicator": "opp", "naptan:Landmark": "Village Hall", "naptan:NaptanCode": "linjmdwm", "naptan:Street": "Bridge Road", "naptan:verified": "no", "public_transport": "platform", "source": "naptan_import"}}, {"type": "node", "id": 502326055, "lat": 52.7688595, "lon": 0.1890812, "tags": {"bus": "yes", "highway": "bus_stop", "name": "Village Hall, adj", "naptan:AtcoCode": "270000010252", "naptan:Bearing": "NW", "naptan:CommonName": "Village Hall", "naptan:Indicator": "adj", "naptan:Landmark": "Village Hall", "naptan:NaptanCode": "linjmdwp", "naptan:Street": "Bridge Road", "naptan:verified": "no", "public_transport": "platform", "source": "naptan_import"}}, {"type": "node", "id": 502326056, "lat": 52.7666676, "lon": 0.1967538, "tags": {"highway": "bus_stop", "name": "A17 Crosskeys Bridge", "naptan:AtcoCode": "270000010253", "naptan:Bearing": "SE", "naptan:CommonName": "A17 Crosskeys Bridge", "naptan:Landmark": "A17 Crosskeys Bridge", "naptan:NaptanCode": "linjmdwt", "naptan:Street": "East Bank", "naptan:verified": "no", "source": "naptan_import"}}, {"type": "node", "id": 502326058, "lat": 52.7683973, "lon": 0.2355479, "tags": {"highway": "bus_stop", "name": "Laurel Cottage", "naptan:AtcoCode": "270000010254", "naptan:Bearing": "SW", "naptan:CommonName": "Laurel Cottage", "naptan:Landmark": "Laurel Cottage", "naptan:NaptanCode": "linjmgad", "naptan:Street": "Grange Road", "naptan:verified": "no", "source": "naptan_import"}}, {"type": "node", "id": 502326064, "lat": 52.7655706, "lon": 0.1982106, "tags": {"bench": "no", "bus": "yes", "highway": "bus_stop", "name": "Crosskeys Bridge", "naptan:AtcoCode": "270000010255", "naptan:Bearing": "NW", "naptan:CommonName": "Crosskeys Bridge", "naptan:Indicator": "Westbound", "naptan:Landmark": "Crosskeys Bridge", "naptan:NaptanCode": "linjmgag", "naptan:Street": "A17", "naptan:verified": "no", "public_transport": "platform", "shelter": "no", "source": "naptan_import"}}, {"type": "node", "id": 502326067, "lat": 52.76541, "lon": 0.1995959, "tags": {"bus": "yes", "highway": "bus_stop", "name": "Crosskeys Bridge", "naptan:AtcoCode": "270000010256", "naptan:Bearing": "SE", "naptan:CommonName": "Crosskeys Bridge", "naptan:Indicator": "Eastbound", "naptan:Landmark": "Crosskeys Bridge", "naptan:NaptanCode": "linjmgaj", "naptan:Street": "A17", "naptan:verified": "no", "public_transport": "platform", "source": "naptan_import"}}, {"type": "node", "id": 502326071, "lat": 52.7652233, "lon": 0.1960881, "tags": {"highway": "bus_stop", "name": "Nene House", "naptan:AtcoCode": "270000010257", "naptan:Bearing": "NE", "naptan:CommonName": "Nene House", "naptan:Landmark": "Nene House", "naptan:NaptanCode": "linjmgam", "naptan:Street": "Chalk Lane", "naptan:verified": "no", "source": "naptan_import"}}, {"type": "node", "id": 502326074, "lat": 52.741163, "lon": 0.1718311, "tags": {"highway": "bus_stop", "name": "Front Street", "naptan:AtcoCode": "270000010258", "naptan:Bearing": "SW", "naptan:CommonName": "Front Street", "naptan:Indicator": "adj", "naptan:Landmark": "Front Street", "naptan:NaptanCode": "linjmgap", "naptan:Street": "Station Road", "naptan:verified": "no", "public_transport": "platform", "source": "naptan_import"}}, {"type": "node", "id": 502326077, "lat": 52.7412779, "lon": 0.1717274, "tags": {"highway": "bus_stop", "name": "Front Street", "naptan:AtcoCode": "270000010259", "naptan:Bearing": "NE", "naptan:CommonName": "Front Street", "naptan:Indicator": "opp", "naptan:Landmark": "Front Street", "naptan:NaptanCode": "linjmgat", "naptan:Street": "Station Road", "naptan:verified": "no", "public_transport": "platform", "source": "naptan_import"}}, {"type": "node", "id": 502326081, "lat": 52.7400521, "lon": 0.1472072, "tags": {"highway": "bus_stop", "name": "Station Road", "naptan:AtcoCode": "270000010260", "naptan:Bearing": "NW", "naptan:CommonName": "Station Road", "naptan:Indicator": "opp", "naptan:Landmark": "Station Road", "naptan:NaptanCode": "linjmgaw", "naptan:Street": "Main Road", "naptan:verified": "no", "public_transport": "platform", "source": "naptan_import"}}, {"type": "node", "id": 502326084, "lat": 52.7397499, "lon": 0.153459, "tags": {"highway": "bus_stop", "name": "3 Long Road", "naptan:AtcoCode": "270000010261", "naptan:Bearing": "S", "naptan:CommonName": "3 Long Road", "naptan:Indicator": "opp", "naptan:Landmark": "Number 3", "naptan:NaptanCode": "linjmgda", "naptan:Street": "Long Road", "naptan:verified": "no", "public_transport": "platform", "source": "naptan_import"}}, {"type": "node", "id": 502327056, "lat": 52.7861446, "lon": 0.1226039, "tags": {"bus": "yes", "highway": "bus_stop", "name": "Masonic Hall", "naptan:AtcoCode": "270000010565", "naptan:Bearing": "SW", "naptan:CommonName": "Masonic Hall", "naptan:Indicator": "adj", "naptan:Landmark": "Masonic Hall", "naptan:NaptanCode": "linjmwmj", "naptan:Street": "Park Lane", "naptan:verified": "no", "public_transport": "platform", "source": "naptan_import"}}, {"type": "node", "id": 502327060, "lat": 52.798039, "lon": 0.1296955, "tags": {"bus": "yes", "highway": "bus_stop", "name": "Monmouth Lane", "naptan:AtcoCode": "270000010566", "naptan:Bearing": "N", "naptan:CommonName": "Monmouth Lane", "naptan:Indicator": "N - bound", "naptan:Landmark": "Monmouth Lane", "naptan:NaptanCode": "linjmwmp", "naptan:Street": "Lutton Gowts", "naptan:verified": "no", "public_transport": "platform", "source": "naptan_import"}}, {"type": "node", "id": 502328797, "lat": 52.6650907, "lon": 0.0150855, "tags": {"highway": "bus_stop", "name": "Four Horseshoes PH", "naptan:AtcoCode": "270000014505", "naptan:Bearing": "S", "naptan:CommonName": "Four Horseshoes PH", "naptan:Indicator": "opp", "naptan:Landmark": "Four Horseshoes PH", "naptan:NaptanCode": "linjptpt", "naptan:Street": "Broadgate Road", "naptan:verified": "no", "public_transport": "platform", "source": "naptan_import"}}, {"type": "node", "id": 502328810, "lat": 52.7429908, "lon": -0.0249383, "tags": {"highway": "bus_stop", "name": "Pillar Box", "naptan:AtcoCode": "270000014510", "naptan:Bearing": "S", "naptan:CommonName": "Pillar Box", "naptan:Indicator": "S - bound", "naptan:Landmark": "Pillar Box", "naptan:NaptanCode": "linjptwd", "naptan:Street": "Cranesgate", "naptan:verified": "no", "public_transport": "platform", "source": "naptan_import"}}, {"type": "node", "id": 502328814, "lat": 52.7429566, "lon": -0.0250436, "tags": {"highway": "bus_stop", "name": "Pillar Box", "naptan:AtcoCode": "270000014511", "naptan:Bearing": "N", "naptan:CommonName": "Pillar Box", "naptan:Indicator": "N - bound", "naptan:Landmark": "Pillar Box", "naptan:NaptanCode": "linjptwg", "naptan:Street": "Cranesgate", "naptan:verified": "no", "public_transport": "platform", "source": "naptan_import"}}, {"type": "node", "id": 502328819, "lat": 52.7353695, "lon": 0.0438338, "tags": {"highway": "bus_stop", "name": "Sun Inn", "naptan:AtcoCode": "270000014512", "naptan:Bearing": "NE", "naptan:CommonName": "Sun Inn", "naptan:Indicator": "opp", "naptan:Landmark": "Sun Inn", "naptan:NaptanCode": "linagtdm", "naptan:Street": "Broadgate", "naptan:verified": "no", "source": "naptan_import"}}, {"type": "node", "id": 502328825, "lat": 52.7352609, "lon": 0.0438731, "tags": {"highway": "bus_stop", "name": "Sun Inn", "naptan:AtcoCode": "270000014513", "naptan:Bearing": "SW", "naptan:CommonName": "Sun Inn", "naptan:Indicator": "adj", "naptan:Landmark": "Sun Inn", "naptan:NaptanCode": "linagtdw", "naptan:Street": "Broadgate", "naptan:verified": "no", "source": "naptan_import"}}, {"type": "node", "id": 502328840, "lat": 52.7473123, "lon": 0.0727081, "tags": {"highway": "bus_stop", "name": "Jarvisgate", "naptan:AtcoCode": "270000014514", "naptan:Bearing": "N", "naptan:CommonName": "Jarvisgate", "naptan:Indicator": "o/s", "naptan:Landmark": "Number 23", "naptan:NaptanCode": "linjptwj", "naptan:Street": "Jarvisgate", "naptan:verified": "no", "source": "naptan_import"}}, {"type": "node", "id": 502328843, "lat": 52.7473097, "lon": 0.0728561, "tags": {"highway": "bus_stop", "name": "Jarvisgate", "naptan:AtcoCode": "270000014515", "naptan:Bearing": "S", "naptan:CommonName": "Jarvisgate", "naptan:Indicator": "opp", "naptan:Landmark": "Number 23", "naptan:NaptanCode": "linjptwm", "naptan:Street": "Jarvisgate", "naptan:verified": "no", "source": "naptan_import"}}, {"type": "node", "id": 502328848, "lat": 52.7579247, "lon": 0.0684398, "tags": {"highway": "bus_stop", "name": "Red House", "naptan:AtcoCode": "270000014516", "naptan:Bearing": "E", "naptan:CommonName": "Red House", "naptan:Indicator": "E - bound", "naptan:Landmark": "Red House", "naptan:NaptanCode": "linjptwp", "naptan:Street": "Jarvisgate", "naptan:verified": "no", "source": "naptan_import"}}, {"type": "node", "id": 502328853, "lat": 52.7578443, "lon": 0.0684063, "tags": {"highway": "bus_stop", "name": "Red House", "naptan:AtcoCode": "270000014517", "naptan:Bearing": "W", "naptan:CommonName": "Red House", "naptan:Indicator": "W - bound", "naptan:Landmark": "Red House", "naptan:NaptanCode": "linjptwt", "naptan:Street": "Jarvisgate", "naptan:verified": "no", "source": "naptan_import"}}, {"type": "node", "id": 502328865, "lat": 52.7588016, "lon": -0.033308, "tags": {"highway": "bus_stop", "name": "St Catherine's Bridge", "naptan:AtcoCode": "270000014519", "naptan:Bearing": "S", "naptan:CommonName": "St Catherine's Bridge", "naptan:Indicator": "Southbound", "naptan:Landmark": "St Catherine's Bridge", "naptan:NaptanCode": "linjpwag", "naptan:Street": "Millgate", "naptan:verified": "no", "source": "naptan_import"}}, {"type": "node", "id": 502329555, "lat": 52.7467681, "lon": 0.1442629, "tags": {"highway": "bus_stop", "name": "Common Way", "naptan:AtcoCode": "270002700345", "naptan:Bearing": "SE", "naptan:CommonName": "Common Way", "naptan:Indicator": "opp", "naptan:Landmark": "Common Way", "naptan:Street": "Wisbech Road", "naptan:verified": "no", "public_transport": "platform", "source": "naptan_import"}}, {"type": "node", "id": 502329560, "lat": 52.7397169, "lon": 0.1532944, "tags": {"highway": "bus_stop", "name": "3 Long Road", "naptan:AtcoCode": "270002700347", "naptan:Bearing": "N", "naptan:CommonName": "3 Long Road", "naptan:Indicator": "adj", "naptan:Landmark": "Number 3", "naptan:Street": "Long Road", "naptan:verified": "no", "public_transport": "platform", "source": "naptan_import"}}, {"type": "node", "id": 502329565, "lat": 52.7455067, "lon": 0.1012182, "tags": {"highway": "bus_stop", "name": "Hunts Gate", "naptan:AtcoCode": "270002700349", "naptan:Bearing": "SE", "naptan:CommonName": "Hunts Gate", "naptan:Indicator": "opp", "naptan:Landmark": "Hunts Gate", "naptan:Street": "Draw Dike", "naptan:verified": "no", "source": "naptan_import"}}, {"type": "node", "id": 502329642, "lat": 52.6653138, "lon": -0.0200136, "tags": {"highway": "bus_stop", "name": "White House", "naptan:AtcoCode": "270002700366", "naptan:Bearing": "NW", "naptan:CommonName": "White House", "naptan:Indicator": "opp", "naptan:Landmark": "White House", "naptan:NaptanCode": "linagamd", "naptan:Street": "B1166", "naptan:verified": "no", "source": "naptan_import"}}, {"type": "node", "id": 502330133, "lat": 52.7588041, "lon": -0.0334561, "tags": {"highway": "bus_stop", "name": "St Catherine's Bridge", "naptan:AtcoCode": "270002700545", "naptan:Bearing": "N", "naptan:CommonName": "St Catherine's Bridge", "naptan:Indicator": "Northbound", "naptan:Landmark": "St Catherine's Bridge", "naptan:Street": "Millgate", "naptan:verified": "no", "source": "naptan_import"}}, {"type": "node", "id": 502330271, "lat": 52.7823497, "lon": 0.1256357, "tags": {"bus": "yes", "highway": "bus_stop", "name": "Seagate Road, adj", "naptan:AtcoCode": "270002700610", "naptan:Bearing": "NW", "naptan:CommonName": "Seagate Road", "naptan:Indicator": "adj", "naptan:Landmark": "Seagate Road", "naptan:Street": "London Road", "naptan:verified": "no", "public_transport": "platform", "source": "naptan_import"}}, {"type": "node", "id": 502330276, "lat": 52.7819154, "lon": 0.1268022, "tags": {"bus": "yes", "highway": "bus_stop", "name": "Seagate Road, opp", "naptan:AtcoCode": "270002700611", "naptan:Bearing": "SE", "naptan:CommonName": "Seagate Road", "naptan:Indicator": "opp", "naptan:Landmark": "Seagate Road", "naptan:Street": "London Road", "naptan:verified": "no", "public_transport": "platform", "source": "naptan_import"}}, {"type": "node", "id": 502330279, "lat": 52.7698321, "lon": 0.1855868, "tags": {"bus": "yes", "highway": "bus_stop", "name": "Post Office, opp", "naptan:AtcoCode": "270002700613", "naptan:Bearing": "NW", "naptan:CommonName": "Post Office", "naptan:Indicator": "opp", "naptan:Landmark": "Post Office", "naptan:NaptanCode": "linatpga", "naptan:Street": "Bridge Road", "naptan:verified": "no", "public_transport": "platform", "source": "naptan_import"}}, {"type": "node", "id": 502330852, "lat": 52.7434827, "lon": 0.0556216, "tags": {"highway": "bus_stop", "name": "St Ives Cross", "naptan:AtcoCode": "270002700837", "naptan:Bearing": "SE", "naptan:CommonName": "St Ives Cross", "naptan:Indicator": "opp", "naptan:Landmark": "St Ives Cross", "naptan:Street": "Fishergate", "naptan:verified": "no", "source": "naptan_import"}}, {"type": "node", "id": 502330857, "lat": 52.7434134, "lon": 0.0554701, "tags": {"highway": "bus_stop", "name": "St Ives Cross", "naptan:AtcoCode": "270002700838", "naptan:Bearing": "NW", "naptan:CommonName": "St Ives Cross", "naptan:Indicator": "adj", "naptan:Landmark": "St Ives Cross", "naptan:Street": "Fishergate", "naptan:verified": "no", "source": "naptan_import"}}, {"type": "node", "id": 502331393, "lat": 52.6785822, "lon": -0.1656459, "tags": {"bus": "yes", "highway": "bus_stop", "name": "Saint Guthlacs Secondary School", "naptan:AtcoCode": "270002701030", "naptan:Bearing": "NE", "naptan:CommonName": "Saint Guthlacs Secondary School", "naptan:Indicator": "outside", "naptan:Landmark": "Saint Guthlacs Secondary School", "naptan:NaptanCode": "linadtjt", "naptan:Street": "Postland Road", "naptan:verified": "no", "public_transport": "platform", "source": "naptan_import"}}, {"type": "node", "id": 502333255, "lat": 52.7280975, "lon": -0.1277721, "tags": {"highway": "bus_stop", "name": "Bradbourne House", "naptan:AtcoCode": "270002701645", "naptan:Bearing": "SW", "naptan:CommonName": "Bradbourne House", "naptan:Indicator": "adj", "naptan:Landmark": "Bradbourne House", "naptan:Street": "Barrier Bank", "naptan:verified": "no", "source": "naptan_import"}}, {"type": "node", "id": 502333260, "lat": 52.7281017, "lon": -0.1280385, "tags": {"highway": "bus_stop", "name": "Bradbourne House", "naptan:AtcoCode": "270002701646", "naptan:Bearing": "NE", "naptan:CommonName": "Bradbourne House", "naptan:Indicator": "opp", "naptan:Landmark": "Bradbourne House", "naptan:Street": "Barrier Bank", "naptan:verified": "no", "source": "naptan_import"}}, {"type": "node", "id": 502333696, "lat": 52.7171378, "lon": -0.1352153, "tags": {"highway": "bus_stop", "name": "Queens Bank", "naptan:AtcoCode": "2700LBB00534", "naptan:Bearing": "NW", "naptan:CommonName": "Queens Bank", "naptan:Indicator": "opp", "naptan:Landmark": "Queens Bank", "naptan:NaptanCode": "linadtwg", "naptan:Street": "Barrier Bank", "naptan:verified": "no", "source": "naptan_import"}}, {"type": "node", "id": 502334846, "lat": 52.6800757, "lon": -0.1581716, "tags": {"bus": "yes", "highway": "bus_stop", "name": "The Gardens", "naptan:AtcoCode": "2700LCPR0830", "naptan:Bearing": "SW", "naptan:CommonName": "The Gardens", "naptan:Indicator": "opp", "naptan:Landmark": "The Gardens", "naptan:NaptanCode": "linagmdp", "naptan:Street": "Postland Road", "naptan:verified": "no", "public_transport": "platform", "source": "naptan_import"}}, {"type": "node", "id": 502334986, "lat": 52.6792251, "lon": -0.1618762, "tags": {"bus": "yes", "highway": "bus_stop", "name": "Eastlands", "naptan:AtcoCode": "2700LCSG4237", "naptan:Bearing": "SW", "naptan:CommonName": "Eastlands", "naptan:Indicator": "opp", "naptan:Landmark": "Eastlands", "naptan:NaptanCode": "lindjmdt", "naptan:Street": "Postland Road", "naptan:verified": "no", "public_transport": "platform", "source": "naptan_import"}}, {"type": "node", "id": 502335147, "lat": 52.6753181, "lon": -0.1702794, "tags": {"bus": "yes", "highway": "bus_stop", "name": "Jareys Close", "naptan:AtcoCode": "2700LCWS2420", "naptan:Bearing": "SW", "naptan:CommonName": "Jareys Close", "naptan:Indicator": "adj", "naptan:Landmark": "Jareys Close", "naptan:NaptanCode": "linapwtp", "naptan:Street": "West Street", "naptan:verified": "no", "public_transport": "platform", "source": "naptan_import"}}, {"type": "node", "id": 502335160, "lat": 52.683188, "lon": -0.0895405, "tags": {"highway": "bus_stop", "name": "Coxs Drove", "naptan:AtcoCode": "2700LDBC4228", "naptan:Bearing": "NE", "naptan:CommonName": "Coxs Drove", "naptan:Indicator": "adj", "naptan:Landmark": "Coxs Drove", "naptan:NaptanCode": "lindjmap", "naptan:Street": "Dowsdale Bank", "naptan:verified": "no", "source": "naptan_import"}}, {"type": "node", "id": 502335383, "lat": 52.7412324, "lon": 0.1717548, "tags": {"highway": "bus_stop", "name": "Demand Responsive Area", "naptan:AtcoCode": "2700LFAC2488", "naptan:Bearing": "NE", "naptan:CommonName": "Demand Responsive Area", "naptan:Landmark": "Demand Responsive Area", "naptan:NaptanCode": "linatawp", "naptan:Street": "CallConnect", "naptan:verified": "no", "public_transport": "platform", "source": "naptan_import"}}, {"type": "node", "id": 502335587, "lat": 52.7952725, "lon": 0.1013025, "tags": {"bus": "yes", "highway": "bus_stop", "name": "Albert Avenue, adj", "naptan:AtcoCode": "2700LGAA0346", "naptan:Bearing": "SE", "naptan:CommonName": "Albert Avenue", "naptan:Indicator": "adj", "naptan:Landmark": "Albert Avenue", "naptan:NaptanCode": "linadmgp", "naptan:Street": "Main Road", "naptan:verified": "no", "public_transport": "platform", "shelter": "no", "source": "naptan_import", "tactile_paving": "no"}}, {"type": "node", "id": 502335854, "lat": 52.6797153, "lon": -0.0168475, "tags": {"bus": "yes", "highway": "bus_stop", "name": "Duke's Head PH", "naptan:AtcoCode": "2700LGHDH858", "naptan:Bearing": "NW", "naptan:CommonName": "Duke's Head PH", "naptan:Indicator": "opp", "naptan:Landmark": "Duke's Head PH", "naptan:NaptanCode": "linagmpt", "naptan:Street": "Highstock Lane", "naptan:verified": "no", "public_transport": "platform", "source": "naptan_import"}}, {"type": "node", "id": 502335888, "lat": 52.6839568, "lon": -0.0202503, "tags": {"highway": "bus_stop", "name": "Memorial Hall", "naptan:AtcoCode": "2700LGHMH809", "naptan:Bearing": "SW", "naptan:CommonName": "Memorial Hall", "naptan:Indicator": "adj", "naptan:Landmark": "Memorial Hall", "naptan:NaptanCode": "linagjwa", "naptan:Street": "Hillgate", "naptan:verified": "no", "public_transport": "platform", "source": "naptan_import"}}, {"type": "node", "id": 502336381, "lat": 52.7016548, "lon": -0.0312311, "tags": {"highway": "bus_stop", "name": "Gate Barrs Lane", "naptan:AtcoCode": "2700LHDB4233", "naptan:Bearing": "NE", "naptan:CommonName": "Gate Barrs Lane", "naptan:Indicator": "NE - bound", "naptan:Landmark": "Barrs Lane", "naptan:NaptanCode": "lindjmdj", "naptan:Street": "Holbeach Drove Gate", "naptan:verified": "no", "source": "naptan_import"}}, {"type": "node", "id": 502336384, "lat": 52.692364, "lon": -0.0395481, "tags": {"highway": "bus_stop", "name": "Chapel Drove", "naptan:AtcoCode": "2700LHDB6273", "naptan:Bearing": "W", "naptan:CommonName": "Chapel Drove", "naptan:Indicator": "adj", "naptan:Landmark": "Chapel Drove", "naptan:NaptanCode": "lingawag", "naptan:Street": "Drove Road", "naptan:verified": "no", "public_transport": "platform", "source": "naptan_import"}}, {"type": "node", "id": 502336388, "lat": 52.6927819, "lon": -0.0356556, "tags": {"highway": "bus_stop", "name": "St Polycarp's Church", "naptan:AtcoCode": "2700LHDC1871", "naptan:Bearing": "E", "naptan:CommonName": "St Polycarp's Church", "naptan:Indicator": "adj", "naptan:Landmark": "St Polycarp's Church", "naptan:NaptanCode": "linamtwd", "naptan:Street": "Long Lane", "naptan:verified": "no", "public_transport": "platform", "source": "naptan_import"}}, {"type": "node", "id": 502336393, "lat": 52.7015889, "lon": -0.0310565, "tags": {"highway": "bus_stop", "name": "Gate Barrs Lane", "naptan:AtcoCode": "2700LHDC4356", "naptan:Bearing": "SW", "naptan:CommonName": "Gate Barrs Lane", "naptan:Indicator": "SW - bound", "naptan:Landmark": "Barrs Lane", "naptan:NaptanCode": "lindjtjm", "naptan:Street": "Holbeach Drove Gate", "naptan:verified": "no", "source": "naptan_import"}}, {"type": "node", "id": 502336398, "lat": 52.6895322, "lon": -0.0490301, "tags": {"highway": "bus_stop", "name": "Fowler's Depot", "naptan:AtcoCode": "2700LHDD1452", "naptan:Bearing": "SW", "naptan:CommonName": "Fowler's Depot", "naptan:Indicator": "o/s", "naptan:Landmark": "Fowler's Depot", "naptan:NaptanCode": "linajwgm", "naptan:Street": "Dog Drove", "naptan:verified": "no", "source": "naptan_import"}}, {"type": "node", "id": 502336409, "lat": 52.6831234, "lon": -0.0894398, "tags": {"highway": "bus_stop", "name": "Coxs Drove", "naptan:AtcoCode": "2700LHDP4635", "naptan:Bearing": "SW", "naptan:CommonName": "Coxs Drove", "naptan:Indicator": "opp", "naptan:Landmark": "Coxs Drove", "naptan:NaptanCode": "lindmjpm", "naptan:Street": "Dowsdale Bank", "naptan:verified": "no", "source": "naptan_import"}}, {"type": "node", "id": 502336623, "lat": 52.7105207, "lon": -0.2417308, "tags": {"bus": "yes", "highway": "bus_stop", "name": "Blue Bell Inn", "naptan:AtcoCode": "2700LHPB1430", "naptan:Bearing": "NE", "naptan:CommonName": "Blue Bell Inn", "naptan:Indicator": "opp", "naptan:Landmark": "Blue Bell Inn", "naptan:Street": "Littleworth Drove", "naptan:verified": "no", "public_transport": "platform", "source": "naptan_import"}}, {"type": "node", "id": 502336656, "lat": 52.7442187, "lon": -0.0171638, "tags": {"highway": "bus_stop", "name": "Nutts Lane", "naptan:AtcoCode": "2700LHSJ2185", "naptan:Bearing": "NE", "naptan:CommonName": "Nutts Lane", "naptan:Indicator": "adj", "naptan:Landmark": "Nutts Lane", "naptan:NaptanCode": "linapjgd", "naptan:Street": "Jekyls Bank", "naptan:verified": "no", "public_transport": "platform", "source": "naptan_import"}}, {"type": "node", "id": 502336661, "lat": 52.7461289, "lon": -0.0034755, "tags": {"bench": "no", "bin": "no", "highway": "bus_stop", "lit": "no", "name": "Plough Inn", "naptan:AtcoCode": "2700LHSJP352", "naptan:Bearing": "SW", "naptan:CommonName": "Plough Inn", "naptan:Indicator": "adj", "naptan:Landmark": "Plough Inn", "naptan:Street": "Jekyl's Bank", "naptan:verified": "no", "shelter": "no", "source": "naptan_import"}}, {"type": "node", "id": 502336804, "lat": 52.7441194, "lon": -0.0171386, "tags": {"highway": "bus_stop", "name": "Nutts Lane", "naptan:AtcoCode": "2700LJBN4633", "naptan:Bearing": "SW", "naptan:CommonName": "Nutts Lane", "naptan:Indicator": "opp", "naptan:Landmark": "Nutts Lane", "naptan:NaptanCode": "lindmjpg", "naptan:Street": "Jekyls Bank", "naptan:verified": "no", "public_transport": "platform", "source": "naptan_import"}}, {"type": "node", "id": 502337862, "lat": 52.7978763, "lon": 0.1297469, "tags": {"bus": "yes", "highway": "bus_stop", "name": "Monmouth Lane", "naptan:AtcoCode": "2700LLML2464", "naptan:Bearing": "S", "naptan:CommonName": "Monmouth Lane", "naptan:Indicator": "S - bound", "naptan:Landmark": "Monmouth Lane", "naptan:NaptanCode": "linatapj", "naptan:Street": "Lutton Gowts", "naptan:verified": "no", "public_transport": "platform", "source": "naptan_import"}}, {"type": "node", "id": 502338204, "lat": 52.7910269, "lon": 0.1291304, "tags": {"bus": "yes", "highway": "bus_stop", "name": "Butterfly Park", "naptan:AtcoCode": "2700LLSB2494", "naptan:Bearing": "S", "naptan:CommonName": "Butterfly Park", "naptan:Indicator": "adj", "naptan:Landmark": "Butterfly Park", "naptan:NaptanCode": "linatdap", "naptan:Street": "Little London", "naptan:verified": "no", "public_transport": "platform", "source": "naptan_import"}}, {"type": "node", "id": 502338230, "lat": 52.7861922, "lon": 0.1224579, "tags": {"bus": "yes", "highway": "bus_stop", "name": "Masonic Hall", "naptan:AtcoCode": "2700LLSC0023", "naptan:Bearing": "NE", "naptan:CommonName": "Masonic Hall", "naptan:Indicator": "opp", "naptan:Landmark": "Masonic Hall", "naptan:NaptanCode": "linadadm", "naptan:Street": "Park Lane", "naptan:verified": "no", "public_transport": "platform", "source": "naptan_import"}}, {"type": "node", "id": 502338307, "lat": 52.7788401, "lon": 0.1526072, "tags": {"bus": "yes", "highway": "bus_stop", "name": "Hospital Drove, adj", "naptan:AtcoCode": "2700LLSH6059", "naptan:Bearing": "SE", "naptan:CommonName": "Hospital Drove", "naptan:Indicator": "adj", "naptan:Landmark": "Hospital Drove", "naptan:NaptanCode": "lingajdt", "naptan:Street": "Bridge Road", "naptan:verified": "no", "public_transport": "platform", "shelter": "no", "source": "naptan_import"}}, {"type": "node", "id": 502338323, "lat": 52.7864986, "lon": 0.120203, "tags": {"bus": "yes", "highway": "bus_stop", "name": "Market Court", "naptan:AtcoCode": "2700LLSO3082", "naptan:Bearing": "NW", "naptan:CommonName": "Market Court", "naptan:Indicator": "adj", "naptan:Landmark": "Market Court", "naptan:NaptanCode": "linawjda", "naptan:Street": "Market Street", "naptan:verified": "no", "public_transport": "platform", "shelter": "yes", "source": "naptan_import"}}, {"type": "node", "id": 502338334, "lat": 52.7851651, "lon": 0.1230752, "tags": {"bus": "yes", "highway": "bus_stop", "name": "Othellos Bakery", "naptan:AtcoCode": "2700LLSP2391", "naptan:Bearing": "SE", "naptan:CommonName": "Post Office", "naptan:Indicator": "adj", "naptan:Landmark": "Post Office", "naptan:NaptanCode": "linapwjm", "naptan:Street": "High Street", "naptan:verified": "no", "public_transport": "platform", "source": "naptan_import"}}, {"type": "node", "id": 502338341, "lat": 52.7935366, "lon": 0.1289608, "tags": {"bus": "yes", "highway": "bus_stop", "name": "Peele School", "naptan:AtcoCode": "2700LLSPS345", "naptan:Bearing": "W", "naptan:CommonName": "Peele School", "naptan:Landmark": "Peele School", "naptan:NaptanCode": "linadmgm", "naptan:Street": "Little London", "naptan:verified": "no", "public_transport": "platform", "source": "naptan_import"}}, {"type": "node", "id": 502338560, "lat": 52.7464705, "lon": -0.0846838, "tags": {"highway": "bus_stop", "name": "Church", "naptan:AtcoCode": "2700LMCC1415", "naptan:Bearing": "E", "naptan:CommonName": "Church", "naptan:Indicator": "opp", "naptan:Landmark": "Church", "naptan:NaptanCode": "linajtpt", "naptan:Street": "Roman Road", "naptan:verified": "no", "public_transport": "platform", "source": "naptan_import"}}, {"type": "node", "id": 502338564, "lat": 52.7464128, "lon": -0.0777819, "tags": {"highway": "bus_stop", "name": "Cekhira Avenue", "naptan:AtcoCode": "2700LMCC4357", "naptan:Bearing": "W", "naptan:CommonName": "Cekhira Avenue", "naptan:Indicator": "adj", "naptan:Landmark": "Cekhira Avenue", "naptan:NaptanCode": "lindjtjp", "naptan:Street": "Roman Road", "naptan:verified": "no", "public_transport": "platform", "source": "naptan_import"}}, {"type": "node", "id": 502339656, "lat": 52.7732934, "lon": 0.1733804, "tags": {"bench": "no", "bus": "yes", "highway": "bus_stop", "name": "Nightingale Way, adj", "naptan:AtcoCode": "2700LSBA5881", "naptan:Bearing": "SE", "naptan:CommonName": "Nightingale Way", "naptan:Indicator": "adj", "naptan:Landmark": "Nightingale Way", "naptan:NaptanCode": "lindwtam", "naptan:Street": "Bridge Road", "naptan:verified": "no", "public_transport": "platform", "shelter": "no", "source": "naptan_import"}}, {"type": "node", "id": 502339660, "lat": 52.7674324, "lon": 0.1933234, "tags": {"bus": "yes", "highway": "bus_stop", "name": "Bridge Hotel, opp", "naptan:AtcoCode": "2700LSBB1940", "naptan:Bearing": "NW", "naptan:CommonName": "Bridge Hotel", "naptan:Indicator": "opp", "naptan:Landmark": "Bridge Hotel", "naptan:NaptanCode": "linamwpt", "naptan:Street": "Bridge Road", "naptan:verified": "no", "public_transport": "platform", "source": "naptan_import"}}, {"type": "node", "id": 502339663, "lat": 52.7680107, "lon": 0.1926854, "tags": {"bus": "yes", "highway": "bus_stop", "name": "Bridge Hotel, adj", "naptan:AtcoCode": "2700LSBB4192", "naptan:Bearing": "SE", "naptan:CommonName": "Bridge Hotel", "naptan:Indicator": "adj", "naptan:Landmark": "Bridge Hotel", "naptan:NaptanCode": "lindjgjw", "naptan:Street": "Bridge Road", "naptan:verified": "no", "public_transport": "platform", "source": "naptan_import"}}, {"type": "node", "id": 502339709, "lat": 52.7701798, "lon": 0.184774, "tags": {"bus": "yes", "highway": "bus_stop", "name": "Post Office, adj", "naptan:AtcoCode": "2700LSBP5880", "naptan:Bearing": "SE", "naptan:CommonName": "Post Office", "naptan:Indicator": "adj", "naptan:Landmark": "Post Office", "naptan:NaptanCode": "lindwtaj", "naptan:Street": "Bridge Road", "naptan:verified": "no", "public_transport": "platform", "source": "naptan_import"}}, {"type": "node", "id": 502340515, "lat": 52.6997165, "lon": 0.0240511, "tags": {"highway": "bus_stop", "name": "St Edmund's Church", "naptan:AtcoCode": "2700LSSE3912", "naptan:Bearing": "S", "naptan:CommonName": "St Edmund's Church", "naptan:Indicator": "opp", "naptan:Landmark": "St Edmund's Church", "naptan:NaptanCode": "lindgpat", "naptan:Street": "Broadgate Road", "naptan:verified": "no", "public_transport": "platform", "source": "naptan_import"}}, {"type": "node", "id": 502340545, "lat": 52.6996118, "lon": 0.0238687, "tags": {"highway": "bus_stop", "name": "St Edmund's Church", "naptan:AtcoCode": "2700LSSE6684", "naptan:Bearing": "N", "naptan:CommonName": "St Edmund's Church", "naptan:Indicator": "adj", "naptan:Landmark": "St Edmund's Church", "naptan:NaptanCode": "lingdtpt", "naptan:Street": "Broadgate Road", "naptan:verified": "no", "public_transport": "platform", "source": "naptan_import"}}, {"type": "node", "id": 502340587, "lat": 52.7447245, "lon": 0.0674589, "tags": {"highway": "bus_stop", "name": "St James's Church", "naptan:AtcoCode": "2700LSSJC343", "naptan:Bearing": "NE", "naptan:CommonName": "St James's Church", "naptan:Indicator": "adj", "naptan:Landmark": "St James's Church", "naptan:NaptanCode": "linadmgd", "naptan:Street": "Draw Dike", "naptan:verified": "no", "source": "naptan_import"}}, {"type": "node", "id": 502340625, "lat": 52.6924492, "lon": -0.068478, "tags": {"highway": "bus_stop", "name": "Back Bank", "naptan:AtcoCode": "2700LSST1846", "naptan:Bearing": "E", "naptan:CommonName": "Back Bank", "naptan:Indicator": "adj", "naptan:Landmark": "Back Bank", "naptan:NaptanCode": "linamtjt", "naptan:Street": "Hull's Drove", "naptan:verified": "no", "source": "naptan_import"}}, {"type": "node", "id": 502340910, "lat": 52.7465938, "lon": 0.143958, "tags": {"highway": "bus_stop", "name": "Common Way", "naptan:AtcoCode": "2700LTCP0111", "naptan:Bearing": "NW", "naptan:CommonName": "Common Way", "naptan:Indicator": "adj", "naptan:Landmark": "Common Way", "naptan:NaptanCode": "linadawa", "naptan:Street": "Wisbech Road", "naptan:verified": "no", "public_transport": "platform", "source": "naptan_import"}}, {"type": "node", "id": 502340931, "lat": 52.7404934, "lon": 0.1471697, "tags": {"highway": "bus_stop", "name": "Station Road", "naptan:AtcoCode": "2700LTGC6214", "naptan:Bearing": "SE", "naptan:CommonName": "Station Road", "naptan:Indicator": "adj", "naptan:Landmark": "Station Road", "naptan:NaptanCode": "lingatap", "naptan:Street": "Main Road", "naptan:verified": "no", "public_transport": "platform", "source": "naptan_import"}}, {"type": "node", "id": 502340954, "lat": 52.6650128, "lon": 0.0149044, "tags": {"highway": "bus_stop", "name": "Four Horseshoes PH", "naptan:AtcoCode": "2700LTHP4508", "naptan:Bearing": "NE", "naptan:CommonName": "Four Horseshoes PH", "naptan:Indicator": "adj", "naptan:Landmark": "Four Horseshoes PH", "naptan:NaptanCode": "lindmdjm", "naptan:Street": "Broadgate Road", "naptan:verified": "no", "public_transport": "platform", "source": "naptan_import"}}, {"type": "node", "id": 502341002, "lat": 52.6656201, "lon": -0.0029034, "tags": {"highway": "bus_stop", "name": "Coronation Avenue", "naptan:AtcoCode": "2700LTPB1997", "naptan:Bearing": "W", "naptan:CommonName": "Coronation Avenue", "naptan:Indicator": "adj", "naptan:Landmark": "Coronation Avenue", "naptan:NaptanCode": "linapamw", "naptan:Street": "B1166", "naptan:verified": "no", "source": "naptan_import"}}, {"type": "node", "id": 502341020, "lat": 52.7469755, "lon": 0.1262556, "tags": {"highway": "bus_stop", "name": "Lowgate", "naptan:AtcoCode": "2700LTSM1653", "naptan:Bearing": "E", "naptan:CommonName": "Lowgate", "naptan:Indicator": "opp", "naptan:Landmark": "Lowgate", "naptan:NaptanCode": "linamgjp", "naptan:Street": "Church Way", "naptan:verified": "no", "source": "naptan_import"}}, {"type": "node", "id": 502341024, "lat": 52.7456194, "lon": 0.1366441, "tags": {"highway": "bus_stop", "name": "Rectory Road", "naptan:AtcoCode": "2700LTSM1759", "naptan:Bearing": "W", "naptan:CommonName": "Rectory Road", "naptan:Indicator": "adj", "naptan:Landmark": "Rectory Road", "naptan:NaptanCode": "linampaj", "naptan:Street": "Common Way", "naptan:verified": "no", "public_transport": "platform", "source": "naptan_import"}}, {"type": "node", "id": 502341027, "lat": 52.7469148, "lon": 0.1262402, "tags": {"highway": "bus_stop", "name": "Lowgate", "naptan:AtcoCode": "2700LTSM6215", "naptan:Bearing": "W", "naptan:CommonName": "Lowgate", "naptan:Indicator": "adj", "naptan:Landmark": "Lowgate", "naptan:NaptanCode": "lingatat", "naptan:Street": "Church Way", "naptan:verified": "no", "source": "naptan_import"}}, {"type": "node", "id": 502341030, "lat": 52.7457324, "lon": 0.1366419, "tags": {"highway": "bus_stop", "name": "Rectory Road", "naptan:AtcoCode": "2700LTSM6459", "naptan:Bearing": "E", "naptan:CommonName": "Rectory Road", "naptan:Indicator": "opp", "naptan:Landmark": "Rectory Road", "naptan:NaptanCode": "lingdjam", "naptan:Street": "Church Way", "naptan:verified": "no", "public_transport": "platform", "source": "naptan_import"}}, {"type": "node", "id": 502341034, "lat": 52.7438021, "lon": 0.1267233, "tags": {"highway": "bus_stop", "name": "Lowgate", "naptan:AtcoCode": "2700LTSM6685", "naptan:Bearing": "E", "naptan:CommonName": "Lowgate", "naptan:Indicator": "E - bound", "naptan:Landmark": "Lowgate", "naptan:NaptanCode": "lingdtpw", "naptan:Street": "Hix's Lane", "naptan:verified": "no", "public_transport": "platform", "source": "naptan_import"}}, {"type": "node", "id": 502341073, "lat": 52.6654119, "lon": -0.0199648, "tags": {"highway": "bus_stop", "name": "White House", "naptan:AtcoCode": "2700LTWH3464", "naptan:Bearing": "SE", "naptan:CommonName": "White House", "naptan:Indicator": "adj", "naptan:Landmark": "White House", "naptan:NaptanCode": "lindajtp", "naptan:Street": "B1166", "naptan:verified": "no", "source": "naptan_import"}}, {"type": "node", "id": 502341107, "lat": 52.7454105, "lon": 0.1010654, "tags": {"highway": "bus_stop", "name": "Hunts Gate", "naptan:AtcoCode": "2700LW000763", "naptan:Bearing": "NW", "naptan:CommonName": "Hunts Gate", "naptan:Indicator": "adj", "naptan:Landmark": "Hunts Gate", "naptan:NaptanCode": "linagjgj", "naptan:Street": "Draw Dike", "naptan:verified": "no", "source": "naptan_import"}}, {"type": "node", "id": 502341253, "lat": 52.701862, "lon": -0.0481101, "tags": {"highway": "bus_stop", "name": "Parsons Lane", "naptan:AtcoCode": "2700LWDC0782", "naptan:Bearing": "SW", "naptan:CommonName": "Parsons Lane", "naptan:Indicator": "adj", "naptan:Landmark": "Parsons Lane", "naptan:NaptanCode": "linagjmp", "naptan:Street": "Broadgate", "naptan:verified": "no", "public_transport": "platform", "source": "naptan_import"}}, {"type": "node", "id": 502341266, "lat": 52.7027516, "lon": -0.0519041, "tags": {"highway": "bus_stop", "name": "Green Bank", "naptan:AtcoCode": "2700LWDF4230", "naptan:Bearing": "E", "naptan:CommonName": "Green Bank", "naptan:Indicator": "E - bound", "naptan:Landmark": "Green Bank", "naptan:NaptanCode": "lindjmaw", "naptan:Street": "Farrow Road", "naptan:verified": "no", "public_transport": "platform", "source": "naptan_import"}}, {"type": "node", "id": 502341271, "lat": 52.6990536, "lon": -0.0506479, "tags": {"highway": "bus_stop", "name": "Post Office", "naptan:AtcoCode": "2700LWDP6272", "naptan:Bearing": "NE", "naptan:CommonName": "Post Office", "naptan:Indicator": "adj", "naptan:Landmark": "Post Office", "naptan:NaptanCode": "lingawad", "naptan:Street": "Broadgate", "naptan:verified": "no", "source": "naptan_import"}}, {"type": "node", "id": 502341363, "lat": 52.7703281, "lon": 0.2121784, "tags": {"highway": "bus_stop", "name": "Garner's Lane", "naptan:AtcoCode": "2700LWM02500", "naptan:Bearing": "SE", "naptan:CommonName": "Garner's Lane", "naptan:Landmark": "Bleak House Cottages", "naptan:NaptanCode": "linatdgm", "naptan:Street": "Garner's Lane", "naptan:verified": "no", "source": "naptan_import"}}, {"type": "node", "id": 506800120, "lat": 52.4370652, "lon": 0.2503386, "tags": {"bus": "yes", "highway": "bus_stop", "public_transport": "platform"}}, {"type": "node", "id": 533792047, "lat": 52.4122282, "lon": 0.1822839, "tags": {"highway": "bus_stop", "name": "Short Lane", "naptan:AtcoCode": "0500ECOVE001", "naptan:Bearing": "SW", "naptan:BusStopType": "CUS", "naptan:CommonName": "Short Lane", "naptan:Indicator": "opp", "naptan:Landmark": "Short Lane", "naptan:NaptanCode": "cmbdgmta", "naptan:ShortCommonName": "Short Lane", "naptan:Street": "Main Street", "naptan:verified": "no", "source": "naptan_import"}}, {"type": "node", "id": 533792049, "lat": 52.412275, "lon": 0.1821833, "tags": {"highway": "bus_stop", "name": "Short Lane", "naptan:AtcoCode": "0500ECOVE002", "naptan:Bearing": "NE", "naptan:BusStopType": "CUS", "naptan:CommonName": "Short Lane", "naptan:Indicator": "near", "naptan:Landmark": "Short Lane", "naptan:NaptanCode": "cmbdgmtd", "naptan:ShortCommonName": "Short Lane", "naptan:Street": "Main Street", "naptan:verified": "no", "source": "naptan_import"}}, {"type": "node", "id": 533792053, "lat": 52.4168322, "lon": 0.1881144, "tags": {"highway": "bus_stop", "name": "Main Road", "naptan:AtcoCode": "0500ECOVE005", "naptan:Bearing": "E", "naptan:BusStopType": "CUS", "naptan:CommonName": "Main Road", "naptan:Indicator": "o/s No 35", "naptan:Landmark": "School Lane", "naptan:NaptanCode": "cmbdgmtm", "naptan:ShortCommonName": "Main Road", "naptan:Street": "Main Road", "naptan:verified": "no", "source": "naptan_import"}}, {"type": "node", "id": 533792055, "lat": 52.4167113, "lon": 0.188329, "tags": {"highway": "bus_stop", "name": "Main Road", "naptan:AtcoCode": "0500ECOVE006", "naptan:Bearing": "W", "naptan:BusStopType": "CUS", "naptan:CommonName": "Main Road", "naptan:Indicator": "opp 35", "naptan:Landmark": "School Lane", "naptan:NaptanCode": "cmbdgmtp", "naptan:ShortCommonName": "Main Road", "naptan:Street": "Main Road", "naptan:verified": "no", "source": "naptan_import"}}, {"type": "node", "id": 533792076, "lat": 52.3913065, "lon": 0.2638678, "tags": {"bus": "yes", "highway": "bus_stop", "name": "Tesco", "naptan:AtcoCode": "0500EELYY001", "naptan:Bearing": "SE", "naptan:CommonName": "Tesco", "naptan:Indicator": "o/s", "naptan:Landmark": "Superstore", "naptan:NaptanCode": "cmbdgpam", "naptan:ShortCommonName": "Tesco", "naptan:Street": "Angel Drove", "naptan:verified": "no", "public_transport": "platform", "source": "naptan_import"}}, {"type": "node", "id": 533792079, "lat": 52.3987596, "lon": 0.2588855, "tags": {"bench": "yes", "bin": "yes", "bus": "yes", "highway": "bus_stop", "lit": "yes", "name": "W Fen Road", "naptan:AtcoCode": "0500EELYY002", "naptan:Bearing": "SW", "naptan:CommonName": "W Fen Road", "naptan:Indicator": "opp", "naptan:Landmark": "Silver Street", "naptan:NaptanCode": "cmbdgpap", "naptan:ShortCommonName": "W Fen Road", "naptan:Street": "St Mary's Street", "naptan:verified": "no", "public_transport": "platform", "shelter": "yes", "source": "naptan_import", "tactile_paving": "no"}}, {"type": "node", "id": 533792080, "lat": 52.4029316, "lon": 0.2723873, "tags": {"bus": "yes", "highway": "bus_stop", "name": "Beech Lane", "naptan:AtcoCode": "0500EELYY003", "naptan:Bearing": "NW", "naptan:CommonName": "Beech Lane", "naptan:Indicator": "o/s No 7", "naptan:Landmark": "Beech Lane", "naptan:NaptanCode": "cmbdgpat", "naptan:ShortCommonName": "Beech Lane", "naptan:Street": "Beech Lane", "naptan:verified": "no", "public_transport": "platform", "source": "naptan_import"}}, {"type": "node", "id": 533792081, "lat": 52.4002067, "lon": 0.2638922, "tags": {"bus": "yes", "highway": "bus_stop", "local_ref": "C", "name": "Market Street", "naptan:AtcoCode": "0500EELYY004", "naptan:Bearing": "W", "naptan:CommonName": "Market Street", "naptan:Indicator": "Stop C", "naptan:Landmark": "Bus Station", "naptan:NaptanCode": "cmbdgpaw", "naptan:ShortCommonName": "Market St Stop C", "naptan:Street": "Market Street", "naptan:verified": "no", "public_transport": "platform", "source": "naptan_import"}}, {"type": "node", "id": 533792083, "lat": 52.4012269, "lon": 0.2646992, "tags": {"bus": "yes", "highway": "bus_stop", "name": "Newnham Street", "naptan:AtcoCode": "0500EELYY005", "naptan:Bearing": "E", "naptan:CommonName": "Newnham Street", "naptan:Indicator": "opp", "naptan:Landmark": "Newnham Street", "naptan:NaptanCode": "cmbdgpda", "naptan:ShortCommonName": "Newnham Street", "naptan:Street": "Nutholt Lane", "naptan:verified": "no", "public_transport": "platform", "source": "naptan_import"}}, {"type": "node", "id": 533792085, "lat": 52.3983833, "lon": 0.2533454, "tags": {"bus": "yes", "highway": "bus_stop", "name": "Engine Yard", "naptan:AtcoCode": "0500EELYY006", "naptan:Bearing": "E", "naptan:BusStopType": "CUS", "naptan:CommonName": "Engine Yard", "naptan:Indicator": "near", "naptan:Landmark": "Engine Yard", "naptan:NaptanCode": "cmbdgpdg", "naptan:ShortCommonName": "Engine Yard", "naptan:Street": "St John's Road", "naptan:verified": "no", "public_transport": "platform", "source": "naptan_import"}}, {"type": "node", "id": 533792087, "lat": 52.3955674, "lon": 0.254061, "tags": {"bench": "no", "bin": "no", "bus": "yes", "highway": "bus_stop", "name": "Tower Road", "naptan:AtcoCode": "0500EELYY007", "naptan:Bearing": "NE", "naptan:CommonName": "Tower Road", "naptan:Indicator": "near", "naptan:Landmark": "Tower Road", "naptan:NaptanCode": "cmbdgpdj", "naptan:ShortCommonName": "Tower Road", "naptan:Street": "Cambridge Road", "naptan:verified": "no", "public_transport": "platform", "shelter": "no", "source": "naptan_import", "tactile_paving": "no"}}, {"type": "node", "id": 533792088, "lat": 52.3982966, "lon": 0.2533475, "tags": {"bench": "no", "bin": "yes", "bus": "yes", "highway": "bus_stop", "lit": "yes", "name": "Engine Yard", "naptan:AtcoCode": "0500EELYY008", "naptan:Bearing": "W", "naptan:CommonName": "Engine Yard", "naptan:Indicator": "opp", "naptan:Landmark": "Engine Yard", "naptan:NaptanCode": "cmbdgpdm", "naptan:ShortCommonName": "Engine Yard", "naptan:Street": "St John's Road", "naptan:verified": "no", "public_transport": "platform", "shelter": "no", "source": "naptan_import", "tactile_paving": "no"}}, {"type": "node", "id": 533792089, "lat": 52.3977234, "lon": 0.2494522, "tags": {"bench": "no", "bin": "no", "bus": "yes", "highway": "bus_stop", "lit": "yes", "name": "Hereward Street", "naptan:AtcoCode": "0500EELYY009", "naptan:Bearing": "E", "naptan:CommonName": "Hereward Street", "naptan:Indicator": "near", "naptan:Landmark": "Hereward Street", "naptan:NaptanCode": "cmbdgpdp", "naptan:ShortCommonName": "Hereward Street", "naptan:Street": "St John's Road", "naptan:verified": "no", "public_transport": "platform", "shelter": "no", "source": "naptan_import", "tactile_paving": "no"}}, {"type": "node", "id": 533792090, "lat": 52.3998463, "lon": 0.2605001, "tags": {"bench": "no", "bin": "no", "bus": "yes", "highway": "bus_stop", "lit": "yes", "name": "W Fen Road", "naptan:AtcoCode": "0500EELYY010", "naptan:Bearing": "E", "naptan:CommonName": "W Fen Road", "naptan:Indicator": "near", "naptan:Landmark": "Downham Road", "naptan:NaptanCode": "cmbdgpdt", "naptan:ShortCommonName": "W Fen Road", "naptan:Street": "St Mary's Street", "naptan:verified": "no", "public_transport": "platform", "shelter": "no", "source": "naptan_import", "tactile_paving": "no"}}, {"type": "node", "id": 533792091, "lat": 52.4090585, "lon": 0.2572045, "tags": {"bus": "yes", "highway": "bus_stop", "name": "Nene Road", "naptan:AtcoCode": "0500EELYY011", "naptan:Bearing": "W", "naptan:CommonName": "Nene Road", "naptan:Indicator": "near", "naptan:Landmark": "Nene Road", "naptan:NaptanCode": "cmbdgpdw", "naptan:ShortCommonName": "Nene Road", "naptan:Street": "Cam Drive", "naptan:verified": "no", "public_transport": "platform", "source": "naptan_import"}}, {"type": "node", "id": 533792092, "lat": 52.407682, "lon": 0.2755281, "tags": {"highway": "bus_stop", "name": "Spring Meadow Infants Sch", "naptan:AtcoCode": "0500EELYY012", "naptan:Bearing": "SW", "naptan:CommonName": "Spring Meadow Infants Sch", "naptan:Indicator": "o/s", "naptan:Landmark": "Spring Meadow Infants Sch", "naptan:NaptanCode": "cmbdgpga", "naptan:ShortCommonName": "Spring Meadow Sch", "naptan:Street": "High Barns", "naptan:verified": "no", "source": "naptan_import"}}, {"type": "node", "id": 533792094, "lat": 52.4033054, "lon": 0.2542791, "tags": {"bus": "yes", "highway": "bus_stop", "name": "Wrens Close", "naptan:AtcoCode": "0500EELYY013", "naptan:Bearing": "NE", "naptan:CommonName": "Wrens Close", "naptan:Indicator": "opp", "naptan:Landmark": "Wrens Close", "naptan:NaptanCode": "cmbdgpgd", "naptan:ShortCommonName": "Wrens Close", "naptan:Street": "Merlin Drive", "naptan:verified": "no", "public_transport": "platform", "source": "naptan_import"}},