{"version": 0.6, "generator": "Overpass API 0.7.62.5 1bd436f1", "osm3s": {"timestamp_osm_base": "2025-04-09T14:57:35Z", "copyright": "The data included in this document is from www.openstreetmap.org. The data is made available under ODbL."}, "elements": [{"type": "node", "id": 31413790, "lat": 53.3625494, "lon": -0.8563976, "tags": {"bench": "yes", "bin": "yes", "bus": "yes", "highway": "bus_stop", "public_transport": "platform", "shelter": "yes", "tactile_paving": "no"}}, {"type": "node", "id": 49183356, "lat": 53.069977, "lon": -1.2218222, "tags": {"name": "Newstead", "naptan:AtcoCode": "9100NWSTEAD", "network": "National Rail", "network:website": "https://www.nationalrail.co.uk/stations/nsd/", "network:wikidata": "Q26334", "public_transport": "station", "railway": "station", "ref:crs": "NSD", "source": "NPE", "train": "yes", "wikidata": "Q2700960", "wikipedia": "en:Newstead railway station"}}, {"type": "node", "id": 135459446, "lat": 53.0384983, "lon": -1.1959496, "tags": {"name": "Hucknall", "naptan:AtcoCode": "9100HUCKNAL", "network": "National Rail", "network:website": "https://www.nationalrail.co.uk/stations/hkn/", "network:wikidata": "Q26334", "public_transport": "station", "railway": "station", "ref:crs": "HKN", "source": "knowledge", "train": "yes", "wheelchair": "yes", "wikidata": "Q2393008", "wikipedia": "en:Hucknall station"}}, {"type": "node", "id": 146409118, "lat": 53.1634635, "lon": -1.2017516, "tags": {"name": "Mansfield Woodhouse", "naptan:AtcoCode": "9100MFLDWSE", "network": "National Rail", "network:website": "https://www.nationalrail.co.uk/stations/msw/", "network:wikidata": "Q26334", "operator": "East Midlands Railway", "platforms": "3", "public_transport": "station", "railway": "station", "ref:crs": "MSW", "source:operator": "local_knowledge", "train": "yes", "wikidata": "Q2656994", "wikipedia": "en:Mansfield Woodhouse railway station"}}, {"type": "node", "id": 252534114, "lat": 53.346426, "lon": -1.2181483, "tags": {"bus": "yes", "highway": "bus_stop", "name": "Sheffield Road/Hawthorne Avenue", "naptan:AtcoCode": "370030086", "naptan:Bearing": "NW", "naptan:CommonName": "Sheffield Road/Hawthorne Avenue", "naptan:Indicator": "30086", "naptan:Landmark": "30086", "naptan:PlusbusZoneRef": "ROTHCEN", "naptan:Street": "Sheffield Road", "naptan:verified": "no", "public_transport": "platform", "source": "naptan_import"}}, {"type": "node", "id": 310674352, "lat": 53.1700977, "lon": -1.2513121, "tags": {"bus": "yes", "highway": "bus_stop", "naptan:AtcoCode": "1000DPNM8012", "naptan:NaptanCode": "dbsawtgj", "public_transport": "platform"}}, {"type": "node", "id": 310674438, "lat": 53.1705659, "lon": -1.2511062, "tags": {"bus": "yes", "highway": "bus_stop", "name": "Terrace Lane", "naptan:AtcoCode": "1000DPNM8013", "naptan:Bearing": "NE", "naptan:CommonName": "Terrace Lane", "naptan:Indicator": "Adj", "naptan:NaptanCode": "dbsawtgm", "naptan:PlusbusZoneRef": "MFLDTWN", "naptan:Street": "Newboundmill Lane", "naptan:verified": "no", "public_transport": "platform"}}, {"type": "node", "id": 310674583, "lat": 53.17231, "lon": -1.2490805, "tags": {"bus": "yes", "highway": "bus_stop", "naptan:AtcoCode": "1000DPNM8011", "naptan:NaptanCode": "dbsawtgd", "public_transport": "platform"}}, {"type": "node", "id": 310674689, "lat": 53.1723737, "lon": -1.2487018, "tags": {"bus": "yes", "highway": "bus_stop", "naptan:AtcoCode": "1000DPNM8010", "naptan:NaptanCode": "dbsawtga", "public_transport": "platform"}}, {"type": "node", "id": 312387693, "lat": 53.179993, "lon": -1.2211879, "tags": {"bus": "yes", "highway": "bus_stop", "public_transport": "platform"}}, {"type": "node", "id": 312659350, "lat": 53.2170344, "lon": -1.2283883, "tags": {"bus": "yes", "highway": "bus_stop", "name": "Devonshire Arms PH", "naptan:AtcoCode": "1000DLCL7729", "naptan:Bearing": "S", "naptan:CommonName": "Devonshire Arms PH", "naptan:Indicator": "adj", "naptan:NaptanCode": "dbsatdgt", "naptan:Street": "Common Lane", "naptan:verified": "no", "public_transport": "platform"}}, {"type": "node", "id": 312661815, "lat": 53.2142593, "lon": -1.2230585, "tags": {"bus": "yes", "highway": "bus_stop", "name": "Albine Road 36", "naptan:AtcoCode": "1000DLAH7639", "naptan:Bearing": "W", "naptan:CommonName": "Albine Road 36", "naptan:Indicator": "Opp", "naptan:NaptanCode": "dbsatawj", "naptan:PlusbusZoneRef": "MFLDTWN", "naptan:Street": "Albine Road", "naptan:verified": "no", "public_transport": "platform", "source": "GPS;Bing"}}, {"type": "node", "id": 312661846, "lat": 53.2143849, "lon": -1.2230566, "tags": {"bus": "yes", "highway": "bus_stop", "name": "Albine Road 36", "naptan:AtcoCode": "1000DLA07728", "naptan:Bearing": "E", "naptan:CommonName": "Albine Road 36", "naptan:Indicator": "Adj", "naptan:NaptanCode": "dbsdwgad", "naptan:PlusbusZoneRef": "MFLDTWN", "naptan:Street": "Albine Road", "naptan:verified": "no", "public_transport": "platform", "source": "GPS;Bing"}}, {"type": "node", "id": 312662643, "lat": 53.2172319, "lon": -1.2190381, "tags": {"bus": "yes", "highway": "bus_stop", "naptan:AtcoCode": "1000DLBH7732", "naptan:NaptanCode": "dbsatdap", "public_transport": "platform"}}, {"type": "node", "id": 312662720, "lat": 53.2175402, "lon": -1.2192526, "tags": {"bus": "yes", "highway": "bus_stop", "name": "Bassett School", "naptan:AtcoCode": "1000DLBH7689", "naptan:Bearing": "SE", "naptan:CommonName": "Bassett School", "naptan:Indicator": "Adj", "naptan:NaptanCode": "dbsatdaj", "naptan:Street": "Bassett Hill", "naptan:verified": "no", "public_transport": "platform"}}, {"type": "node", "id": 312663146, "lat": 53.2193888, "lon": -1.221774, "tags": {"bus": "yes", "highway": "bus_stop", "naptan:AtcoCode": "1000DLBH7733", "naptan:NaptanCode": "dbsatdat", "public_transport": "platform"}}, {"type": "node", "id": 312663153, "lat": 53.2194491, "lon": -1.222118, "tags": {"bus": "yes", "highway": "bus_stop", "public_transport": "platform"}}, {"type": "node", "id": 336306063, "lat": 52.9546899, "lon": -1.1991378, "tags": {"bus": "yes", "highway": "bus_stop", "local_ref": "WO02", "name": "Eton Grove", "naptan:AtcoCode": "3390WO02", "naptan:Bearing": "W", "naptan:CommonName": "Eton Grove", "naptan:Indicator": "Stop WO02", "naptan:Landmark": "Eton Grove", "naptan:NaptanCode": "ntmaptgd", "naptan:PlusbusZoneRef": "NTNG", "naptan:Street": "Wollaton Road", "naptan:verified": "yes", "public_transport": "platform", "shelter": "yes", "source": "naptan_import;survey"}}, {"type": "node", "id": 338298890, "lat": 52.9452021, "lon": -1.1909501, "tags": {"bus": "yes", "highway": "bus_stop", "indicator": "yes", "local_ref": "WO30", "name": "Oundle Drive", "naptan:AtcoCode": "3390WO30", "naptan:Bearing": "N", "naptan:CommonName": "Oundle Drive", "naptan:Indicator": "Stop WO30", "naptan:Landmark": "Adams Hill", "naptan:NaptanCode": "ntmapmjd", "naptan:PlusbusZoneRef": "NTNG", "naptan:Street": "Middleton Boulevard", "naptan:verified": "yes", "public_transport": "platform", "ref": "WO30", "routes": "53,S15,L3,L5", "shelter": "yes", "source": "naptan_import"}}, {"type": "node", "id": 338306320, "lat": 52.9449577, "lon": -1.1889159, "tags": {"bench": "yes", "bus": "yes", "highway": "bus_stop", "local_ref": "QM02", "name": "QMC Main Entrance", "naptan:AtcoCode": "3390QM02", "naptan:Bearing": "NE", "naptan:CommonName": "QMC Main Entrance", "naptan:Indicator": "Stop QM02", "naptan:Landmark": "QMC", "naptan:NaptanCode": "ntmadagj", "naptan:PlusbusZoneRef": "NTNG", "naptan:Street": "Derby Road", "naptan:verified": "yes", "note": "Route Y29 also listed (27-10-13)", "public_transport": "platform", "shelter": "yes", "source": "naptan_import;survey", "wheelchair": "yes"}}, {"type": "node", "id": 338306688, "lat": 52.9460757, "lon": -1.1869294, "tags": {"bench": "yes", "bus": "yes", "highway": "bus_stop", "local_ref": "QM03", "name": "QMC", "naptan:AtcoCode": "3390QM03", "naptan:Bearing": "NE", "naptan:CommonName": "QMC", "naptan:Indicator": "Stop QM03", "naptan:Landmark": "QMC", "naptan:NaptanCode": "ntmadagd", "naptan:PlusbusZoneRef": "NTNG", "naptan:Street": "Derby Road", "naptan:verified": "yes", "note": "Route Y29 also listed (27-10-13)", "public_transport": "platform", "shelter": "yes", "source": "naptan_import;survey"}}, {"type": "node", "id": 341024534, "lat": 52.9471187, "lon": -1.1851225, "tags": {"bench": "separate", "bin": "separate", "bus": "yes", "departures_board": "realtime", "highway": "bus_stop", "indicator": "yes", "lit": "yes", "local_ref": "LE01", "name": "Hillside", "naptan:AtcoCode": "3390LE01", "naptan:Bearing": "E", "naptan:CommonName": "Hillside", "naptan:Indicator": "Stop LE01", "naptan:Landmark": "Wollaton Hall Drive", "naptan:NaptanCode": "ntmadagm", "naptan:PlusbusZoneRef": "NTNG", "naptan:Street": "Derby Road", "naptan:verified": "yes", "public_transport": "platform", "shelter": "separate", "shelter_ref": "446", "source": "naptan_import;survey", "tactile_paving": "yes"}}, {"type": "node", "id": 341025406, "lat": 52.9472283, "lon": -1.1836644, "tags": {"bench": "no", "bin": "yes", "bus": "yes", "highway": "bus_stop", "lit": "yes", "local_ref": "LE12", "name": "Hillside", "naptan:AtcoCode": "3390LE12", "naptan:Bearing": "W", "naptan:CommonName": "Hillside", "naptan:Indicator": "Stop LE12", "naptan:Landmark": "Hillside", "naptan:NaptanCode": "ntmadpja", "naptan:PlusbusZoneRef": "NTNG", "naptan:Street": "Derby Road", "naptan:verified": "yes", "public_transport": "platform", "shelter": "yes", "source": "naptan_import;survey", "tactile_paving": "yes"}}, {"type": "node", "id": 343107999, "lat": 52.9672967, "lon": -1.1850571, "tags": {"bus": "yes", "highway": "bus_stop", "local_ref": "AS17", "name": "Ascot Road", "naptan:AtcoCode": "3390AS17", "naptan:Bearing": "W", "naptan:CommonName": "Ascot Road", "naptan:Indicator": "Stop AS17", "naptan:Landmark": "Bobbersmill Bridge", "naptan:NaptanCode": "ntmadpga", "naptan:PlusbusZoneRef": "NTNG", "naptan:Street": "Aspley Lane", "naptan:verified": "yes", "public_transport": "platform", "ref": "AS17", "shelter": "yes", "source": "naptan_import;survey;GPS"}}, {"type": "node", "id": 343110593, "lat": 52.9674635, "lon": -1.1844733, "tags": {"bus": "yes", "highway": "bus_stop", "local_ref": "AS16", "name": "Ascot Road", "naptan:AtcoCode": "3390AS16", "naptan:Bearing": "S", "naptan:CommonName": "Ascot Road", "naptan:Indicator": "Stop AS16", "naptan:Landmark": "Nuthall Road", "naptan:NaptanCode": "ntmadpdw", "naptan:PlusbusZoneRef": "NTNG", "naptan:Street": "Aspley Lane", "naptan:verified": "no", "note:routes": "77;L4;S16", "public_transport": "platform", "ref": "AS16", "source": "naptan_import;survey"}}, {"type": "node", "id": 343147179, "lat": 52.9589719, "lon": -1.1810899, "tags": {"bus": "yes", "highway": "bus_stop", "local_ref": "RA58", "name": "St Peter's Court", "naptan:AtcoCode": "3390RA58", "naptan:Bearing": "NW", "naptan:CommonName": "St Peter's Court", "naptan:Indicator": "Stop RA58", "naptan:Landmark": "St Peter's Court", "naptan:NaptanCode": "ntmapwmg", "naptan:PlusbusZoneRef": "NTNG", "naptan:Street": "St Peter's Street", "naptan:verified": "yes", "public_transport": "platform", "ref": "RA58", "source": "naptan_import;GPS;survey"}}, {"type": "node", "id": 343147845, "lat": 52.9588835, "lon": -1.1807551, "tags": {"bus": "yes", "highway": "bus_stop", "local_ref": "RA61", "name": "St Peter's Court", "naptan:AtcoCode": "3390RA61", "naptan:Bearing": "SE", "naptan:CommonName": "St Peter's Court", "naptan:Indicator": "Stop RA61", "naptan:Landmark": "St Peter's Court", "naptan:NaptanCode": "ntmapwmt", "naptan:PlusbusZoneRef": "NTNG", "naptan:Street": "St Peter's Street", "naptan:verified": "yes", "public_transport": "platform", "source": "naptan_import;GPS;survey"}}, {"type": "node", "id": 343165141, "lat": 52.9601392, "lon": -1.1781692, "tags": {"bus": "yes", "highway": "bus_stop", "local_ref": "RA59", "name": "Lonsdale Road", "naptan:AtcoCode": "3390RA59", "naptan:Bearing": "E", "naptan:CommonName": "Lonsdale Road", "naptan:Indicator": "Stop RA59", "naptan:Landmark": "Lonsdale Road", "naptan:NaptanCode": "ntmapwmj", "naptan:PlusbusZoneRef": "NTNG", "naptan:Street": "Hartley Road", "naptan:verified": "yes", "public_transport": "platform", "ref": "RA59", "shelter": "no", "source": "naptan_import;survey"}}, {"type": "node", "id": 343414002, "lat": 52.941004, "lon": -1.1845585, "tags": {"bus": "yes", "departures_board": "realtime", "highway": "bus_stop", "local_ref": "QM01", "name": "University East Entrance", "naptan:AtcoCode": "3390QM01", "naptan:Bearing": "NW", "naptan:CommonName": "University East Entrance", "naptan:Indicator": "Stop QM01", "naptan:Landmark": "University East Entrance", "naptan:NaptanCode": "ntmadtdm", "naptan:PlusbusZoneRef": "NTNG", "naptan:Street": "Clifton Boulevard", "naptan:verified": "yes", "public_transport": "platform", "ref": "QM01", "shelter": "yes", "source": "naptan_import;survey"}}, {"type": "node", "id": 343419504, "lat": 52.9409376, "lon": -1.1829947, "tags": {"bus": "yes", "highway": "bus_stop", "local_ref": "QM07", "name": "Dunkirk", "naptan:AtcoCode": "3390QM07", "naptan:Bearing": "SE", "naptan:CommonName": "Dunkirk", "naptan:Indicator": "Stop QM07", "naptan:Landmark": "Dunkirk south", "naptan:NaptanCode": "ntmadtgj", "naptan:PlusbusZoneRef": "NTNG", "naptan:Street": "Clifton Boulevard", "naptan:verified": "yes", "public_transport": "platform", "ref": "QM07", "shelter": "yes", "source": "naptan_import;survey"}}, {"type": "node", "id": 343422923, "lat": 52.943426, "lon": -1.179764, "tags": {"bus": "yes", "highway": "bus_stop", "local_ref": "LE17", "name": "Gregory Street", "naptan:AtcoCode": "3390LE17", "naptan:Bearing": "S", "naptan:CommonName": "Gregory Street", "naptan:Indicator": "Stop LE17", "naptan:Landmark": "Priory Street", "naptan:NaptanCode": "ntmajadg", "naptan:PlusbusZoneRef": "NTNG", "naptan:Street": "Abbey Street", "naptan:verified": "yes", "public_transport": "platform", "ref": "LE17", "shelter": "yes", "source": "naptan_import;survey"}}, {"type": "node", "id": 343689189, "lat": 52.9446396, "lon": -1.1774436, "tags": {"bus": "yes", "highway": "bus_stop", "local_ref": "LE16", "name": "Abbey Bridge", "naptan:AtcoCode": "3390LE16", "naptan:Bearing": "SW", "naptan:CommonName": "Abbey Bridge", "naptan:Indicator": "Stop LE16", "naptan:Landmark": "Out", "naptan:NaptanCode": "ntmajada", "naptan:PlusbusZoneRef": "NTNG", "naptan:Street": "Abbey Bridge", "naptan:verified": "yes", "public_transport": "platform", "shelter": "no", "source": "naptan_import;survey"}}, {"type": "node", "id": 344172740, "lat": 52.9567009, "lon": -1.2000682, "tags": {"bus": "yes", "highway": "bus_stop", "local_ref": "WO64", "name": "Sydney Road", "naptan:AtcoCode": "3390WO64", "naptan:Bearing": "SE", "naptan:CommonName": "Sydney Road", "naptan:Indicator": "Stop WO64", "naptan:Landmark": "Kingswood Road", "naptan:NaptanCode": "ntmapmpa", "naptan:PlusbusZoneRef": "NTNG", "naptan:Street": "Woodhall Road", "naptan:verified": "no", "note": "routes=L10; both ways", "public_transport": "platform", "ref": "WO64", "source": "naptan_import"}}, {"type": "node", "id": 344172923, "lat": 52.9553985, "lon": -1.1990124, "tags": {"bus": "yes", "highway": "bus_stop", "name": "Hollinwell Avenue", "naptan:AtcoCode": "3390WO112", "naptan:Bearing": "S", "naptan:CommonName": "Hollinwell Avenue", "naptan:Indicator": "S-bound", "naptan:NaptanCode": "ntmatwpt", "naptan:PlusbusZoneRef": "NTNG", "naptan:Street": "Wollaton Road", "naptan:verified": "no", "note": "routes=L10", "public_transport": "platform", "ref": "WO112"}}, {"type": "node", "id": 344173028, "lat": 52.9553286, "lon": -1.1992004, "tags": {"bus": "yes", "highway": "bus_stop", "local_ref": "WO52", "name": "Hollinwell Avenue", "naptan:AtcoCode": "3390WO52", "naptan:Bearing": "N", "naptan:CommonName": "Hollinwell Avenue", "naptan:Indicator": "Stop WO52", "naptan:Landmark": "Wollaton Road", "naptan:NaptanCode": "ntmapwag", "naptan:PlusbusZoneRef": "NTNG", "naptan:Street": "Woodhall Road", "naptan:verified": "no", "note": "routes=L10", "public_transport": "platform", "ref": "WO52", "source": "naptan_import"}}, {"type": "node", "id": 344173500, "lat": 52.9550169, "lon": -1.1952695, "tags": {"bus": "yes", "highway": "bus_stop", "local_ref": "WO25", "name": "Ringwood Crescent", "naptan:AtcoCode": "3390WO25", "naptan:Bearing": "E", "naptan:CommonName": "Ringwood Crescent", "naptan:Indicator": "Stop WO25", "naptan:Landmark": "Ringwood Crescent", "naptan:NaptanCode": "ntmapmgm", "naptan:PlusbusZoneRef": "NTNG", "naptan:Street": "Wollaton Road", "naptan:verified": "yes", "note": "routes=30, Rainbow 2, L10, W3, ecolink30", "public_transport": "platform", "shelter": "yes", "source": "naptan_import;survey"}}, {"type": "node", "id": 346175259, "lat": 52.9560273, "lon": -1.1908662, "tags": {"bench": "yes", "bin": "yes", "bus": "yes", "highway": "bus_stop", "lit": "yes", "local_ref": "WO35", "name": "The Crown", "naptan:AtcoCode": "3390WO35", "naptan:Bearing": "S", "naptan:CommonName": "The Crown", "naptan:Indicator": "Stop WO35", "naptan:Landmark": "Margaret Glen Bott School", "naptan:NaptanCode": "ntmapmjw", "naptan:PlusbusZoneRef": "NTNG", "naptan:Street": "Western Boulevard", "naptan:verified": "no", "note": "route=28,53,medilink, 555,L3, S15", "public_transport": "platform", "ref": "WO35", "shelter": "yes", "source": "naptan_import;GPS", "tactile_paving": "yes"}}, {"type": "node", "id": 346177904, "lat": 52.9611777, "lon": -1.1960701, "tags": {"bench": "yes", "bin": "yes", "bus": "yes", "highway": "bus_stop", "local_ref": "BE02", "name": "Redbourne Drive", "naptan:AtcoCode": "3390BE02", "naptan:Bearing": "W", "naptan:CommonName": "Redbourne Drive", "naptan:Indicator": "Stop BE02", "naptan:Landmark": "Radford Bridge Road", "naptan:NaptanCode": "ntmagmjw", "naptan:PlusbusZoneRef": "NTNG", "naptan:Street": "Beechdale Road", "naptan:verified": "no", "note": "route=28, L3, L4, S15, 555", "public_transport": "platform", "ref": "BE02", "shelter": "yes", "source": "naptan_import;GPS", "tactile_paving": "yes"}}, {"type": "node", "id": 346894955, "lat": 52.9548259, "lon": -1.2248135, "tags": {"bus": "yes", "highway": "bus_stop", "local_ref": "WO91", "name": "Birdsall Avenue", "naptan:AtcoCode": "3390WO91", "naptan:Bearing": "W", "naptan:CommonName": "Birdsall Avenue", "naptan:Indicator": "Stop WO91", "naptan:Landmark": "Fernwood School", "naptan:NaptanCode": "ntmaptag", "naptan:PlusbusZoneRef": "NTNG", "naptan:Street": "Trowell Road", "naptan:verified": "yes", "public_transport": "platform", "ref": "WO91", "shelter": "yes", "source": "naptan_import;GPS"}}, {"type": "node", "id": 346900662, "lat": 52.9526971, "lon": -1.2216132, "tags": {"bus": "yes", "highway": "bus_stop", "local_ref": "WO06", "name": "Admiral Rodney", "naptan:AtcoCode": "3390WO06", "naptan:Bearing": "SW", "naptan:CommonName": "Admiral Rodney", "naptan:Indicator": "Stop WO06", "naptan:Landmark": "Wollaton Library", "naptan:NaptanCode": "ntmaptgt", "naptan:PlusbusZoneRef": "NTNG", "naptan:Street": "Bramcote Lane", "naptan:verified": "yes", "public_transport": "platform", "ref": "WO06", "shelter": "yes", "source": "naptan_import;GPS"}}, {"type": "node", "id": 346900878, "lat": 52.9527869, "lon": -1.2216869, "tags": {"bus": "yes", "highway": "bus_stop", "local_ref": "WO19", "name": "Admiral Rodney", "naptan:AtcoCode": "3390WO19", "naptan:Bearing": "NE", "naptan:CommonName": "Admiral Rodney", "naptan:Indicator": "Stop WO19", "naptan:Landmark": "Wollaton Library", "naptan:NaptanCode": "ntmapmdp", "naptan:PlusbusZoneRef": "NTNG", "naptan:Street": "Bramcote Lane", "naptan:verified": "yes", "public_transport": "platform", "ref": "WO19", "shelter": "yes", "source": "naptan_import;GPS", "tactile_paving": "yes"}}, {"type": "node", "id": 346919771, "lat": 52.9554246, "lon": -1.2216365, "tags": {"bus": "yes", "highway": "bus_stop", "local_ref": "WO86", "name": "Thornton Close", "naptan:AtcoCode": "3390WO86", "naptan:Bearing": "E", "naptan:CommonName": "Thornton Close", "naptan:Indicator": "Stop WO86", "naptan:Landmark": "Rectory", "naptan:NaptanCode": "ntmapmwj", "naptan:PlusbusZoneRef": "NTNG", "naptan:Street": "Russell Drive", "naptan:verified": "no", "public_transport": "platform", "ref": "WO86", "source": "naptan_import;GPS"}}, {"type": "node", "id": 346919834, "lat": 52.9550578, "lon": -1.2165771, "tags": {"alt_name": "St Leonards Drive", "bus": "yes", "highway": "bus_stop", "local_ref": "WO87", "name": "St Leonards Drive", "naptan:AtcoCode": "3390WO87", "naptan:Bearing": "E", "naptan:CommonName": "St Leonards Drive", "naptan:Indicator": "Stop WO87", "naptan:Landmark": "Russell Avenue", "naptan:NaptanCode": "ntmapmwm", "naptan:PlusbusZoneRef": "NTNG", "naptan:Street": "Russell Drive", "naptan:verified": "yes", "public_transport": "platform", "source": "naptan_import"}}, {"type": "node", "id": 346919865, "lat": 52.9550147, "lon": -1.2173118, "tags": {"alt_name": "St Leonard's Drive", "bus": "yes", "highway": "bus_stop", "local_ref": "WO89", "name": "St Leonards Drive", "naptan:AtcoCode": "3390WO89", "naptan:Bearing": "W", "naptan:CommonName": "St Leonards Drive", "naptan:Indicator": "Stop WO89", "naptan:Landmark": "St Leonards Drive", "naptan:NaptanCode": "ntmapmwt", "naptan:PlusbusZoneRef": "NTNG", "naptan:Street": "Russell Drive", "naptan:verified": "yes", "public_transport": "platform", "shelter": "no", "source": "naptan_import;GPS"}}, {"type": "node", "id": 354622171, "lat": 53.3606366, "lon": -0.8506279, "tags": {"bench": "no", "bin": "no", "bus": "yes", "highway": "bus_stop", "public_transport": "platform", "shelter": "no", "tactile_paving": "no"}}, {"type": "node", "id": 365006553, "lat": 53.1916096, "lon": -1.3094595, "tags": {"bus": "yes", "highway": "bus_stop", "naptan:AtcoCode": "1000DDLM8202", "naptan:NaptanCode": "dbsgdatg", "public_transport": "platform"}}, {"type": "node", "id": 365019752, "lat": 53.1899866, "lon": -1.2992178, "tags": {"bus": "yes", "highway": "bus_stop", "name": "Stockley Lane", "naptan:AtcoCode": "1000DGTH8278", "naptan:Bearing": "E", "naptan:CommonName": "Stockley Lane", "naptan:Indicator": "Adj", "naptan:NaptanCode": "dbsgampw", "naptan:PlusbusZoneRef": "MFLDTWN", "naptan:Street": "The Hill", "naptan:verified": "no", "public_transport": "platform"}}, {"type": "node", "id": 365019826, "lat": 53.1898735, "lon": -1.2981278, "tags": {"bus": "yes", "highway": "bus_stop", "name": "Stockley Lane", "naptan:AtcoCode": "1000DGTH8280", "naptan:Bearing": "W", "naptan:CommonName": "Stockley Lane", "naptan:Indicator": "opp", "naptan:NaptanCode": "dbsgamta", "naptan:PlusbusZoneRef": "MFLDTWN", "naptan:Street": "The Hill", "naptan:verified": "no", "public_transport": "platform"}}, {"type": "node", "id": 365020205, "lat": 53.189608, "lon": -1.2927945, "tags": {"bus": "yes", "highway": "bus_stop", "naptan:AtcoCode": "1000DGTH8282", "naptan:NaptanCode": "dbsgamtg", "public_transport": "platform"}}, {"type": "node", "id": 365020764, "lat": 53.1893059, "lon": -1.2889895, "tags": {"bus": "yes", "highway": "bus_stop", "name": "Glapwell, The Hill", "naptan:AtcoCode": "1000DGTH8283", "naptan:Bearing": "E", "naptan:CommonName": "Back Lane", "naptan:Indicator": "Adj", "naptan:NaptanCode": "dbsgamtj", "naptan:PlusbusZoneRef": "MFLDTWN", "naptan:Street": "The Hill", "naptan:verified": "no", "public_transport": "platform"}}, {"type": "node", "id": 365020943, "lat": 53.1894087, "lon": -1.2876763, "tags": {"bus": "yes", "highway": "bus_stop", "name": "Glapwell, The Hill", "naptan:AtcoCode": "1000DGTH8284", "naptan:NaptanCode": "dbsgamtm", "public_transport": "platform"}}, {"type": "node", "id": 365023645, "lat": 53.1858723, "lon": -1.2847382, "tags": {"bus": "yes", "highway": "bus_stop", "name": "Sycamore Avenue", "naptan:AtcoCode": "1000DGSHA319", "naptan:Bearing": "E", "naptan:CommonName": "Sycamore Avenue", "naptan:Indicator": "E-bound", "naptan:NaptanCode": "dbsgtjmj", "naptan:PlusbusZoneRef": "MFLDTWN", "naptan:Street": "Sycamore Avenue", "naptan:verified": "no", "public_transport": "platform"}}, {"type": "node", "id": 369119495, "lat": 53.1983427, "lon": -1.3316648, "tags": {"bus": "yes", "highway": "bus_stop", "naptan:AtcoCode": "1000DHC00394", "naptan:NaptanCode": "dbsgtmgd", "public_transport": "platform"}}, {"type": "node", "id": 369119540, "lat": 53.1954085, "lon": -1.3321114, "tags": {"bus": "yes", "highway": "bus_stop", "name": "Post Office", "naptan:AtcoCode": "1000DHMR8195", "naptan:Bearing": "S", "naptan:CommonName": "Post Office", "naptan:Indicator": "opp", "naptan:NaptanCode": "dbsdwpgw", "naptan:Street": "Main Road", "naptan:verified": "no", "public_transport": "platform"}}, {"type": "node", "id": 378075420, "lat": 52.9649657, "lon": -1.1805471, "tags": {"bus": "yes", "highway": "bus_stop", "local_ref": "RA24", "name": "Chadwick Road", "naptan:AtcoCode": "3390RA24", "naptan:Bearing": "SE", "naptan:CommonName": "Chadwick Road", "naptan:Indicator": "Stop RA24", "naptan:Landmark": "Chadwick Road", "naptan:NaptanCode": "ntmamwgp", "naptan:PlusbusZoneRef": "NTNG", "naptan:Street": "Alfreton Road", "naptan:verified": "yes", "public_transport": "platform", "ref": "RA24", "shelter": "yes", "source": "naptan_import;GPS"}}, {"type": "node", "id": 378092400, "lat": 52.9605206, "lon": -1.1788424, "tags": {"bus": "yes", "highway": "bus_stop", "local_ref": "RA44", "name": "Hartley Road", "naptan:AtcoCode": "3390RA44", "naptan:Bearing": "S", "naptan:CommonName": "Hartley Road", "naptan:Indicator": "Stop RA44", "naptan:Landmark": "Hartley Road in", "naptan:NaptanCode": "ntmamwpg", "naptan:PlusbusZoneRef": "NTNG", "naptan:Street": "Churchfield Lane", "naptan:verified": "yes", "public_transport": "platform", "shelter": "yes", "source": "naptan_import;survey;GPS"}}, {"type": "node", "id": 378092662, "lat": 52.9606303, "lon": -1.1791083, "tags": {"bus": "yes", "highway": "bus_stop", "local_ref": "RA39", "name": "Hartley Road", "naptan:AtcoCode": "3390RA39", "naptan:Bearing": "N", "naptan:CommonName": "Hartley Road", "naptan:Indicator": "Stop RA39", "naptan:Landmark": "Hartley Road", "naptan:NaptanCode": "ntmamwmp", "naptan:PlusbusZoneRef": "NTNG", "naptan:Street": "Churchfield Lane", "naptan:verified": "yes", "public_transport": "platform", "shelter": "no", "source": "naptan_import;survey;GPS"}}, {"type": "node", "id": 378093464, "lat": 52.963846, "lon": -1.1803089, "tags": {"bus": "yes", "highway": "bus_stop", "local_ref": "RA41", "name": "Alfreton Road", "naptan:AtcoCode": "3390RA41", "naptan:Bearing": "N", "naptan:CommonName": "Alfreton Road", "naptan:Indicator": "Stop RA41", "naptan:Landmark": "Alfreton Road out", "naptan:NaptanCode": "ntmamwmw", "naptan:PlusbusZoneRef": "NTNG", "naptan:Street": "Churchfield Lane", "naptan:verified": "no", "public_transport": "platform", "source": "survey;GPS;naptan_import"}}, {"type": "node", "id": 379012239, "lat": 52.9832169, "lon": -1.0989897, "tags": {"bench": "no", "bin": "no", "bus": "yes", "highway": "bus_stop", "lit": "no", "local_ref": "GE0527", "name": "Keyworth Road", "naptan:AtcoCode": "3300GE0527", "naptan:Bearing": "SE", "naptan:CommonName": "Keyworth Road", "naptan:Crossing": "Keyworth Road", "naptan:Indicator": "adj", "naptan:Landmark": "Junior School", "naptan:NaptanCode": "ntsapdmp", "naptan:Notes": "(This stop renumbered from 3300GE25)", "naptan:PlusbusZoneRef": "NTNG", "naptan:Street": "Shelford Road", "naptan:verified": "yes", "public_transport": "platform", "shelter": "no", "source": "naptan_import", "tactile_paving": "no"}}, {"type": "node", "id": 379036926, "lat": 52.9810122, "lon": -1.1046763, "tags": {"bench": "yes", "bin": "yes", "bus": "yes", "highway": "bus_stop", "lit": "no", "name": "Holyoake Road", "naptan:AtcoCode": "3300GE0530", "naptan:Bearing": "SW", "naptan:CommonName": "Holyoake Road", "naptan:Crossing": "Westdale Lane West", "naptan:Indicator": "SW-bound", "naptan:NaptanCode": "ntsapdpa", "naptan:Notes": "(This stop renumbered from 3300GE28)", "naptan:PlusbusZoneRef": "NTNG", "naptan:Street": "Holyoake Road", "naptan:verified": "yes", "public_transport": "platform", "shelter": "yes", "source": "naptan_import;GPS", "tactile_paving": "no"}}, {"type": "node", "id": 379242170, "lat": 52.9750243, "lon": -1.090373, "tags": {"bench": "no", "bin": "no", "bus": "yes", "highway": "bus_stop", "lit": "no", "local_ref": "GE0190", "name": "Bakewell Avenue", "naptan:AtcoCode": "3300GE0190", "naptan:Bearing": "NW", "naptan:CommonName": "Bakewell Avenue", "naptan:Crossing": "Bakewell Avenue", "naptan:Indicator": "adj", "naptan:NaptanCode": "ntsawpwt", "naptan:Notes": "(This stop renumbered from 3300GE16)", "naptan:PlusbusZoneRef": "NTNG", "naptan:Street": "Westdale Lane East", "naptan:verified": "yes", "public_transport": "platform", "shelter": "no", "source": "naptan_import;GPS", "tactile_paving": "no"}}, {"type": "node", "id": 379242185, "lat": 52.9841158, "lon": -1.115172, "tags": {"bench": "no", "bin": "yes", "bus": "yes", "highway": "bus_stop", "loc_ref": "GE0525", "name": "Kent Road", "naptan:AtcoCode": "3300GE0525", "naptan:Bearing": "NW", "naptan:CommonName": "Kent Road", "naptan:Crossing": "Kent Road", "naptan:Indicator": "adj", "naptan:NaptanCode": "ntsapmpa", "naptan:Notes": "(This stop renumbered from 3300GE23)", "naptan:PlusbusZoneRef": "NTNG", "naptan:Street": "Westdale Lane West", "naptan:verified": "yes", "old_ref": "GE23", "public_transport": "platform", "shelter": "no", "source": "naptan_import;GPS", "tactile_paving": "no"}}, {"type": "node", "id": 379242192, "lat": 52.983239, "lon": -1.1120554, "tags": {"bench": "yes", "bin": "yes", "bus": "yes", "highway": "bus_stop", "loc_ref": "GE0524", "name": "Kenrick Road", "naptan:AtcoCode": "3300GE0524", "naptan:Bearing": "NW", "naptan:CommonName": "Kenrick Road", "naptan:Crossing": "Kenrick Road", "naptan:Indicator": "adj", "naptan:NaptanCode": "ntsapmjw", "naptan:Notes": "(This stop renumbered from 3300GE22)", "naptan:PlusbusZoneRef": "NTNG", "naptan:Street": "Westdale Lane West", "naptan:verified": "no", "public_transport": "platform", "shelter": "yes", "source": "naptan_import;GPS"}}, {"type": "node", "id": 379242202, "lat": 52.973908, "lon": -1.0878245, "tags": {"bench": "no", "bin": "no", "bus": "yes", "highway": "bus_stop", "lit": "yes", "local_ref": "GE0191", "name": "Ramsdale Road", "naptan:AtcoCode": "3300GE0191", "naptan:Bearing": "NW", "naptan:CommonName": "Ramsdale Road", "naptan:Crossing": "Ramsdale Road", "naptan:Indicator": "adj", "naptan:Landmark": "Westdale Tavern", "naptan:NaptanCode": "ntsawtad", "naptan:Notes": "(This stop renumbered from 3300GE15)", "naptan:PlusbusZoneRef": "NTNG", "naptan:Street": "Westdale Lane East", "naptan:verified": "yes", "public_transport": "platform", "shelter": "no", "source": "naptan_import", "tactile_paving": "no"}}, {"type": "node", "id": 379242205, "lat": 52.9766728, "lon": -1.0931681, "tags": {"bench": "no", "bin": "no", "bus": "yes", "highway": "bus_stop", "lit": "no", "name": "Hartington Avenue", "naptan:AtcoCode": "3300GE0196", "naptan:Bearing": "NW", "naptan:CommonName": "Hartington Avenue", "naptan:Crossing": "Hartington Avenue", "naptan:Indicator": "adj", "naptan:NaptanCode": "ntsdmgjg", "naptan:Notes": "(This stop renumbered from 3300GE17)", "naptan:PlusbusZoneRef": "NTNG", "naptan:Street": "Westdale Lane East", "naptan:verified": "yes", "public_transport": "platform", "shelter": "no", "source": "naptan_import", "tactile_paving": "no"}}, {"type": "node", "id": 379283046, "lat": 52.9652106, "lon": -1.1146104, "tags": {"bus": "yes", "highway": "bus_stop", "local_ref": "GE0273", "name": "Brentcliffe Avenue", "naptan:AtcoCode": "3300GE0273", "naptan:Bearing": "NE", "naptan:CommonName": "Brentcliffe Avenue", "naptan:Crossing": "Brentcliffe Avenue", "naptan:Indicator": "adj", "naptan:NaptanCode": "ntsaptgj", "naptan:Notes": "(This stop renumbered from 3300CA14)", "naptan:PlusbusZoneRef": "NTNG", "naptan:Street": "Carlton Hill", "naptan:verified": "yes", "public_transport": "platform", "shelter": "no", "source": "naptan_import;survey"}}, {"type": "node", "id": 379338348, "lat": 52.9673472, "lon": -1.0868861, "tags": {"bus": "yes", "highway": "bus_stop", "name": "Carlton Square", "naptan:AtcoCode": "3300GE0051", "naptan:Bearing": "NE", "naptan:CommonName": "Carlton Square", "naptan:Crossing": "Carlton Square", "naptan:Indicator": "NE-bound", "naptan:NaptanCode": "ntsatpda", "naptan:Notes": "(This stop renumbered from 3300CA21)", "naptan:PlusbusZoneRef": "NTNG", "naptan:Street": "Burton Road", "naptan:verified": "yes", "public_transport": "platform", "shelter": "yes", "source": "naptan_import"}}, {"type": "node", "id": 379338354, "lat": 52.9664675, "lon": -1.0940964, "tags": {"bus": "yes", "highway": "bus_stop", "local_ref": "GE0111", "name": "Chesterfield Street", "naptan:AtcoCode": "3300GE0111", "naptan:Bearing": "E", "naptan:CommonName": "Chesterfield Street", "naptan:Crossing": "Chesterfield Street", "naptan:Indicator": "adj", "naptan:Landmark": "Nags Head Inn", "naptan:NaptanCode": "ntsapwaw", "naptan:Notes": "(This stop renumbered from 3300CA19)", "naptan:PlusbusZoneRef": "NTNG", "naptan:Street": "Carlton Hill", "naptan:verified": "yes", "public_transport": "platform", "shelter": "no", "source": "naptan_import"}}, {"type": "node", "id": 379338370, "lat": 52.9693056, "lon": -1.0820351, "tags": {"bus": "yes", "highway": "bus_stop", "local_ref": "GE0204", "name": "Redland Grove", "naptan:AtcoCode": "3300GE0204", "naptan:Bearing": "N", "naptan:CommonName": "Redland Grove", "naptan:Crossing": "Redland Grove", "naptan:Indicator": "adj", "naptan:NaptanCode": "ntsatmpd", "naptan:Notes": "(This stop renumbered from 3300GE12)", "naptan:PlusbusZoneRef": "NTNG", "naptan:Street": "Gedling Road", "naptan:verified": "yes", "public_transport": "platform", "shelter": "no", "source": "naptan_import;survey"}}, {"type": "node", "id": 379338373, "lat": 52.9663241, "lon": -1.0911703, "tags": {"bus": "yes", "highway": "bus_stop", "local_ref": "GE0113", "name": "Tesco", "naptan:AtcoCode": "3300GE0113", "naptan:Bearing": "E", "naptan:CommonName": "Tesco", "naptan:Crossing": "Church Street", "naptan:Indicator": "adj", "naptan:Landmark": "Tesco", "naptan:NaptanCode": "ntsapwdg", "naptan:Notes": "(This stop renumbered from 3300CA20)", "naptan:PlusbusZoneRef": "NTNG", "naptan:Street": "Carlton Hill", "naptan:verified": "yes", "public_transport": "platform", "shelter": "yes", "source": "naptan_import"}}, {"type": "node", "id": 379338385, "lat": 52.9664554, "lon": -1.1040315, "tags": {"bus": "yes", "highway": "bus_stop", "local_ref": "GE0246", "name": "Hooton Road", "naptan:AtcoCode": "3300GE0246", "naptan:Bearing": "E", "naptan:CommonName": "Hooton Road", "naptan:Crossing": "Hooton Road", "naptan:Indicator": "adj", "naptan:NaptanCode": "ntsatwpt", "naptan:Notes": "(This stop renumbered from 3300CA17)", "naptan:PlusbusZoneRef": "NTNG", "naptan:Street": "Carlton Hill", "naptan:verified": "yes", "public_transport": "platform", "shelter": "no", "source": "naptan_import;survey"}}, {"type": "node", "id": 379338399, "lat": 52.9664317, "lon": -1.0994887, "tags": {"bus": "yes", "highway": "bus_stop", "local_ref": "GE0249", "name": "Forester Grove", "naptan:AtcoCode": "3300GE0249", "naptan:Bearing": "E", "naptan:CommonName": "Forester Grove", "naptan:Crossing": "Forester Grove", "naptan:Indicator": "adj", "naptan:NaptanCode": "ntsatwtd", "naptan:Notes": "(This stop renumbered from 3300CA18)", "naptan:PlusbusZoneRef": "NTNG", "naptan:Street": "Carlton Hill", "naptan:verified": "yes", "public_transport": "platform", "shelter": "no", "source": "naptan_import"}}, {"type": "node", "id": 379338433, "lat": 52.9661984, "lon": -1.1073331, "tags": {"bus": "yes", "highway": "bus_stop", "local_ref": "GE0277", "name": "Second Avenue", "naptan:AtcoCode": "3300GE0277", "naptan:Bearing": "E", "naptan:CommonName": "Second Avenue", "naptan:Crossing": "Second Avenue", "naptan:Indicator": "adj", "naptan:NaptanCode": "ntsawada", "naptan:Notes": "(This stop renumbered from 3300CA16)", "naptan:PlusbusZoneRef": "NTNG", "naptan:Street": "Carlton Hill", "naptan:verified": "yes", "public_transport": "platform", "shelter": "yes", "source": "naptan_import;survey"}}, {"type": "node", "id": 379338443, "lat": 52.9715799, "lon": -1.0820167, "tags": {"bus": "yes", "highway": "bus_stop", "local_ref": "GE0205", "name": "Westdale Lane East", "naptan:AtcoCode": "3300GE0205", "naptan:Bearing": "NE", "naptan:CommonName": "Westdale Lane East", "naptan:Crossing": "Westdale Lane East", "naptan:Indicator": "adj", "naptan:NaptanCode": "ntsatmpg", "naptan:Notes": "(This stop renumbered from 3300GE13)", "naptan:PlusbusZoneRef": "NTNG", "naptan:Street": "Gedling Road", "naptan:verified": "yes", "public_transport": "platform", "shelter": "yes", "source": "naptan_import"}}, {"type": "node", "id": 379544524, "lat": 52.9560954, "lon": -1.1574437, "tags": {"bus": "yes", "highway": "bus_stop", "local_ref": "Y9", "name": "Clarendon Street", "naptan:AtcoCode": "3390Y9", "naptan:Bearing": "SE", "naptan:CommonName": "Clarendon Street", "naptan:Crossing": "Clarendon Street", "naptan:Indicator": "Stop Y9", "naptan:Landmark": "Lambert House", "naptan:NaptanCode": "ntmatmdj", "naptan:PlusbusZoneRef": "NTNG", "naptan:Street": "Talbot Street", "naptan:verified": "yes", "public_transport": "platform", "ref": "Y9", "shelter": "no", "source": "naptan_import;survey"}}, {"type": "node", "id": 379545780, "lat": 52.9564507, "lon": -1.1513197, "tags": {"bench": "no", "bin": "no", "bus": "yes", "highway": "bus_stop", "local_ref": "G1", "name": "NTU City Campus", "naptan:AtcoCode": "3390G1", "naptan:Bearing": "N", "naptan:CommonName": "NTU City Campus", "naptan:Indicator": "Stop G1", "naptan:Landmark": "Nottingham Trent University", "naptan:NaptanCode": "ntmatgmj", "naptan:Notes": "This stop was previously numbered 3390GA", "naptan:PlusbusZoneRef": "NTNG", "naptan:Street": "South Sherwood Street.", "naptan:verified": "yes", "public_transport": "platform", "ref": "G1", "shelter": "yes", "source": "naptan_import;survey", "tactile_paving": "yes"}}, {"type": "node", "id": 379546619, "lat": 52.9562241, "lon": -1.1482731, "tags": {"bench": "yes", "bin": "yes", "bus": "yes", "highway": "bus_stop", "local_ref": "J3", "name": "Victoria Centre", "naptan:AtcoCode": "3390J3", "naptan:Bearing": "S", "naptan:CommonName": "Victoria Centre", "naptan:Indicator": "Stop J3", "naptan:Landmark": "Victoria Centre", "naptan:NaptanCode": "ntmatjmg", "naptan:Notes": "This stop was previously numbered 3390VE", "naptan:PlusbusZoneRef": "NTNG", "naptan:Street": "Milton Street", "naptan:verified": "yes", "public_transport": "platform", "ref": "J3", "shelter": "yes", "source": "naptan_import;survey"}}, {"type": "node", "id": 379547033, "lat": 52.956017, "lon": -1.1482177, "tags": {"bench": "yes", "bin": "yes", "bus": "yes", "check_date:shelter": "2022-10-01", "highway": "bus_stop", "local_ref": "J4", "name": "Victoria Centre", "naptan:AtcoCode": "3390J4", "naptan:Bearing": "S", "naptan:CommonName": "Victoria Centre", "naptan:Indicator": "Stop J4", "naptan:Landmark": "Victoria Centre", "naptan:NaptanCode": "ntmatjmd", "naptan:Notes": "This stop was previously numbered 3390VC", "naptan:PlusbusZoneRef": "NTNG", "naptan:Street": "Milton Street", "naptan:verified": "yes", "public_transport": "platform", "ref": "J4", "shelter": "yes", "source": "naptan_import;survey"}}, {"type": "node", "id": 379549428, "lat": 52.9543065, "lon": -1.1494443, "tags": {"bench": "yes", "bin": "yes", "bus": "yes", "highway": "bus_stop", "local_ref": "K3", "name": "King Street", "naptan:AtcoCode": "3390K3", "naptan:Bearing": "S", "naptan:CommonName": "King Street", "naptan:Indicator": "Stop K3", "naptan:Landmark": "Greyhound Street (3rd stop)", "naptan:NaptanCode": "ntmatgtw", "naptan:Notes": "This stop was previously numbered 3390KC", "naptan:PlusbusZoneRef": "NTNG", "naptan:Street": "King Street", "naptan:verified": "yes", "public_transport": "platform", "ref": "K3", "shelter": "yes", "source": "naptan_import;survey", "tactile_paving": "no"}}, {"type": "node", "id": 379549832, "lat": 52.9552466, "lon": -1.1473519, "tags": {"bench": "yes", "bin": "yes", "bus": "yes", "check_date:shelter": "2023-10-08", "ele": "62.130493", "highway": "bus_stop", "local_ref": "V1", "name": "Victoria Centre", "naptan:AtcoCode": "3390V1", "naptan:Bearing": "NE", "naptan:CommonName": "Victoria Centre", "naptan:Indicator": "Stop V1", "naptan:Landmark": "Victoria Centre", "naptan:NaptanCode": "ntmatjmt", "naptan:Notes": "This stop was previously numbered 3390VJ", "naptan:PlusbusZoneRef": "NTNG", "naptan:Street": "Lower Parliament Street", "naptan:verified": "yes", "public_transport": "platform", "ref": "V1", "shelter": "yes", "source": "naptan_import;survey", "tactile_paving": "yes"}}, {"type": "node", "id": 385950153, "lat": 52.9445179, "lon": -1.191825, "tags": {"bus": "yes", "check_date:shelter": "2025-01-16", "highway": "bus_stop", "local_ref": "UN14", "name": "University North Entrance", "naptan:AtcoCode": "3390UN14", "naptan:Bearing": "E", "naptan:CommonName": "University North Entrance", "naptan:Indicator": "Stop UN14", "naptan:Landmark": "Nottingham University", "naptan:NaptanCode": "ntmadawp", "naptan:PlusbusZoneRef": "NTNG", "naptan:Street": "Derby Road", "naptan:verified": "yes", "public_transport": "platform", "ref": "UN14", "shelter": "yes", "source": "GPS;naptan_import"}}, {"type": "node", "id": 385950396, "lat": 52.9443118, "lon": -1.1919182, "tags": {"bench": "yes", "bin": "yes", "bus": "yes", "check_date:shelter": "2025-01-16", "highway": "bus_stop", "local_ref": "UN15", "name": "University North Entrance", "naptan:AtcoCode": "3390UN15", "naptan:Bearing": "W", "naptan:CommonName": "University North Entrance", "naptan:Indicator": "Stop UN15", "naptan:Landmark": "Nottingham University", "naptan:NaptanCode": "ntmadatj", "naptan:PlusbusZoneRef": "NTNG", "naptan:Street": "Derby Road", "naptan:verified": "yes", "public_transport": "platform", "ref": "UN15", "shelter": "yes", "source": "GPS;naptan_import"}}, {"type": "node", "id": 385950636, "lat": 52.943327, "lon": -1.2004935, "tags": {"bus": "yes", "highway": "bus_stop", "local_ref": "UN16", "name": "Lenton Hall", "naptan:AtcoCode": "3390UN16", "naptan:Bearing": "SW", "naptan:CommonName": "Lenton Hall", "naptan:Indicator": "Stop UN16", "naptan:Landmark": "University north (pedestrians)", "naptan:NaptanCode": "ntmapjaw", "naptan:PlusbusZoneRef": "NTNG", "naptan:Street": "Derby Road", "naptan:verified": "yes", "public_transport": "platform", "ref": "UN16", "shelter": "yes", "source": "GPS;naptan_import"}}, {"type": "node", "id": 385950954, "lat": 52.9437801, "lon": -1.1996964, "tags": {"bench": "yes", "bus": "yes", "check_date:shelter": "2025-01-02", "ele": "44.826904", "highway": "bus_stop", "local_ref": "UN13", "name": "Lenton Hall", "naptan:AtcoCode": "3390UN13", "naptan:Bearing": "NE", "naptan:CommonName": "Lenton Hall", "naptan:Indicator": "Stop UN13", "naptan:Landmark": "Opposite Lenton Hall", "naptan:NaptanCode": "ntmadawt", "naptan:PlusbusZoneRef": "NTNG", "naptan:Street": "Derby Road", "naptan:verified": "yes", "public_transport": "platform", "ref": "UN13", "shelter": "yes", "source": "GPS;naptan_import"}}, {"type": "node", "id": 385973629, "lat": 52.9421389, "lon": -1.2042953, "tags": {"bench": "yes", "bin": "yes", "bus": "yes", "check_date:shelter": "2025-01-02", "highway": "bus_stop", "lit": "yes", "local_ref": "UN12", "name": "Wollaton Park Gates", "naptan:AtcoCode": "3390UN12", "naptan:Bearing": "NE", "naptan:CommonName": "Wollaton Park Gates", "naptan:Indicator": "Stop UN12", "naptan:Landmark": "Wollaton Park gates", "naptan:NaptanCode": "ntmadgad", "naptan:PlusbusZoneRef": "NTNG", "naptan:Street": "Derby Road", "naptan:verified": "yes", "public_transport": "platform", "ref": "UN12", "shelter": "yes", "source": "GPS;naptan_import", "tactile_paving": "no"}}, {"type": "node", "id": 386159875, "lat": 52.9879973, "lon": -1.2026498, "tags": {"bus": "yes", "ele": "48.431763", "highway": "bus_stop", "local_ref": "CI01", "name": "Phoenix Park", "naptan:AtcoCode": "3390CI01", "naptan:Bearing": "N", "naptan:CommonName": "Phoenix Park", "naptan:Indicator": "Stop CI01", "naptan:Landmark": "Nuthall Road", "naptan:NaptanCode": "ntmajwpm", "naptan:PlusbusZoneRef": "NTNG", "naptan:Street": "Cinderhill Road", "naptan:verified": "yes", "public_transport": "platform", "shelter": "yes", "source": "naptan_import;GPS"}}, {"type": "node", "id": 386159880, "lat": 52.9951431, "lon": -1.1977339, "tags": {"bus": "yes", "ele": "38.338013", "highway": "bus_stop", "local_ref": "BU52", "name": "Coventry Court", "naptan:AtcoCode": "3390BU52", "naptan:Bearing": "N", "naptan:CommonName": "Coventry Court", "naptan:Indicator": "Stop BU52", "naptan:Landmark": "Haswell Road", "naptan:NaptanCode": "ntmajmad", "naptan:PlusbusZoneRef": "NTNG", "naptan:Street": "Cinderhill Road", "naptan:verified": "yes", "public_transport": "platform", "ref": "BU52", "shelter": "no", "source": "naptan_import;GPS"}}, {"type": "node", "id": 386159895, "lat": 52.9931403, "lon": -1.1980243, "tags": {"bench": "no", "bus": "yes", "ele": "40.020264", "highway": "bus_stop", "local_ref": "BU51", "name": "Leonard Street", "naptan:AtcoCode": "3390BU51", "naptan:Bearing": "N", "naptan:CommonName": "Leonard Street", "naptan:Indicator": "Stop BU51", "naptan:Landmark": "Dursley Close", "naptan:NaptanCode": "ntmajgwt", "naptan:PlusbusZoneRef": "NTNG", "naptan:Street": "Cinderhill Road", "naptan:verified": "yes", "public_transport": "platform", "shelter": "no", "source": "GPS"}}, {"type": "node", "id": 386208604, "lat": 53.3623013, "lon": -1.3562056, "tags": {"bus": "yes", "highway": "bus_stop", "public_transport": "platform", "ref": "37022487"}}, {"type": "node", "id": 386234463, "lat": 53.358245, "lon": -1.3661233, "tags": {"bench": "yes", "highway": "bus_stop", "name": "Travel Info Point", "shelter": "yes", "tourism": "information"}}, {"type": "node", "id": 390418373, "lat": 53.3090692, "lon": -1.353866, "tags": {"bench": "no", "bin": "yes", "bus": "yes", "highway": "bus_stop", "naptan:AtcoCode": "1000DESR7819", "naptan:NaptanCode": "dbsgatwp", "public_transport": "platform", "shelter": "yes"}}, {"type": "node", "id": 390421484, "lat": 53.3088214, "lon": -1.3552636, "tags": {"bus": "yes", "highway": "bus_stop", "name": "Station Road", "naptan:AtcoCode": "1000DESS7814", "naptan:Bearing": "NW", "naptan:CommonName": "Station Road", "naptan:Indicator": "Opp", "naptan:NaptanCode": "dbsgatwt", "naptan:Street": "Southgate", "naptan:verified": "no", "public_transport": "platform"}}, {"type": "node", "id": 390876994, "lat": 52.9589162, "lon": -1.2127707, "tags": {"bus": "yes", "highway": "bus_stop", "local_ref": "WO55", "name": "Hallowell Drive", "naptan:AtcoCode": "3390WO55", "naptan:Bearing": "E", "naptan:CommonName": "Hallowell Drive", "naptan:Indicator": "Stop WO55", "naptan:Landmark": "Hallowell Drive", "naptan:NaptanCode": "ntmapwap", "naptan:PlusbusZoneRef": "NTNG", "naptan:Street": "Lambourne Drive", "naptan:verified": "no", "public_transport": "platform", "source": "naptan_import;survey"}}, {"type": "node", "id": 390878836, "lat": 52.9574898, "lon": -1.2264175, "tags": {"bus": "yes", "highway": "bus_stop", "note": "route: L10", "public_transport": "platform", "source": "survey"}}, {"type": "node", "id": 393528770, "lat": 53.3091504, "lon": -1.3665696, "tags": {"bus": "yes", "highway": "bus_stop", "name": "Greenhall Road", "naptan:AtcoCode": "1000DEBA7804", "naptan:Bearing": "S", "naptan:CommonName": "Greenhall Road", "naptan:Indicator": "Adj", "naptan:NaptanCode": "dbsgatdj", "naptan:Street": "Berry Avenue", "naptan:verified": "no", "public_transport": "platform"}}, {"type": "node", "id": 393533813, "lat": 53.3075915, "lon": -1.3663655, "tags": {"bus": "yes", "highway": "bus_stop", "naptan:AtcoCode": "1000DEBA7806", "naptan:NaptanCode": "dbsgatdm", "public_transport": "platform"}}, {"type": "node", "id": 393533814, "lat": 53.3074194, "lon": -1.3664836, "tags": {"bus": "yes", "highway": "bus_stop", "name": "Darcy Road", "naptan:AtcoCode": "1000DEBR7807", "naptan:Bearing": "N", "naptan:CommonName": "Darcy Road", "naptan:Indicator": "Adj", "naptan:NaptanCode": "dbsampam", "naptan:Street": "Berry Avenue", "naptan:verified": "no", "public_transport": "platform"}}, {"type": "node", "id": 393730977, "lat": 52.9517882, "lon": -1.1728282, "tags": {"bench": "yes", "bin": "yes", "bus": "yes", "ele": "46.27", "highway": "bus_stop", "local_ref": "LE09", "name": "Savoy Cinema", "naptan:AtcoCode": "3390LE09", "naptan:Bearing": "SW", "naptan:CommonName": "Savoy Cinema", "naptan:Indicator": "Stop LE09", "naptan:Landmark": "Sandfield Centre", "naptan:NaptanCode": "ntmadamp", "naptan:PlusbusZoneRef": "NTNG", "naptan:Street": "Derby Road", "naptan:verified": "yes", "public_transport": "platform", "ref": "LE09", "shelter": "yes", "source": "naptan_import;GPS"}}, {"type": "node", "id": 393731055, "lat": 52.9535464, "lon": -1.1696012, "tags": {"bench": "yes", "bin": "no", "bus": "yes", "ele": "65.25", "highway": "bus_stop", "local_ref": "LE08", "name": "Harrington Drive", "naptan:AtcoCode": "3390LE08", "naptan:Bearing": "SW", "naptan:CommonName": "Harrington Drive", "naptan:Indicator": "Stop LE08", "naptan:Landmark": "Harrington Drive", "naptan:NaptanCode": "ntmadamj", "naptan:PlusbusZoneRef": "NTNG", "naptan:Street": "Derby Road", "naptan:verified": "yes", "public_transport": "platform", "ref": "LE08", "shelter": "yes", "source": "naptan_import;GPS"}}, {"type": "node", "id": 393775407, "lat": 52.9545536, "lon": -1.1675233, "tags": {"bench": "yes", "bin": "yes", "bus": "yes", "ele": "70.30", "highway": "bus_stop", "local_ref": "LE06", "name": "Seely Road", "naptan:AtcoCode": "3390LE06", "naptan:Bearing": "NE", "naptan:CommonName": "Seely Road", "naptan:Indicator": "Stop LE06", "naptan:Landmark": "Seely Road", "naptan:NaptanCode": "ntmadajd", "naptan:PlusbusZoneRef": "NTNG", "naptan:Street": "Derby Road", "naptan:verified": "yes", "note": "routes: 34, 35, 36, 37; L3; Indigo, R4, 18,20,21", "public_transport": "platform", "ref": "LE06", "shelter": "yes", "source": "GPS;naptan_import"}}, {"type": "node", "id": 393780380, "lat": 52.9553276, "lon": -1.1639571, "tags": {"bus": "yes", "ele": "79.19", "highway": "bus_stop", "local_ref": "CC05", "name": "Canning Circus", "naptan:AtcoCode": "3390CC05", "naptan:Bearing": "E", "naptan:CommonName": "Canning Circus", "naptan:Indicator": "Stop CC05", "naptan:Landmark": "Canning Circus inbound", "naptan:NaptanCode": "ntmadajg", "naptan:PlusbusZoneRef": "NTNG", "naptan:Street": "Derby Road", "naptan:verified": "yes", "public_transport": "platform", "ref": "CC05", "shelter": "yes", "source": "naptan_import;GPS"}}, {"type": "node", "id": 393781063, "lat": 52.9560377, "lon": -1.1635102, "tags": {"bus": "yes", "ele": "78.953491", "highway": "bus_stop", "local_ref": "CC07", "name": "Canning Circus", "naptan:AtcoCode": "3390CC07", "naptan:Bearing": "S", "naptan:CommonName": "Canning Circus", "naptan:Indicator": "Stop CC07", "naptan:Landmark": "Canning Circus inbound", "naptan:NaptanCode": "ntmajpmt", "naptan:PlusbusZoneRef": "NTNG", "naptan:Street": "Ilkeston Road", "naptan:verified": "yes", "note": "Also 'Collegelink'", "public_transport": "platform", "ref": "CC07", "shelter": "yes", "source": "naptan_import;GPS"}}, {"type": "node", "id": 407137224, "lat": 53.2121901, "lon": -1.2897294, "tags": {"bus": "yes", "highway": "bus_stop", "name": "Post Office", "naptan:AtcoCode": "1000DPBL7991", "naptan:Bearing": "N", "naptan:CommonName": "Post Office", "naptan:Indicator": "opp", "naptan:NaptanCode": "dbsdpatp", "naptan:Street": "Back Lane", "naptan:verified": "no", "public_transport": "platform"}}, {"type": "node", "id": 407143007, "lat": 53.2113833, "lon": -1.2893454, "tags": {"bus": "yes", "highway": "bus_stop", "naptan:AtcoCode": "1000DPBL7990", "naptan:NaptanCode": "dbsdpatm", "public_transport": "platform"}}, {"type": "node", "id": 407143604, "lat": 53.2092581, "lon": -1.2891765, "tags": {"bus": "yes", "highway": "bus_stop", "naptan:AtcoCode": "1000DPBL7992", "naptan:NaptanCode": "dbsdpatw", "public_transport": "platform"}}, {"type": "node", "id": 409829328, "lat": 53.2129282, "lon": -1.2641854, "tags": {"bus": "yes", "highway": "bus_stop", "naptan:AtcoCode": "1000DSMS7774", "naptan:NaptanCode": "dbsdjpdt", "public_transport": "platform"}}, {"type": "node", "id": 409931940, "lat": 53.208519, "lon": -1.2289022, "tags": {"bus": "yes", "highway": "bus_stop", "name": "Upper School", "naptan:AtcoCode": "1000DSCL7635", "naptan:Bearing": "S", "naptan:CommonName": "Upper School", "naptan:Indicator": "adj", "naptan:NaptanCode": "dbsdagtw", "naptan:PlusbusZoneRef": "MFLDTWN", "naptan:Street": "Common Lane", "naptan:verified": "no", "public_transport": "platform"}}, {"type": "node", "id": 411071738, "lat": 53.1907683, "lon": -1.3039023, "tags": {"bus": "yes", "highway": "bus_stop", "name": "Waterloo Street", "naptan:AtcoCode": "1000DDLM8276", "naptan:Bearing": "SE", "naptan:CommonName": "Waterloo Street", "naptan:Indicator": "Opp", "naptan:NaptanCode": "dbsamdwd", "naptan:Street": "Mansfield Road", "naptan:verified": "no", "public_transport": "platform"}}, {"type": "node", "id": 411071740, "lat": 53.1909446, "lon": -1.3058159, "tags": {"bus": "yes", "highway": "bus_stop", "naptan:AtcoCode": "1000DDLM8277", "naptan:NaptanCode": "dbsamdwg", "public_transport": "platform", "shelter": "yes"}}, {"type": "node", "id": 411071745, "lat": 53.1923458, "lon": -1.3129536, "tags": {"bus": "yes", "highway": "bus_stop", "name": "Doe Lea, Mansfield Road", "naptan:AtcoCode": "1000DDLTC537", "naptan:Bearing": "N", "naptan:CommonName": "Mansfield Road", "naptan:Indicator": "adj", "naptan:NaptanCode": "dbsamdwj", "naptan:Street": "Mansfield Road", "naptan:verified": "no", "public_transport": "platform"}}, {"type": "node", "id": 411086375, "lat": 53.2368593, "lon": -1.3421831, "tags": {"bus": "yes", "highway": "bus_stop", "lit": "no", "name": "Duckmanton Hill", "naptan:AtcoCode": "1000DDCC6924", "naptan:Bearing": "E", "naptan:CommonName": "Duckmanton Hill", "naptan:Indicator": "Adj", "naptan:NaptanCode": "dbsamamd", "naptan:Street": "Chesterfield Road", "naptan:verified": "no", "public_transport": "platform", "shelter": "no"}}, {"type": "node", "id": 411086389, "lat": 53.2367823, "lon": -1.3421237, "tags": {"bus": "yes", "highway": "bus_stop", "naptan:AtcoCode": "1000DDCC6925", "naptan:NaptanCode": "dbsamamg", "public_transport": "platform"}}, {"type": "node", "id": 415303268, "lat": 53.1793214, "lon": -1.22651, "tags": {"bus": "yes", "highway": "bus_stop", "public_transport": "platform"}}, {"type": "node", "id": 416483353, "lat": 52.9439812, "lon": -1.1781335, "tags": {"bench": "no", "bin": "no", "bus": "yes", "ele": "31.608887", "highway": "bus_stop", "local_ref": "LI28", "name": "Red Cow", "naptan:AtcoCode": "3390LI28", "naptan:Bearing": "E", "naptan:CommonName": "Red Cow", "naptan:Indicator": "Stop LI28", "naptan:Landmark": "Red Cow", "naptan:NaptanCode": "ntmadjpg", "naptan:PlusbusZoneRef": "NTNG", "naptan:Street": "Lenton Lane", "naptan:verified": "yes", "public_transport": "platform", "shelter": "no", "source": "GPS;naptan_import"}}, {"type": "node", "id": 416483365, "lat": 52.943857, "lon": -1.1777744, "tags": {"bench": "no", "bin": "no", "bus": "yes", "ele": "31.368530", "highway": "bus_stop", "lit": "yes", "local_ref": "LI27", "name": "Red Cow", "naptan:AtcoCode": "3390LI27", "naptan:Bearing": "W", "naptan:CommonName": "Red Cow", "naptan:Indicator": "Stop LI27", "naptan:Landmark": "Red Cow in", "naptan:NaptanCode": "ntmadjpd", "naptan:PlusbusZoneRef": "NTNG", "naptan:Street": "Lenton Lane", "naptan:verified": "yes", "public_transport": "platform", "shelter": "no", "source": "GPS;naptan_import", "tactile_paving": "yes"}}, {"type": "node", "id": 427087101, "lat": 53.2680537, "lon": -1.3496978, "tags": {"bus": "yes", "highway": "bus_stop", "naptan:AtcoCode": "1000DSDS6833", "naptan:NaptanCode": "dbsdajpt", "public_transport": "platform", "shelter": "yes"}}, {"type": "node", "id": 428137897, "lat": 52.9881429, "lon": -1.1502524, "tags": {"bench": "yes", "bin": "no", "bus": "yes", "highway": "bus_stop", "lit": "yes", "local_ref": "SH22", "name": "Edwards Lane", "naptan:AtcoCode": "3390SH22", "naptan:Bearing": "W", "naptan:CommonName": "Edwards Lane", "naptan:Indicator": "Stop SH22", "naptan:Landmark": "City Hospital", "naptan:NaptanCode": "ntmapdwj", "naptan:PlusbusZoneRef": "NTNG", "naptan:Street": "Valley Road", "naptan:verified": "yes", "public_transport": "platform", "ref": "SH28", "shelter": "yes", "source": "survey", "tactile_paving": "yes"}}, {"type": "node", "id": 429378816, "lat": 53.0095367, "lon": -1.0017026, "tags": {"bus": "yes", "ele": "32.089478", "highway": "bus_stop", "name": "Magna Charta", "naptan:AtcoCode": "3300NS0301", "naptan:Bearing": "SE", "naptan:CommonName": "Magna Charta", "naptan:Crossing": "Southwell Road", "naptan:Indicator": "o/s", "naptan:Landmark": "Magna Charta", "naptan:NaptanCode": "ntsdmwdw", "naptan:Notes": "none", "naptan:Street": "Main Street", "naptan:verified": "no", "public_transport": "platform", "ref": "NS0301", "source": "naptan_import"}}, {"type": "node", "id": 429378817, "lat": 53.0115987, "lon": -1.0045721, "tags": {"bus": "yes", "ele": "26.321533", "highway": "bus_stop", "name": "Main Street", "naptan:AtcoCode": "3300NS0299", "naptan:Bearing": "NW", "naptan:CommonName": "Main Street", "naptan:Crossing": "Cranleigh Drive", "naptan:Indicator": "NW-bound", "naptan:NaptanCode": "ntsdmwdp", "naptan:Notes": "none", "naptan:Street": "Main Street", "naptan:verified": "no", "public_transport": "platform", "ref": "NS0299", "shelter": "no", "source": "naptan_import"}}, {"type": "node", "id": 429378821, "lat": 53.0109498, "lon": -1.0038569, "tags": {"bus": "yes", "ele": "29.926514", "highway": "bus_stop", "public_transport": "platform", "ref": "NS0291", "shelter": "no"}}, {"type": "node", "id": 429381827, "lat": 52.9844812, "lon": -1.1214112, "tags": {"bench": "yes", "bin": "no", "bus": "yes", "ele": "124.856079", "highway": "bus_stop", "lit": "yes", "local_ref": "GE0550", "name": "Shops", "naptan:AtcoCode": "3300GE0550", "naptan:Bearing": "NE", "naptan:CommonName": "Shops", "naptan:Crossing": "Bonington Road", "naptan:Indicator": "NE-bound", "naptan:Landmark": "Shops", "naptan:NaptanCode": "ntsapdgt", "naptan:Notes": "(This stop renumbered from 3300MA01)", "naptan:PlusbusZoneRef": "NTNG", "naptan:Street": "Plains Road", "naptan:verified": "yes", "public_transport": "platform", "shelter": "yes", "source": "naptan_import;GPS", "tactile_paving": "no"}}, {"type": "node", "id": 429976611, "lat": 52.9544749, "lon": -1.1501006, "tags": {"bench": "yes", "bin": "yes", "bus": "yes", "ele": "46.989868", "highway": "bus_stop", "local_ref": "Q1", "name": "Queen Street", "naptan:AtcoCode": "3390Q1", "naptan:Bearing": "NW", "naptan:CommonName": "Queen Street", "naptan:Indicator": "Stop Q1", "naptan:Landmark": "Main Post Office", "naptan:NaptanCode": "ntmatjap", "naptan:Notes": "This stop was previously numbered 3390QB", "naptan:PlusbusZoneRef": "NTNG", "naptan:Street": "Queen Street", "naptan:verified": "yes", "public_transport": "platform", "ref": "Q1", "shelter": "yes", "source": "naptan_import;survey", "tactile_paving": "no"}}, {"type": "node", "id": 429976613, "lat": 52.9818605, "lon": -1.1075077, "tags": {"bench": "no", "bin": "no", "bus": "yes", "ele": "111.878296", "highway": "bus_stop", "lit": "no", "name": "Fernleigh Avenue", "naptan:AtcoCode": "3300GE0520", "naptan:Bearing": "SE", "naptan:CommonName": "Fernleigh Avenue", "naptan:Crossing": "Fernleigh Avenue", "naptan:Indicator": "opp", "naptan:Landmark": "School", "naptan:NaptanCode": "ntsapmjg", "naptan:Notes": "(This stop renumbered from 3300GE03)", "naptan:PlusbusZoneRef": "NTNG", "naptan:Street": "Westdale Lane West", "naptan:verified": "no", "public_transport": "platform", "shelter": "no", "source": "naptan_import;GPS", "tactile_paving": "no"}}, {"type": "node", "id": 429976614, "lat": 52.9812414, "lon": -1.1040798, "tags": {"bench": "no", "bin": "no", "bus": "yes", "ele": "105.149048", "highway": "bus_stop", "lit": "yes", "local_ref": "GE0526", "name": "Holyoake Road", "naptan:AtcoCode": "3300GE0526", "naptan:Bearing": "NE", "naptan:CommonName": "Holyoake Road", "naptan:Crossing": "Digby Avenue", "naptan:Indicator": "NE-bound", "naptan:NaptanCode": "ntsapmpd", "naptan:Notes": "(This stop renumbered from 3300GE24)", "naptan:PlusbusZoneRef": "NTNG", "naptan:Street": "Holyoake Road", "naptan:verified": "yes", "public_transport": "platform", "shelter": "no", "source": "naptan_import", "tactile_paving": "no"}}, {"type": "node", "id": 429976618, "lat": 52.9725732, "lon": -1.081354, "tags": {"bench": "yes", "bin": "yes", "bus": "yes", "check_date:shelter": "2024-05-31", "ele": "34.733154", "highway": "bus_stop", "local_ref": "GE0206", "name": "Westdale Lane East", "naptan:AtcoCode": "3300GE0206", "naptan:Bearing": "SW", "naptan:CommonName": "Westdale Lane East", "naptan:Crossing": "Westdale Lane East", "naptan:Indicator": "opp", "naptan:NaptanCode": "ntsatmpj", "naptan:Notes": "(This stop renumbered from 3300GE43)", "naptan:PlusbusZoneRef": "NTNG", "naptan:Street": "Gedling Road", "naptan:verified": "yes", "old_ref": "GE43", "public_transport": "platform", "shelter": "yes", "source": "naptan_import;GPS"}}, {"type": "node", "id": 429976619, "lat": 52.9668159, "lon": -1.0795815, "tags": {"bus": "yes", "ele": "31.849121", "highway": "bus_stop", "local_ref": "GE0499", "name": "Elm Drive", "naptan:AtcoCode": "3300GE0499", "naptan:Bearing": "SE", "naptan:CommonName": "Elm Drive", "naptan:Crossing": "Elm Drive", "naptan:Indicator": "adj", "naptan:NaptanCode": "ntsapdjd", "naptan:Notes": "(This stop renumbered from 3300CA39)", "naptan:PlusbusZoneRef": "NTNG", "naptan:Street": "Station Road", "naptan:verified": "yes", "public_transport": "platform", "shelter": "no", "source": "naptan_import;GPS"}}, {"type": "node", "id": 429976632, "lat": 52.9521289, "lon": -1.1363862, "tags": {"bus": "yes", "ele": "33.531494", "highway": "bus_stop", "local_ref": "SN24", "name": "Pennyfoot Street", "naptan:AtcoCode": "3390SN24", "naptan:Bearing": "NW", "naptan:CommonName": "Pennyfoot Street", "naptan:Indicator": "Stop SN24", "naptan:Landmark": "Pennyfoot Street", "naptan:NaptanCode": "ntmadwmd", "naptan:PlusbusZoneRef": "NTNG", "naptan:Street": "Manvers Street", "naptan:verified": "yes", "public_transport": "platform", "ref": "SN24", "shelter": "yes", "source": "naptan_import;GPS"}}, {"type": "node", "id": 429976633, "lat": 52.953282, "lon": -1.137956, "tags": {"bus": "yes", "ele": "35.213745", "highway": "bus_stop", "local_ref": "SN60", "name": "Southwell Road", "naptan:AtcoCode": "3390SN60", "naptan:Bearing": "N", "naptan:CommonName": "Southwell Road", "naptan:Indicator": "Stop SN60", "naptan:NaptanCode": "ntmatgat", "naptan:Notes": "This stop was previously numbered 3390CC24", "naptan:PlusbusZoneRef": "NTNG", "naptan:Street": "Southwell Road", "naptan:verified": "yes", "public_transport": "platform", "ref": "SN60", "shelter": "yes", "source": "naptan_import;GPS"}}, {"type": "node", "id": 429976634, "lat": 52.9551266, "lon": -1.1469103, "tags": {"bench": "yes", "bin": "yes", "bus": "yes", "check_date:shelter": "2023-10-08", "ele": "47.951172", "highway": "bus_stop", "local_ref": "W3", "name": "Victoria Centre", "naptan:AtcoCode": "3390W3", "naptan:Bearing": "W", "naptan:CommonName": "Victoria Centre", "naptan:Indicator": "Stop W3", "naptan:Landmark": "Victoria Centre", "naptan:NaptanCode": "ntmatjpm", "naptan:Notes": "This stop was previously numbered 3390VR", "naptan:PlusbusZoneRef": "NTNG", "naptan:Street": "Lower Parliament Street", "naptan:verified": "yes", "public_transport": "platform", "ref": "W3", "shelter": "yes", "source": "naptan_import;survey", "tactile_paving": "yes"}}, {"type": "node", "id": 429976636, "lat": 52.9538598, "lon": -1.1528864, "tags": {"bench": "yes", "bin": "yes", "bus": "yes", "check_date:shelter": "2022-07-30", "ele": "55.401245", "highway": "bus_stop", "lit": "yes", "local_ref": "A3", "name": "Angel Row", "naptan:AtcoCode": "3390A3", "naptan:Bearing": "W", "naptan:CommonName": "Angel Row", "naptan:Indicator": "Stop A3", "naptan:Landmark": "Central Library", "naptan:NaptanCode": "ntmatdwg", "naptan:Notes": "This stop was previously numbered 3390AD", "naptan:PlusbusZoneRef": "NTNG", "naptan:Street": "Angel Row", "naptan:verified": "yes", "note": "Includes real time information display", "public_transport": "platform", "ref": "A3", "route_ref": "34;37;N34", "shelter": "yes", "source": "naptan_import;survey;photographic_survey", "tactile_paving": "yes", "wheelchair": "yes"}}, {"type": "node", "id": 429976637, "lat": 52.9539411, "lon": -1.1532137, "tags": {"bench": "yes", "bin": "yes", "bus": "yes", "check_date:shelter": "2022-07-30", "ele": "56.362549", "highway": "bus_stop", "lit": "yes", "local_ref": "A4", "name": "Angel Row", "naptan:AtcoCode": "3390A4", "naptan:Bearing": "W", "naptan:CommonName": "Angel Row", "naptan:Indicator": "Stop A4", "naptan:Landmark": "Central Library", "naptan:NaptanCode": "ntmatdwd", "naptan:Notes": "This stop was previously numbered 3390AC", "naptan:PlusbusZoneRef": "NTNG", "naptan:Street": "Angel Row", "naptan:verified": "yes", "public_transport": "platform", "ref": "A4", "shelter": "yes", "source": "naptan_import;survey", "tactile_paving": "yes", "wheelchair": "yes"}}, {"type": "node", "id": 431247522, "lat": 53.2148691, "lon": -1.2581968, "tags": {"bus": "yes", "highway": "bus_stop", "name": "Junior School", "naptan:AtcoCode": "1000D0007747", "naptan:Bearing": "S", "naptan:CommonName": "Junior School", "naptan:Indicator": "opp", "naptan:NaptanCode": "dbsadpwm", "naptan:Street": "Fox Hill", "naptan:verified": "no", "public_transport": "platform"}}, {"type": "node", "id": 431247523, "lat": 53.2150328, "lon": -1.258483, "tags": {"bus": "yes", "highway": "bus_stop", "name": "Junior School", "naptan:AtcoCode": "1000DSFH7771", "naptan:Bearing": "N", "naptan:CommonName": "Junior School", "naptan:Indicator": "adj", "naptan:NaptanCode": "dbsdjgjw", "naptan:Street": "Fox Hill", "naptan:verified": "no", "public_transport": "platform"}}, {"type": "node", "id": 431253912, "lat": 53.2130863, "lon": -1.2634782, "tags": {"bus": "yes", "highway": "bus_stop", "naptan:AtcoCode": "1000DSMS7775", "naptan:NaptanCode": "dbsdjpdw", "public_transport": "platform"}}, {"type": "node", "id": 431253915, "lat": 53.2131419, "lon": -1.2592151, "tags": {"bus": "yes", "highway": "bus_stop", "name": "Church", "naptan:AtcoCode": "1000DSMS7773", "naptan:Bearing": "W", "naptan:CommonName": "Church", "naptan:Indicator": "Opp", "naptan:NaptanCode": "dbsdjpdp", "naptan:Street": "Main Street", "naptan:verified": "no", "public_transport": "platform"}}, {"type": "node", "id": 431253918, "lat": 53.2132224, "lon": -1.2591769, "tags": {"bus": "yes", "highway": "bus_stop", "name": "Church", "naptan:AtcoCode": "1000DSPO0460", "naptan:Bearing": "E", "naptan:CommonName": "Church", "naptan:Indicator": "Adj", "naptan:NaptanCode": "dbsdapwg", "naptan:Street": "Main Street", "naptan:verified": "no", "public_transport": "platform", "shelter": "yes"}}, {"type": "node", "id": 431305336, "lat": 52.9590168, "lon": -1.1413242, "tags": {"bus": "yes", "ele": "31.368530", "highway": "bus_stop", "local_ref": "SA07", "name": "Hedderley Walk", "naptan:AtcoCode": "3390SA07", "naptan:Bearing": "SW", "naptan:CommonName": "Hedderley Walk", "naptan:Indicator": "Stop SA07", "naptan:Landmark": "Lamartine Street", "naptan:NaptanCode": "ntmagwgd", "naptan:PlusbusZoneRef": "NTNG", "naptan:Street": "St Anns Well Road", "naptan:verified": "yes", "note": "routes 40,41 (turquiose), S11", "public_transport": "platform", "ref": "SA07", "shelter": "yes", "source": "GPS"}}, {"type": "node", "id": 431305337, "lat": 52.9570445, "lon": -1.1423471, "tags": {"bus": "yes", "ele": "30.407227", "highway": "bus_stop", "local_ref": "SA08", "name": "Curzon Street", "naptan:AtcoCode": "3390SA08", "naptan:Bearing": "S", "naptan:CommonName": "Curzon Street", "naptan:Indicator": "Stop SA08", "naptan:Landmark": "NCN Bath Street", "naptan:NaptanCode": "ntmagwgj", "naptan:PlusbusZoneRef": "NTNG", "naptan:Street": "St Anns Well Road", "naptan:verified": "yes", "public_transport": "platform", "ref": "SA08", "shelter": "yes", "source": "naptan_import;GPS"}}, {"type": "node", "id": 431305338, "lat": 52.9642072, "lon": -1.1523783, "tags": {"bench": "no", "bin": "no", "bus": "yes", "ele": "78.472778", "highway": "bus_stop", "local_ref": "FO34", "name": "Forest Road", "naptan:AtcoCode": "3390FO34", "naptan:Bearing": "N", "naptan:CommonName": "Forest Road", "naptan:Indicator": "Stop FO34", "naptan:Landmark": "High School", "naptan:NaptanCode": "ntmajtgj", "naptan:PlusbusZoneRef": "NTNG", "naptan:Street": "Mansfield Road", "naptan:verified": "yes", "public_transport": "platform", "ref": "FO34", "shelter": "no", "source": "naptan_import;GPS;survey", "wheelchair": "yes"}}, {"type": "node", "id": 431323632, "lat": 52.9613752, "lon": -1.1373154, "tags": {"bus": "yes", "highway": "bus_stop", "local_ref": "SA06", "name": "Robin Hood Chase", "naptan:AtcoCode": "3390SA06", "naptan:Bearing": "SW", "naptan:CommonName": "Robin Hood Chase", "naptan:Indicator": "Stop SA06", "naptan:Landmark": "St Anns Library", "naptan:NaptanCode": "ntmagwga", "naptan:PlusbusZoneRef": "NTNG", "naptan:Street": "St Anns Well Road", "naptan:verified": "yes", "public_transport": "platform", "shelter": "yes", "source": "naptan_import"}}, {"type": "node", "id": 431323634, "lat": 52.9616922, "lon": -1.1370274, "tags": {"bench": "yes", "bin": "yes", "bus": "yes", "highway": "bus_stop", "lit": "yes", "local_ref": "SA11", "name": "Robin Hood's Chase", "naptan:AtcoCode": "3390SA11", "naptan:Bearing": "NE", "naptan:CommonName": "Robin Hood Chase", "naptan:Indicator": "Stop SA11", "naptan:Landmark": "St Anns Library", "naptan:NaptanCode": "ntmagwgt", "naptan:PlusbusZoneRef": "NTNG", "naptan:Street": "St Anns Well Road", "naptan:verified": "yes", "note": "routes 40,41 (turquiose), S11", "public_transport": "platform", "shelter": "yes", "source": "naptan_import;survey", "tactile_paving": "yes"}}, {"type": "node", "id": 431328713, "lat": 52.9628103, "lon": -1.1515829, "tags": {"bench": "yes", "bin": "yes", "bus": "yes", "ele": "66.456299", "highway": "bus_stop", "local_ref": "FO02", "name": "Huntingdon Street", "naptan:AtcoCode": "3390FO02", "naptan:Bearing": "NW", "naptan:CommonName": "Huntingdon Street", "naptan:Indicator": "Stop FO02", "naptan:Landmark": "Huntingdon Street", "naptan:NaptanCode": "ntmamgjw", "naptan:PlusbusZoneRef": "NTNG", "naptan:Street": "Mansfield Road", "naptan:verified": "yes", "note": "NCT 56, 58, 59 (all Go2 services)", "public_transport": "platform", "ref": "FO02", "shelter": "yes", "source": "naptan_import;GPS;survey"}}, {"type": "node", "id": 431328714, "lat": 52.9629096, "lon": -1.1516405, "tags": {"bench": "yes", "bin": "yes", "bus": "yes", "ele": "67", "highway": "bus_stop", "local_ref": "FO12", "name": "Huntingdon Street", "naptan:AtcoCode": "3390FO12", "naptan:Bearing": "NE", "naptan:CommonName": "Huntingdon Street", "naptan:Indicator": "Stop FO12", "naptan:Landmark": "Forest Road", "naptan:NaptanCode": "ntmajtam", "naptan:PlusbusZoneRef": "NTNG", "naptan:Street": "Mansfield Road", "naptan:verified": "yes", "note": "NCT Go2 15,16,17 (brown); 68,69,70,71, 72 (yellow); 87, 88, 89 (purple?0; barton Rainbow 3, Calverton Connection; pronto; 141", "public_transport": "platform", "ref": "FO12", "shelter": "yes", "source": "naptan_import;GPS;survey"}}, {"type": "node", "id": 431507956, "lat": 52.9996724, "lon": -1.1975159, "tags": {"bus": "yes", "ele": "40.500977", "highway": "bus_stop", "local_ref": "BU08", "name": "Bulwell Bus Station", "naptan:AtcoCode": "3390BU08", "naptan:CommonName": "Bulwell Bus Station", "naptan:Indicator": "Stop BU08", "naptan:Landmark": "Bulwell Bus Station", "naptan:NaptanCode": "ntmajdwj", "naptan:PlusbusZoneRef": "NTNG", "naptan:Street": "Vere Street", "naptan:verified": "yes", "note": "??", "public_transport": "platform", "ref": "BU08", "shelter": "yes", "source": "naptan_import;GPS"}}, {"type": "node", "id": 431524948, "lat": 52.9575393, "lon": -1.2092386, "tags": {"bus": "yes", "highway": "bus_stop", "local_ref": "WO54", "name": "Woodyard Lane", "naptan:AtcoCode": "3390WO54", "naptan:Bearing": "S", "naptan:CommonName": "Woodyard Lane", "naptan:Indicator": "Stop WO54", "naptan:Landmark": "Elvaston Road", "naptan:NaptanCode": "ntmapwam", "naptan:PlusbusZoneRef": "NTNG", "naptan:Street": "Lambourne Drive", "naptan:verified": "yes", "public_transport": "platform", "shelter": "no", "source": "naptan_import;survey"}}, {"type": "node", "id": 431535928, "lat": 52.9608898, "lon": -1.1767374, "tags": {"bus": "yes", "ele": "37.136353", "highway": "bus_stop", "local_ref": "RA50", "name": "Castle Retail Park", "naptan:AtcoCode": "3390RA50", "naptan:Bearing": "NW", "naptan:CommonName": "Castle Retail Park", "naptan:Indicator": "Stop RA50", "naptan:Landmark": "Castle Retail Park", "naptan:NaptanCode": "ntmamwta", "naptan:PlusbusZoneRef": "NTNG", "naptan:Street": "Radford Boulevard", "naptan:verified": "yes", "public_transport": "platform", "shelter": "yes", "source": "GPS;naptan_import"}}, {"type": "node", "id": 431535930, "lat": 52.9642216, "lon": -1.1788438, "tags": {"bus": "yes", "ele": "38.578369", "highway": "bus_stop", "local_ref": "RA47", "name": "Gregory Boulevard", "naptan:AtcoCode": "3390RA47", "naptan:Bearing": "N", "naptan:CommonName": "Gregory Boulevard", "naptan:Indicator": "Stop RA47", "naptan:Landmark": "Radford Boulevard", "naptan:NaptanCode": "ntmamwpt", "naptan:PlusbusZoneRef": "NTNG", "naptan:Street": "Alfreton Road", "naptan:verified": "yes", "public_transport": "platform", "ref": "RA47", "shelter": "yes", "source": "naptan_import;GPS"}}, {"type": "node", "id": 431535935, "lat": 52.9643706, "lon": -1.1788156, "tags": {"bus": "yes", "ele": "37.857300", "highway": "bus_stop", "indicator": "yes", "local_ref": "RA25", "name": "Gregory Boulevard", "naptan:AtcoCode": "3390RA25", "naptan:Bearing": "E", "naptan:CommonName": "Gregory Boulevard", "naptan:Indicator": "Stop RA25", "naptan:Landmark": "Berridge Road West", "naptan:NaptanCode": "ntmamwgt", "naptan:PlusbusZoneRef": "NTNG", "naptan:Street": "Alfreton Road", "naptan:verified": "yes", "public_transport": "platform", "shelter": "yes", "source": "survey;naptan_import"}}, {"type": "node", "id": 431587912, "lat": 52.9641436, "lon": -1.1801733, "tags": {"bus": "yes", "ele": "35.694336", "highway": "bus_stop", "local_ref": "RA42", "name": "Alfreton Road", "naptan:AtcoCode": "3390RA42", "naptan:Bearing": "N", "naptan:CommonName": "Alfreton Road", "naptan:Indicator": "Stop RA42", "naptan:Landmark": "Alfreton Road in", "naptan:NaptanCode": "ntmamwpa", "naptan:PlusbusZoneRef": "NTNG", "naptan:Street": "Churchfield Lane", "naptan:verified": "no", "public_transport": "platform", "ref": "RA42", "source": "naptan_import;GPS"}}, {"type": "node", "id": 431587913, "lat": 52.9641324, "lon": -1.1785506, "tags": {"bus": "yes", "ele": "38.338013", "highway": "bus_stop", "local_ref": "RA31", "name": "Gregory Boulevard", "naptan:AtcoCode": "3390RA31", "naptan:Bearing": "W", "naptan:CommonName": "Gregory Boulevard", "naptan:Indicator": "Stop RA31", "naptan:Landmark": "Radford Boulevard 2", "naptan:NaptanCode": "ntmamwjm", "naptan:PlusbusZoneRef": "NTNG", "naptan:Street": "Alfreton Road", "naptan:verified": "yes", "public_transport": "platform", "ref": "RA31", "shelter": "yes", "source": "naptan_import;GPS"}}, {"type": "node", "id": 431593975, "lat": 52.9679913, "lon": -1.184106, "tags": {"bus": "yes", "highway": "bus_stop", "local_ref": "WM17", "name": "Aspley Lane", "naptan:AtcoCode": "3390WM17", "naptan:Bearing": "S", "naptan:CommonName": "Aspley Lane", "naptan:Indicator": "Stop WM17", "naptan:Landmark": "The Wheatsheaf", "naptan:NaptanCode": "ntmapmat", "naptan:PlusbusZoneRef": "NTNG", "naptan:Street": "Nuthall Road", "naptan:verified": "yes", "public_transport": "platform", "ref": "WM17", "shelter": "yes", "source": "naptan_import;survey"}}, {"type": "node", "id": 431594159, "lat": 52.9680112, "lon": -1.18437, "tags": {"bus": "yes", "highway": "bus_stop", "local_ref": "WM18", "name": "Aspley Lane", "naptan:AtcoCode": "3390WM18", "naptan:Bearing": "N", "naptan:CommonName": "Aspley Lane", "naptan:Indicator": "Stop WM18", "naptan:Landmark": "Aspley Lane", "naptan:NaptanCode": "ntmaptdt", "naptan:PlusbusZoneRef": "NTNG", "naptan:Street": "Nuthall Road", "naptan:verified": "yes", "public_transport": "platform", "ref": "WM18", "shelter": "no", "source": "naptan_import;survey"}}, {"type": "node", "id": 435468323, "lat": 52.9548468, "lon": -1.1957558, "tags": {"bench": "no", "bin": "no", "bus": "yes", "highway": "bus_stop", "local_ref": "WO01", "name": "Ringwood Crescent", "naptan:AtcoCode": "3390WO01", "naptan:Bearing": "W", "naptan:CommonName": "Ringwood Crescent", "naptan:Indicator": "Stop WO01", "naptan:Landmark": "Middleton Boulevard", "naptan:NaptanCode": "ntmaptga", "naptan:PlusbusZoneRef": "NTNG", "naptan:Street": "Wollaton Road", "naptan:verified": "no", "note": "routes=30, Rainbow 2, L10, W3, ecolink30", "public_transport": "platform", "ref": "WO01", "shelter": "no", "source": "naptan_import;survey", "tactile_paving": "no"}}, {"type": "node", "id": 444081028, "lat": 53.1935176, "lon": -1.332809, "tags": {"bus": "yes", "highway": "bus_stop", "naptan:AtcoCode": "1000DHAM8273", "naptan:NaptanCode": "dbsgtjtg", "public_transport": "platform"}}, {"type": "node", "id": 444639505, "lat": 53.2762004, "lon": -1.2442548, "tags": {"bus": "yes", "highway": "bus_stop", "name": "Gapsick Lane", "naptan:AtcoCode": "1000DCSR7958", "naptan:Bearing": "NW", "naptan:CommonName": "Gapsick Lane", "naptan:Indicator": "Opp", "naptan:NaptanCode": "dbsajwdm", "naptan:Street": "Sheffield Road", "naptan:verified": "no", "public_transport": "platform"}}, {"type": "node", "id": 444644096, "lat": 53.2719361, "lon": -1.2217895, "tags": {"bus": "yes", "highway": "bus_stop", "naptan:AtcoCode": "1000DCPM8021", "naptan:NaptanCode": "dbsajtja", "public_transport": "platform"}}, {"type": "node", "id": 444644097, "lat": 53.2721723, "lon": -1.2224847, "tags": {"bus": "yes", "highway": "bus_stop", "name": "Boalers Corner", "naptan:AtcoCode": "1000DCPM8020", "naptan:Bearing": "N", "naptan:CommonName": "Boalers Corner", "naptan:Indicator": "Opp", "naptan:NaptanCode": "dbsajtgw", "naptan:Street": "Peter More Hill", "naptan:verified": "no", "public_transport": "platform"}}, {"type": "node", "id": 444644098, "lat": 53.2714844, "lon": -1.2219354, "tags": {"bus": "yes", "highway": "bus_stop", "public_transport": "platform"}}, {"type": "node", "id": 444644101, "lat": 53.2713459, "lon": -1.2224676, "tags": {"bus": "yes", "highway": "bus_stop", "naptan:AtcoCode": "100051936", "naptan:NaptanCode": "dbsjapjg", "public_transport": "platform"}}, {"type": "node", "id": 444644549, "lat": 53.28023, "lon": -1.2176524, "tags": {"bus": "yes", "highway": "bus_stop", "naptan:AtcoCode": "1000DWBM8025", "naptan:NaptanCode": "dbsdawaj", "public_transport": "platform"}}, {"type": "node", "id": 444644551, "lat": 53.2758061, "lon": -1.2194721, "tags": {"bus": "yes", "highway": "bus_stop", "name": "Peter More Hill", "naptan:AtcoCode": "1000DBMP8023", "naptan:Bearing": "S", "naptan:CommonName": "Peter More Hill", "naptan:Indicator": "S-bound", "naptan:NaptanCode": "dbsgtgat", "naptan:Street": "Peter More Hill", "naptan:verified": "no", "public_transport": "platform"}}, {"type": "node", "id": 444644553, "lat": 53.2758286, "lon": -1.2195951, "tags": {"bus": "yes", "highway": "bus_stop", "name": "Peter More Hill", "naptan:AtcoCode": "1000DBPM8022", "naptan:Bearing": "N", "naptan:BusStopType": "CUS", "naptan:CommonName": "Peter More Hill", "naptan:Indicator": "N-bound", "naptan:NaptanCode": "dbsgmapw", "naptan:Street": "Peter More Hill", "naptan:verified": "no", "public_transport": "platform"}}, {"type": "node", "id": 444644554, "lat": 53.2803098, "lon": -1.2177971, "tags": {"bus": "yes", "highway": "bus_stop", "naptan:AtcoCode": "1000DWBM8024", "naptan:NaptanCode": "dbsdawag", "public_transport": "platform"}}, {"type": "node", "id": 444644651, "lat": 53.2808278, "lon": -1.2150049, "tags": {"bus": "yes", "highway": "bus_stop", "naptan:AtcoCode": "1000DWBM8026", "naptan:NaptanCode": "dbsdawam", "public_transport": "platform"}}, {"type": "node", "id": 444644652, "lat": 53.2806918, "lon": -1.2156783, "tags": {"bus": "yes", "highway": "bus_stop", "name": "Royal Oak", "naptan:AtcoCode": "1000DWBM8027", "naptan:Bearing": "W", "naptan:CommonName": "Royal Oak", "naptan:Indicator": "adj", "naptan:NaptanCode": "dbsdawap", "naptan:Street": "Bakestone Moor", "naptan:verified": "no", "public_transport": "platform"}}, {"type": "node", "id": 444645051, "lat": 53.2826008, "lon": -1.2091209, "tags": {"bus": "yes", "highway": "bus_stop", "naptan:AtcoCode": "1000DWBM8030", "naptan:NaptanCode": "dbsdmjmp", "public_transport": "platform"}}, {"type": "node", "id": 444645053, "lat": 53.2810767, "lon": -1.2098848, "tags": {"bus": "yes", "highway": "bus_stop", "name": "Franklyn Avenue", "naptan:AtcoCode": "1000DWBM8029", "naptan:Bearing": "W", "naptan:CommonName": "Franklyn Avenue", "naptan:Indicator": "adj", "naptan:NaptanCode": "dbsdawaw", "naptan:Street": "Bakestone Moor", "naptan:verified": "no", "public_transport": "platform"}}, {"type": "node", "id": 444645054, "lat": 53.2810305, "lon": -1.2106487, "tags": {"bus": "yes", "highway": "bus_stop", "name": "Franklyn Avenue", "naptan:AtcoCode": "1000DWBM8028", "naptan:Bearing": "E", "naptan:CommonName": "Franklyn Avenue", "naptan:Indicator": "opp", "naptan:NaptanCode": "dbsdawat", "naptan:Street": "Bakestone Moor", "naptan:verified": "no", "public_transport": "platform"}}, {"type": "node", "id": 458246306, "lat": 52.9732392, "lon": -1.2268707, "tags": {"bus": "yes", "ele": "102.265137", "highway": "bus_stop", "local_ref": "ST24", "name": "Moor Road", "naptan:AtcoCode": "3390ST24", "naptan:Bearing": "W", "naptan:CommonName": "Moor Road", "naptan:Indicator": "Stop ST24", "naptan:Landmark": "Moor Road", "naptan:NaptanCode": "ntmagamg", "naptan:PlusbusZoneRef": "NTNG", "naptan:Street": "Strelley Road", "naptan:verified": "yes", "public_transport": "platform", "ref": "ST24", "shelter": "yes", "source": "naptan_import;GPS;survey"}}, {"type": "node", "id": 458246307, "lat": 52.9717754, "lon": -1.229826, "tags": {"bus": "yes", "ele": "102.505493", "highway": "bus_stop", "local_ref": "BI34", "name": "Wigman Road Top", "naptan:AtcoCode": "3390BI34", "naptan:Bearing": "NW", "naptan:CommonName": "Wigman Road Top", "naptan:Indicator": "Stop BI34", "naptan:Landmark": "Strelley Road", "naptan:NaptanCode": "ntmagtgd", "naptan:PlusbusZoneRef": "NTNG", "naptan:Street": "Wigman Road", "naptan:verified": "yes", "note": "35+S34", "public_transport": "platform", "ref": "BI34", "shelter": "no", "source": "GPS;naptan_import;survey"}}, {"type": "node", "id": 458246308, "lat": 52.9686533, "lon": -1.2270803, "tags": {"bus": "yes", "ele": "97.218262", "highway": "bus_stop", "local_ref": "BI32", "name": "Chingford Road", "naptan:AtcoCode": "3390BI32", "naptan:Bearing": "NW", "naptan:CommonName": "Chingford Road", "naptan:Indicator": "Stop BI32", "naptan:Landmark": "Cairncross Road", "naptan:NaptanCode": "ntmagtdw", "naptan:PlusbusZoneRef": "NTNG", "naptan:Street": "Wigman Road", "naptan:verified": "yes", "public_transport": "platform", "ref": "BI32", "shelter": "no", "source": "GPS;survey"}}, {"type": "node", "id": 458246310, "lat": 52.9654716, "lon": -1.2267518, "tags": {"bus": "yes", "ele": "93.132813", "highway": "bus_stop", "local_ref": "BI21", "name": "Darnhall Crescent", "naptan:AtcoCode": "3390BI21", "naptan:Bearing": "S", "naptan:CommonName": "Darnhall Crescent", "naptan:Indicator": "Stop BI21", "naptan:Landmark": "Darnhall Crescent", "naptan:NaptanCode": "ntmagtaj", "naptan:PlusbusZoneRef": "NTNG", "naptan:Street": "Bracebridge Drive", "naptan:verified": "yes", "public_transport": "platform", "ref": "BI21", "shelter": "no", "source": "naptan_import;GPS;survey"}}, {"type": "node", "id": 458246311, "lat": 52.9647383, "lon": -1.2287302, "tags": {"bus": "yes", "ele": "89.768066", "highway": "bus_stop", "local_ref": "BI20", "name": "Bracebridge Drive Shops", "naptan:AtcoCode": "3390BI20", "naptan:Bearing": "NE", "naptan:CommonName": "Bracebridge Drive Shops", "naptan:Indicator": "Stop BI20", "naptan:Landmark": "Bilborough Library", "naptan:NaptanCode": "ntmagtag", "naptan:PlusbusZoneRef": "NTNG", "naptan:Street": "Bracebridge Drive", "naptan:verified": "no", "public_transport": "platform", "source": "naptan_import;GPS;survey"}}, {"type": "node", "id": 458246312, "lat": 52.9812238, "lon": -1.2066308, "tags": {"bus": "yes", "ele": "88.326172", "highway": "bus_stop", "local_ref": "AS05", "name": "Eltham Drive", "naptan:AtcoCode": "3390AS05", "naptan:Bearing": "N", "naptan:CommonName": "Eltham Drive", "naptan:Indicator": "Stop AS05", "naptan:Landmark": "Ainsdale Crescent", "naptan:NaptanCode": "ntmadmwa", "naptan:PlusbusZoneRef": "NTNG", "naptan:Street": "Bells Lane", "naptan:verified": "no", "public_transport": "platform", "source": "naptan_import;GPS;survey"}}, {"type": "node", "id": 458246313, "lat": 52.9796724, "lon": -1.207711, "tags": {"bus": "yes", "ele": "93.613403", "fixme": "Position needs checking", "highway": "bus_stop", "name": "012", "public_transport": "platform", "source": "GPS;survey"}}, {"type": "node", "id": 458246316, "lat": 52.9784415, "lon": -1.2154393, "tags": {"bus": "yes", "ele": "104.908691", "highway": "bus_stop", "local_ref": "BR08", "name": "Coleby Road Top", "naptan:AtcoCode": "3390BR08", "naptan:Bearing": "E", "naptan:CommonName": "Coleby Road Top", "naptan:Indicator": "Stop BR08", "naptan:Landmark": "Denton Green N", "naptan:NaptanCode": "ntmajdpt", "naptan:PlusbusZoneRef": "NTNG", "naptan:Street": "Coleby Road", "naptan:verified": "no", "public_transport": "platform", "ref": "BR08", "source": "GPS;naptan_import;survey"}}, {"type": "node", "id": 458246319, "lat": 52.9902061, "lon": -1.2001644, "tags": {"bus": "yes", "ele": "63.572510", "highway": "bus_stop", "local_ref": "BU50", "name": "Headstocks", "naptan:AtcoCode": "3390BU50", "naptan:Bearing": "SE", "naptan:CommonName": "Headstocks", "naptan:Indicator": "Stop BU50", "naptan:Landmark": "The Cliff", "naptan:NaptanCode": "ntmajgwp", "naptan:PlusbusZoneRef": "NTNG", "naptan:Street": "Cinderhill Road", "naptan:verified": "yes", "public_transport": "platform", "ref": "BU50", "shelter": "no", "source": "naptan_import;GPS;survey"}}, {"type": "node", "id": 458246320, "lat": 52.985459, "lon": -1.2040953, "tags": {"bus": "yes", "ele": "70.541870", "highway": "bus_stop", "local_ref": "AS07", "name": "Walbrook Close", "naptan:AtcoCode": "3390AS07", "naptan:Bearing": "NE", "naptan:CommonName": "Walbrook Close", "naptan:Indicator": "Stop AS07", "naptan:Landmark": "Cinderhill West", "naptan:NaptanCode": "ntmadmwg", "naptan:PlusbusZoneRef": "NTNG", "naptan:Street": "Bells Lane", "naptan:verified": "no", "public_transport": "platform", "ref": "AS07", "source": "GPS;survey;naptan_import"}}, {"type": "node", "id": 458246321, "lat": 52.9834636, "lon": -1.2054875, "tags": {"bus": "yes", "ele": "78.953491", "highway": "bus_stop", "local_ref": "AS06", "name": "Dulverton Vale", "naptan:AtcoCode": "3390AS06", "naptan:Bearing": "NE", "naptan:CommonName": "Dulverton Vale", "naptan:Indicator": "Stop AS06", "naptan:Landmark": "Dulverton Vale west", "naptan:NaptanCode": "ntmadmwd", "naptan:PlusbusZoneRef": "NTNG", "naptan:Street": "Bells Lane", "naptan:verified": "no", "public_transport": "platform", "source": "naptan_import;GPS;survey"}}, {"type": "node", "id": 458246323, "lat": 52.9996522, "lon": -1.1971884, "tags": {"bus": "yes", "ele": "54.199585", "highway": "bus_stop", "local_ref": "BU07", "name": "Bulwell Bus Station", "naptan:AtcoCode": "3390BU07", "naptan:CommonName": "Bulwell Bus Station", "naptan:Indicator": "Stop BU07", "naptan:Landmark": "Bulwell Bus Station", "naptan:NaptanCode": "ntmajdwg", "naptan:PlusbusZoneRef": "NTNG", "naptan:Street": "Vere Street", "naptan:verified": "yes", "note": "68, 68A", "public_transport": "platform", "ref": "BU07", "shelter": "yes", "source": "naptan_import;GPS"}}, {"type": "node", "id": 458246325, "lat": 52.9997707, "lon": -1.1974395, "tags": {"bus": "yes", "ele": "53.959351", "highway": "bus_stop", "local_ref": "BU05", "name": "Bulwell Bus Station", "naptan:AtcoCode": "3390BU05", "naptan:CommonName": "Bulwell Bus Station", "naptan:Indicator": "Stop BU05", "naptan:Landmark": "Bulwell Bus Station", "naptan:NaptanCode": "ntmajdwa", "naptan:PlusbusZoneRef": "NTNG", "naptan:Street": "Vere Street", "naptan:verified": "yes", "note": "NCT 70,71,79, L11 to Arnold", "public_transport": "platform", "shelter": "yes", "source": "naptan_import;GPS"}}, {"type": "node", "id": 458246326, "lat": 52.9997511, "lon": -1.1971866, "tags": {"bus": "yes", "ele": "52.997925", "highway": "bus_stop", "local_ref": "BU04", "name": "Bulwell Bus Station", "naptan:AtcoCode": "3390BU04", "naptan:CommonName": "Bulwell Bus Station", "naptan:Indicator": "Stop BU04", "naptan:Landmark": "Bulwell Bus Station", "naptan:NaptanCode": "ntmajdtw", "naptan:PlusbusZoneRef": "NTNG", "naptan:Street": "Vere Street", "naptan:verified": "yes", "note": "A1 (school route), 69 Snape Wood and 728 Hucknall", "public_transport": "platform", "ref": "BU04", "shelter": "yes", "source": "naptan_import;GPS"}}, {"type": "node", "id": 458246330, "lat": 52.9418845, "lon": -1.2050143, "tags": {"bench": "no", "bin": "yes", "bus": "yes", "ele": "53.238281", "highway": "bus_stop", "local_ref": "UN17", "name": "Wollaton Park Gates", "naptan:AtcoCode": "3390UN17", "naptan:Bearing": "SW", "naptan:CommonName": "Wollaton Park Gates", "naptan:Indicator": "Stop UN17", "naptan:Landmark": "Sherwood Hall", "naptan:NaptanCode": "ntmadatp", "naptan:PlusbusZoneRef": "NTNG", "naptan:Street": "Derby Road", "naptan:verified": "no", "public_transport": "platform", "ref": "UN17", "shelter": "no", "source": "GPS;survey;naptan_import"}}, {"type": "node", "id": 458246332, "lat": 52.9395363, "lon": -1.2171402, "tags": {"bench": "yes", "bin": "yes", "bus": "yes", "ele": "48.672119", "highway": "bus_stop", "lit": "yes", "local_ref": "WO46", "name": "The Priory", "naptan:AtcoCode": "3390WO46", "naptan:Bearing": "NW", "naptan:CommonName": "The Priory", "naptan:Indicator": "Stop WO46", "naptan:Landmark": "Derby Road", "naptan:NaptanCode": "ntmaptwg", "naptan:PlusbusZoneRef": "NTNG", "naptan:Street": "Wollaton Vale", "naptan:verified": "yes", "public_transport": "platform", "ref": "WO46", "route": "35, L11", "shelter": "yes", "source": "GPS;survey;naptan_import", "tactile_paving": "yes"}}, {"type": "node", "id": 458302329, "lat": 53.0090004, "lon": -1.1902124, "tags": {"bench": "yes", "bin": "no", "bus": "yes", "ele": "59.006104", "highway": "bus_stop", "local_ref": "BU83", "name": "Morrisons Car Park", "naptan:AtcoCode": "3390BU83", "naptan:Bearing": "W", "naptan:CommonName": "Morrisons Car Park", "naptan:Indicator": "Stop BU83", "naptan:Landmark": "Store car park", "naptan:NaptanCode": "ntmajmpg", "naptan:PlusbusZoneRef": "NTNG", "naptan:Street": "Leen Drive", "naptan:verified": "yes", "public_transport": "platform", "ref": "BU83", "shelter": "yes", "source": "naptan_import;GPS;survey", "tactile_paving": "no"}}, {"type": "node", "id": 480932956, "lat": 52.9737954, "lon": -1.0872119, "tags": {"bench": "yes", "bin": "yes", "bus": "yes", "highway": "bus_stop", "lit": "yes", "name": "Ramsdale Road", "naptan:AtcoCode": "3300GE0192", "naptan:Bearing": "SE", "naptan:CommonName": "Ramsdale Road", "naptan:Crossing": "Ramsdale Road", "naptan:Indicator": "opp", "naptan:Landmark": "Westdale Tavern", "naptan:NaptanCode": "ntsawtag", "naptan:Notes": "(This stop renumbered from 3300GE09)", "naptan:PlusbusZoneRef": "NTNG", "naptan:Street": "Westdale Lane East", "naptan:verified": "yes", "public_transport": "platform", "shelter": "yes", "source": "naptan_import", "tactile_paving": "no"}}, {"type": "node", "id": 487335435, "lat": 52.9534265, "lon": -1.1852173, "tags": {"bench": "yes", "bin": "no", "bus": "yes", "ele": "34.012085", "highway": "bus_stop", "lit": "yes", "local_ref": "RA53", "name": "Jubilee Campus", "naptan:AtcoCode": "3390RA53", "naptan:Bearing": "N", "naptan:CommonName": "Jubilee Campus", "naptan:Indicator": "Stop RA53", "naptan:Landmark": "Jubilee Campus", "naptan:NaptanCode": "ntmamwtj", "naptan:PlusbusZoneRef": "NTNG", "naptan:Street": "Triumph Road", "naptan:verified": "yes", "public_transport": "platform", "ref": "RA53", "shelter": "yes", "source": "naptan_import;GPS", "tactile_paving": "yes"}}, {"type": "node", "id": 489600861, "lat": 52.9601173, "lon": -1.1777186, "tags": {"bus": "yes", "ele": "35.694336", "highway": "bus_stop", "local_ref": "RA60", "name": "Lonsdale Road", "naptan:AtcoCode": "3390RA60", "naptan:Bearing": "W", "naptan:CommonName": "Lonsdale Road", "naptan:Indicator": "Stop RA60", "naptan:Landmark": "Lonsdale Road", "naptan:NaptanCode": "ntmapwmp", "naptan:PlusbusZoneRef": "NTNG", "naptan:Street": "Hartley Road", "naptan:verified": "yes", "public_transport": "platform", "ref": "RA60", "shelter": "no", "source": "GPS;naptan_import"}}, {"type": "node", "id": 489600866, "lat": 52.9562373, "lon": -1.1816015, "tags": {"bus": "yes", "ele": "28.244263", "highway": "bus_stop", "local_ref": "RA57", "name": "Bramcote Street", "naptan:AtcoCode": "3390RA57", "naptan:Bearing": "NE", "naptan:CommonName": "Bramcote Street", "naptan:Indicator": "Stop RA57", "naptan:Landmark": "Bramcote Street", "naptan:NaptanCode": "ntmapwmd", "naptan:PlusbusZoneRef": "NTNG", "naptan:Street": "St Peter's Street", "naptan:verified": "yes", "public_transport": "platform", "ref": "RA57", "shelter": "no", "source": "naptan_import;GPS"}}, {"type": "node", "id": 490042343, "lat": 52.9558121, "lon": -1.1700893, "tags": {"bus": "yes", "ele": "50.114136", "highway": "bus_stop", "local_ref": "RA02", "name": "Albert Grove", "naptan:AtcoCode": "3390RA02", "naptan:Bearing": "W", "naptan:CommonName": "Albert Grove", "naptan:Indicator": "Stop RA02", "naptan:Landmark": "Albert Grove", "naptan:NaptanCode": "ntmajdgt", "naptan:PlusbusZoneRef": "NTNG", "naptan:Street": "Ilkeston Road", "naptan:verified": "no", "public_transport": "platform", "ref": "RA02", "source": "GPS;naptan_import"}}, {"type": "node", "id": 494527490, "lat": 52.9830073, "lon": -1.1793396, "tags": {"bus": "yes", "highway": "bus_stop", "local_ref": "BA08", "name": "Vernon Avenue", "naptan:AtcoCode": "3390BA08", "naptan:Bearing": "SE", "naptan:CommonName": "Vernon Avenue", "naptan:Indicator": "Stop BA08", "naptan:Landmark": "Vernon Avenue", "naptan:NaptanCode": "ntmadatd", "naptan:PlusbusZoneRef": "NTNG", "naptan:Street": "Vernon Road", "naptan:verified": "no", "public_transport": "platform", "source": "GPS;naptan_import"}}, {"type": "node", "id": 494527519, "lat": 52.9815209, "lon": -1.1828085, "tags": {"bus": "yes", "ele": "51.796387", "highway": "bus_stop", "local_ref": "BA32", "name": "Bar Lane", "naptan:AtcoCode": "3390BA32", "naptan:Bearing": "SE", "naptan:CommonName": "Bar Lane", "naptan:Indicator": "Stop BA32", "naptan:Landmark": "Opposite Bar Lane", "naptan:NaptanCode": "ntmagjmw", "naptan:PlusbusZoneRef": "NTNG", "naptan:Street": "Alpine Street", "naptan:verified": "yes", "public_transport": "platform", "ref": "BA32", "shelter": "no", "source": "naptan_import;GPS"}}, {"type": "node", "id": 494602066, "lat": 52.98325, "lon": -1.1858741, "tags": {"bench": "yes", "bus": "yes", "ele": "50.835083", "highway": "bus_stop", "local_ref": "BA31", "name": "Percy Street", "naptan:AtcoCode": "3390BA31", "naptan:Bearing": "N", "naptan:CommonName": "Percy Street", "naptan:Indicator": "Stop BA31", "naptan:Landmark": "New College Basford", "naptan:NaptanCode": "ntmagjmt", "naptan:PlusbusZoneRef": "NTNG", "naptan:Street": "Percy Street", "naptan:verified": "yes", "public_transport": "platform", "ref": "BA31", "shelter": "yes", "source": "naptan_import"}}, {"type": "node", "id": 496130749, "lat": 52.9635949, "lon": -1.1450023, "tags": {"bench": "yes", "bin": "yes", "bus": "yes", "ele": "59.006104", "highway": "bus_stop", "local_ref": "MA29", "name": "Peas Hill Road", "naptan:AtcoCode": "3390MA29", "naptan:Bearing": "SW", "naptan:CommonName": "Peas Hill Road", "naptan:Indicator": "Stop MA29", "naptan:Landmark": "Hollygirt School", "naptan:NaptanCode": "ntmajtwd", "naptan:PlusbusZoneRef": "NTNG", "naptan:Street": "Woodborough Road", "naptan:verified": "yes", "public_transport": "platform", "ref": "MA29", "shelter": "yes", "source": "naptan_import"}}, {"type": "node", "id": 496130760, "lat": 52.9673458, "lon": -1.1434535, "tags": {"bench": "no", "bin": "yes", "bus": "yes", "ele": "89.527710", "highway": "bus_stop", "lit": "yes", "local_ref": "MA27", "name": "Hungerhill Road", "naptan:AtcoCode": "3390MA27", "naptan:Bearing": "SW", "naptan:CommonName": "Hungerhill Road", "naptan:Indicator": "Stop MA27", "naptan:Landmark": "Hungerhill Road", "naptan:NaptanCode": "ntmajtpw", "naptan:PlusbusZoneRef": "NTNG", "naptan:Street": "Woodborough Road", "naptan:verified": "yes", "public_transport": "platform", "shelter": "yes", "source": "naptan_import;GPS", "tactile_paving": "no"}}, {"type": "node", "id": 496130764, "lat": 52.9692962, "lon": -1.1421641, "tags": {"bench": "yes", "bin": "yes", "bus": "yes", "ele": "91.450317", "highway": "bus_stop", "local_ref": "MA26", "name": "Alexandra Court", "naptan:AtcoCode": "3390MA26", "naptan:Bearing": "SW", "naptan:CommonName": "Alexandra Court", "naptan:Indicator": "Stop MA26", "naptan:Landmark": "Alexandra Court", "naptan:NaptanCode": "ntmajtpt", "naptan:PlusbusZoneRef": "NTNG", "naptan:Street": "Woodborough Road", "naptan:verified": "yes", "public_transport": "platform", "shelter": "yes", "source": "naptan_import;GPS", "tactile_paving": "yes"}}, {"type": "node", "id": 496130770, "lat": 52.9703507, "lon": -1.1241975, "tags": {"bus": "yes", "ele": "74.627441", "highway": "bus_stop", "local_ref": "SA01", "name": "Kildare Road", "naptan:AtcoCode": "3390SA01", "naptan:Bearing": "N", "naptan:CommonName": "Kildare Road", "naptan:Indicator": "Stop SA01", "naptan:Landmark": "Kildare Road terminus", "naptan:NaptanCode": "ntmagwdj", "naptan:PlusbusZoneRef": "NTNG", "naptan:Street": "The Wells Road", "naptan:verified": "yes", "public_transport": "platform", "ref": "SA01", "shelter": "yes", "source": "GPS;naptan_import"}}, {"type": "node", "id": 496130778, "lat": 52.9744694, "lon": -1.1377578, "tags": {"bench": "yes", "bus": "yes", "ele": "126.057617", "highway": "bus_stop", "local_ref": "MA24", "name": "Malvern Road", "naptan:AtcoCode": "3390MA24", "naptan:Bearing": "SW", "naptan:CommonName": "Malvern Road", "naptan:Indicator": "Stop MA24", "naptan:Landmark": "Elliot Durham School", "naptan:NaptanCode": "ntmajtpj", "naptan:PlusbusZoneRef": "NTNG", "naptan:Street": "Woodborough Road", "naptan:verified": "no", "public_transport": "platform", "ref": "MA24", "shelter": "yes", "source": "naptan_import;GPS"}}, {"type": "node", "id": 496130813, "lat": 52.9774584, "lon": -1.1282056, "tags": {"bus": "yes", "ele": "105.870117", "highway": "bus_stop", "local_ref": "SA40", "name": "Elliott Durham Nature Area", "naptan:AtcoCode": "3390SA40", "naptan:Bearing": "NW", "naptan:CommonName": "Elliott Durham School", "naptan:Indicator": "Stop SA40", "naptan:Landmark": "Outside No.573", "naptan:NaptanCode": "ntmapamw", "naptan:PlusbusZoneRef": "NTNG", "naptan:Street": "The Wells Road", "naptan:verified": "yes", "public_transport": "platform", "source": "naptan_import;GPS"}},