{"version": 0.6, "generator": "Overpass API 0.7.62.5 1bd436f1", "osm3s": {"timestamp_osm_base": "2025-04-09T14:29:00Z", "copyright": "The data included in this document is from www.openstreetmap.org. The data is made available under ODbL."}, "elements": [{"type": "node", "id": 534071351, "lat": 33.8040425, "lon": 2.8581165, "tags": {"bus": "yes", "highway": "bus_stop", "name": "Arr\u00eat de bus Hopital", "public_transport": "platform"}}, {"type": "node", "id": 534071359, "lat": 33.8040895, "lon": 2.8581731, "tags": {"bus": "yes", "highway": "bus_stop", "name": "Arr\u00eat de bus Hopital", "public_transport": "platform"}}, {"type": "node", "id": 700968006, "lat": 33.8157084, "lon": 2.8712328, "tags": {"bus": "yes", "highway": "bus_stop", "name": "Gare routi\u00e8re de Laghouat", "public_transport": "platform"}}, {"type": "node", "id": 845780503, "lat": 33.7890493, "lon": 2.8601315, "tags": {"bus": "yes", "highway": "bus_stop", "public_transport": "platform"}}, {"type": "node", "id": 2041823015, "lat": 33.7999311, "lon": 2.8545951, "tags": {"bus": "yes", "highway": "bus_stop", "name": "Arret des bus universitaires", "name:ar": "\u0645\u062d\u0637\u0629 \u062a\u0648\u0642\u0641 \u062d\u0627\u0641\u0644\u0627\u062a \u0627\u0644\u0646\u0642\u0644 \u0627\u0644\u062c\u0627\u0645\u0639\u064a", "public_transport": "platform"}}, {"type": "node", "id": 2720014546, "lat": 33.7981953, "lon": 2.8552224, "tags": {"bus": "yes", "highway": "bus_stop", "public_transport": "platform"}}, {"type": "node", "id": 2786126552, "lat": 33.7977544, "lon": 2.8780427, "tags": {"bus": "yes", "highway": "bus_stop", "name": "Arr\u00eat Bouaziz", "public_transport": "platform"}}, {"type": "node", "id": 2792801874, "lat": 33.7968565, "lon": 2.8800331, "tags": {"bus": "yes", "highway": "bus_stop", "name": "Arret El rahba", "public_transport": "platform"}}, {"type": "node", "id": 4327057294, "lat": 33.8136237, "lon": 2.8532955, "tags": {"bus": "yes", "highway": "bus_stop", "name": "\u0645\u0648\u0642\u0641 \u062d\u064a 11\u062f\u064a\u0633\u0645\u0628\u06311960", "name:ar": "\u0645\u0648\u0642\u0641 \u062d\u064a 11\u062f\u064a\u0633\u0645\u0628\u06311960", "name:en": "December 11, 1960 neighborhood", "name:fr": "Cit\u00e9 11 d\u00e9cembre 1960", "public_transport": "platform"}}, {"type": "node", "id": 4431556590, "lat": 33.8065697, "lon": 2.8808434, "tags": {"bus": "yes", "highway": "bus_stop", "name": "Terminus (lebled)", "name:fr": "Terminus (lebled)", "public_transport": "platform"}}, {"type": "node", "id": 4431581892, "lat": 33.7965058, "lon": 2.8638915, "tags": {"bus": "yes", "highway": "bus_stop", "public_transport": "platform"}}, {"type": "node", "id": 4431585395, "lat": 33.7985781, "lon": 2.8641523, "tags": {"bus": "yes", "highway": "bus_stop", "public_transport": "platform"}}, {"type": "node", "id": 4431609590, "lat": 33.799295, "lon": 2.8685724, "tags": {"bus": "yes", "highway": "bus_stop", "name": "\u0645\u062d\u0637\u0629 \u0627\u0644\u062d\u0627\u0641\u0644\u0629 \u0627\u0644\u0627\u0630\u0627\u0639\u0629", "name:ar": "\u0645\u062d\u0637\u0629 \u0627\u0644\u062d\u0627\u0641\u0644\u0629 \u0627\u0644\u0627\u0630\u0627\u0639\u0629", "public_transport": "platform"}}, {"type": "node", "id": 4431609591, "lat": 33.7983472, "lon": 2.8642502, "tags": {"bus": "yes", "highway": "bus_stop", "public_transport": "platform"}}, {"type": "node", "id": 4431609989, "lat": 33.7988455, "lon": 2.8674592, "tags": {"bus": "yes", "highway": "bus_stop", "name": "\u062b\u0627\u0646\u0648\u064a\u0629 \u0627\u0644\u0627\u0645\u0627\u0645 \u0627\u0644\u063a\u0632\u0627\u0644\u064a", "name:fr": "Lycee Imame El Ghazali", "public_transport": "platform"}}, {"type": "node", "id": 4431609990, "lat": 33.8026683, "lon": 2.874368, "tags": {"bus": "yes", "highway": "bus_stop", "name": "sbitar", "name:fr": "sbitar", "public_transport": "platform"}}, {"type": "node", "id": 4550880590, "lat": 33.8201491, "lon": 2.8556934, "tags": {"bus": "yes", "highway": "bus_stop", "name": "\u0622\u062e\u0631 \u0645\u062d\u0637\u0629 \u062d\u0627\u0641\u0644\u0629 \u0631\u0642\u0645 4", "name:ar": "\u0622\u062e\u0631 \u0645\u062d\u0637\u0629 \u062d\u0627\u0641\u0644\u0629 \u0631\u0642\u0645 4", "name:fr": "Terminus bus num\u00e9ro 4", "public_transport": "platform"}}, {"type": "node", "id": 4579372193, "lat": 33.812039, "lon": 2.8573428, "tags": {"bench": "yes", "bus": "yes", "highway": "bus_stop", "lit": "yes", "name": "\u0627\u0644\u062d\u0627\u0641\u0644\u0629 \u0631\u0642\u0645 4 - \u0645\u062d\u0637\u0629 \u062d\u064a 450 \u0633\u0643\u0646 ( \u0627\u0644\u0627\u062a\u062c\u0627\u0647 \u0646\u062d\u0648 \u0648\u0633\u0637 \u0627\u0644\u0645\u062f\u064a\u0646\u0629)", "name:ar": "\u062d\u0627\u0641\u0644\u0629 \u0631\u0642\u0645 4", "name:en": "Bus N#4", "name:fr": "Bus n\u00b0 4", "network": "\u0627\u0644\u0648\u062d\u0627\u062a \u0627\u0644\u0634\u0645\u0627\u0644\u064a\u0629 - \u0648\u0633\u0637 \u0627\u0644\u0645\u062f\u064a\u0646\u0629", "public_transport": "platform", "ref": "\u062d\u064a 450 \u0633\u0643\u0646 ( \u0627\u0644\u0641\u0627\u0631\u0645\u0627\u0635\u064a)", "shelter": "yes"}}, {"type": "node", "id": 4582783292, "lat": 33.8068747, "lon": 2.8522451, "tags": {"bus": "yes", "highway": "bus_stop", "public_transport": "platform"}}, {"type": "node", "id": 4582783592, "lat": 33.8141966, "lon": 2.8575764, "tags": {"bus": "yes", "highway": "bus_stop", "name": "Bus N#4", "name:ar": "\u062d\u0627\u0641\u0644\u0629 \u0631\u0642\u0645 4", "name:en": "Bus N#4", "name:fr": "Bus N#4", "public_transport": "platform"}}, {"type": "node", "id": 4737286622, "lat": 33.7971566, "lon": 2.8587545, "tags": {"bus": "yes", "highway": "bus_stop", "name:fr": "600 Logements", "public_transport": "platform"}}, {"type": "node", "id": 4737286623, "lat": 33.7971067, "lon": 2.8588648, "tags": {"bus": "yes", "highway": "bus_stop", "name:fr": "600 Logements", "public_transport": "platform"}}, {"type": "node", "id": 4755305123, "lat": 33.8156728, "lon": 2.8633165, "tags": {"bus": "yes", "highway": "bus_stop", "name": "\u062d\u0627\u0641\u0644\u0629 \u0631\u0642\u0645 7", "name:ar": "\u062d\u0627\u0641\u0644\u0629 \u0631\u0642\u0645 7", "name:fr": "Bus n\u00b0 7", "public_transport": "platform"}}, {"type": "node", "id": 4755305124, "lat": 33.814906, "lon": 2.8646667, "tags": {"bus": "yes", "highway": "bus_stop", "name": "\u062d\u0627\u0641\u0644\u0629 \u0631\u0642\u0645 17", "name:ar": "\u062d\u0627\u0641\u0644\u0629 \u0631\u0642\u0645 17", "name:fr": "Bus n\u00b0 17", "public_transport": "platform"}}, {"type": "node", "id": 5257493121, "lat": 33.7963818, "lon": 2.8557304, "tags": {"bus": "yes", "highway": "bus_stop", "public_transport": "platform"}}, {"type": "node", "id": 5257493122, "lat": 33.7995262, "lon": 2.8702019, "tags": {"bus": "yes", "highway": "bus_stop", "name": "bus 11 . 13", "public_transport": "platform"}}, {"type": "node", "id": 5257493221, "lat": 33.8103735, "lon": 2.8605831, "tags": {"bus": "yes", "highway": "bus_stop", "lit": "yes", "name": "\u0645\u062d\u0637\u0629 \u0627\u0644\u062d\u0627\u0641\u0644\u0629 17 - \u062d\u064a 330 \u0633\u0643\u0646 - \u0627\u0644\u0627\u062a\u062c\u0627\u0647 \u0646\u062d\u0648 \u062d\u064a \u0627\u0644\u0648\u0626\u0627\u0645", "name:ar": "\u0645\u062d\u0637\u0629 \u0627\u0644\u062d\u0627\u0641\u0644\u0629 17 - \u062d\u064a 330 \u0633\u0643\u0646 - \u0627\u0644\u0627\u062a\u062c\u0627\u0647 \u0646\u062d\u0648 \u062d\u064a \u0627\u0644\u0648\u0626\u0627\u0645", "name:fr": "Autobus 17", "network": "17", "public_transport": "platform"}}, {"type": "node", "id": 5504152821, "lat": 33.8129712, "lon": 2.8608633, "tags": {"bus": "yes", "highway": "bus_stop", "name": "\u0623\u0648\u0644 \u0645\u062d\u0637\u0629 \u0644\u0644\u062d\u0627\u0641\u0644\u0629 \u0631\u0642\u0645 7", "name:ar": "\u0623\u0648\u0644 \u0645\u062d\u0637\u0629 \u0644\u0644\u062d\u0627\u0641\u0644\u0629 \u0631\u0642\u0645 7", "name:fr": "1er Station de bus 7", "operator": "Route Num\u00e9ro 7", "public_transport": "platform"}}, {"type": "node", "id": 5869440792, "lat": 33.8160801, "lon": 2.8566045, "tags": {"highway": "bus_stop"}}, {"type": "node", "id": 9910479217, "lat": 33.779339, "lon": 2.8417845, "tags": {"highway": "bus_stop", "name": "\u0645\u0648\u0642\u0641 \u062d\u0641\u0644\u0627\u062a 5 - 18\u0627", "name:en": "bus stop 5 - 18"}}, {"type": "node", "id": 10000920710, "lat": 33.797439, "lon": 2.8656936, "tags": {"bus": "yes", "highway": "bus_stop", "name": "Arr\u00eat de bus 5", "public_transport": "platform", "shelter": "yes"}}, {"type": "node", "id": 10012668403, "lat": 33.8094589, "lon": 2.8541949, "tags": {"bench": "yes", "bus": "yes", "highway": "bus_stop", "lit": "yes", "name": "\u0627\u0644\u062d\u0627\u0641\u0644\u0629 \u0631\u0642\u0645 4", "name:ar": "\u062d\u0627\u0641\u0644\u0629 \u0631\u0642\u0645 4", "name:en": "Bus N#4", "name:fr": "Bus n\u00b0 4", "network": "\u0627\u0644\u0648\u062d\u0627\u062a \u0627\u0644\u0634\u0645\u0627\u0644\u064a\u0629 - \u0648\u0633\u0637 \u0627\u0644\u0645\u062f\u064a\u0646\u0629", "public_transport": "platform", "ref": "Bureau main d'oeuvre", "shelter": "yes"}}, {"type": "node", "id": 11102598005, "lat": 33.7696719, "lon": 2.8232524, "tags": {"highway": "bus_stop", "name": "\u0633\u0643\u0646\u0627\u062a \u0639\u062f\u0644", "name:fr": "Lotissement AADL"}}, {"type": "node", "id": 11143268905, "lat": 33.8006838, "lon": 2.8691572, "tags": {"highway": "bus_stop", "name:fr": "Arr\u00eat de bus March\u00e9"}}, {"type": "node", "id": 12126214237, "lat": 33.7986637, "lon": 2.8197607, "tags": {"name": "Laghouat \u2d4d\u2d30\u2d34\u2d61\u2d30\u2d5f \u0627\u0644\u0623\u063a\u0648\u0627\u0637", "name:ar": "\u0627\u0644\u0623\u063a\u0648\u0627\u0637", "name:ber": "\u2d4d\u2d30\u2d34\u2d61\u2d30\u2d5f", "name:en": "Laghouat", "name:fr": "Laghouat", "public_transport": "station", "railway": "station", "train": "yes", "wikidata": "Q123529434"}}]}