{"version": 0.6, "generator": "Overpass API 0.7.62.5 1bd436f1", "osm3s": {"timestamp_osm_base": "2025-04-09T14:29:00Z", "copyright": "The data included in this document is from www.openstreetmap.org. The data is made available under ODbL."}, "elements": [{"type": "node", "id": 2848219675, "lat": 0.1335255, "lon": 6.648056, "tags": {"bus": "yes", "highway": "bus_stop", "public_transport": "platform"}}, {"type": "node", "id": 2848219688, "lat": 0.3398242, "lon": 6.72745, "tags": {"bus": "yes", "highway": "bus_stop", "name": "Minibuses to Neves", "public_transport": "platform", "share_taxi": "yes"}}, {"type": "node", "id": 3852492712, "lat": 0.2904648, "lon": 6.6807356, "tags": {"bus": "yes", "highway": "bus_stop", "name": "Cruzeiro Centro", "public_transport": "platform"}}, {"type": "node", "id": 3852492718, "lat": 0.2912265, "lon": 6.6897868, "tags": {"bus": "yes", "highway": "bus_stop", "name": "Pau - Sab\u00e3o Centro", "public_transport": "platform"}}, {"type": "node", "id": 6312435798, "lat": 0.3219405, "lon": 6.7243058, "tags": {"bus": "yes", "highway": "bus_stop", "name": "Centro de compras", "public_transport": "platform"}}, {"type": "node", "id": 6475626149, "lat": 0.3026939, "lon": 6.6446042, "tags": {"bus": "yes", "highway": "bus_stop", "name": "Monte Cafe - Come\u00e7o", "public_transport": "platform"}}, {"type": "node", "id": 7684580113, "lat": 0.3137538, "lon": 6.7174491, "tags": {"bus": "yes", "highway": "bus_stop", "name": "Agua Grande Centro", "public_transport": "platform"}}, {"type": "node", "id": 7684580115, "lat": 0.2971694, "lon": 6.7079412, "tags": {"bus": "yes", "highway": "bus_stop", "name": "Caix\u00e3o Grande Centro", "public_transport": "platform"}}, {"type": "node", "id": 7684580116, "lat": 0.2956931, "lon": 6.6804603, "tags": {"bus": "yes", "highway": "bus_stop", "name": "Trindade Centro", "public_transport": "platform"}}, {"type": "node", "id": 7684580117, "lat": 0.2948562, "lon": 6.6675927, "tags": {"bus": "yes", "highway": "bus_stop", "name": "Trindade - Batepa", "public_transport": "platform"}}, {"type": "node", "id": 7684580118, "lat": 0.3008535, "lon": 6.6435826, "tags": {"bus": "yes", "highway": "bus_stop", "name": "Monte Cafe", "public_transport": "platform"}}]}