{"version": 0.6, "generator": "Overpass API 0.7.62.5 1bd436f1", "osm3s": {"timestamp_osm_base": "2025-04-09T14:57:35Z", "copyright": "The data included in this document is from www.openstreetmap.org. The data is made available under ODbL."}, "elements": [{"type": "node", "id": 105105, "lat": 52.0532089, "lon": -0.0269749, "tags": {"name": "Royston", "naptan:AtcoCode": "9100ROYSTON", "network": "National Rail", "network:website": "https://www.nationalrail.co.uk/stations/rys/", "network:wikidata": "Q26334", "public_transport": "station", "railway": "station", "ref:crs": "RYS", "wikidata": "Q2034540", "wikipedia": "en:Royston railway station"}}, {"type": "node", "id": 295068, "lat": 52.1476775, "lon": -0.4782355, "tags": {"bench": "yes", "bin": "yes", "bus": "yes", "highway": "bus_stop", "name": "Bedford Modern School", "naptan:AtcoCode": "020035159", "naptan:Bearing": "NE", "naptan:CommonName": "Bedford Modern School", "naptan:Indicator": "o/s", "naptan:NaptanCode": "bfsamgdm", "naptan:Street": "Manton Lane", "naptan:verified": "no", "public_transport": "platform", "shelter": "yes", "source": "bing", "tactile_paving": "no"}}, {"type": "node", "id": 374199, "lat": 52.1198825, "lon": -0.4462115, "tags": {"bus": "yes", "highway": "bus_stop", "name": "Catholic Church", "naptan:AtcoCode": "020035623", "naptan:Bearing": "E", "naptan:CommonName": "Catholic Church", "naptan:Indicator": "adj", "naptan:NaptanCode": "bfsamtpd", "naptan:Street": "Harrowden Road", "naptan:verified": "no", "public_transport": "platform"}}, {"type": "node", "id": 374209, "lat": 52.1197172, "lon": -0.4416403, "tags": {"bus": "yes", "highway": "bus_stop", "naptan:AtcoCode": "020035625", "naptan:NaptanCode": "bfsamtpj", "public_transport": "platform"}}, {"type": "node", "id": 378512, "lat": 52.1183999, "lon": -0.4972901, "tags": {"bus": "yes", "highway": "bus_stop", "public_transport": "platform"}}, {"type": "node", "id": 384568, "lat": 52.1277674, "lon": -0.499217, "tags": {"bus": "yes", "highway": "bus_stop", "public_transport": "platform"}}, {"type": "node", "id": 384576, "lat": 52.1271431, "lon": -0.4950787, "tags": {"bus": "yes", "highway": "bus_stop", "public_transport": "platform"}}, {"type": "node", "id": 691641, "lat": 52.1201993, "lon": -0.4370523, "tags": {"bus": "yes", "highway": "bus_stop", "name": "The Turnpike", "naptan:AtcoCode": "020035729", "naptan:Bearing": "E", "naptan:CommonName": "The Turnpike", "naptan:Indicator": "E-bound", "naptan:NaptanCode": "bfsapawg", "naptan:Street": "Cambridge Road", "naptan:verified": "no", "public_transport": "platform"}}, {"type": "node", "id": 10476470, "lat": 52.1165699, "lon": -0.4833718, "tags": {"bus": "yes", "highway": "bus_stop", "public_transport": "platform", "shelter": "yes"}}, {"type": "node", "id": 12952425, "lat": 52.1954688, "lon": -0.2984897, "tags": {"bus": "yes", "highway": "bus_stop", "public_transport": "platform"}}, {"type": "node", "id": 13876770, "lat": 52.1139829, "lon": -0.4862539, "tags": {"bus": "yes", "highway": "bus_stop", "name": "The Mullberry Bush", "naptan:AtcoCode": "020035703", "naptan:Bearing": "S", "naptan:CommonName": "The Mullberry Bush", "naptan:Indicator": "opp", "naptan:NaptanCode": "bfsapajp", "naptan:Street": "Orchard Street", "naptan:verified": "no", "public_transport": "platform"}}, {"type": "node", "id": 14602032, "lat": 52.1265749, "lon": -0.4596783, "tags": {"bus": "yes", "highway": "bus_stop", "naptan:AtcoCode": "020035726", "naptan:NaptanCode": "bfsapatw", "public_transport": "platform"}}, {"type": "node", "id": 14848916, "lat": 52.1194568, "lon": -0.4670468, "tags": {"bus": "yes", "highway": "bus_stop", "public_transport": "platform"}}, {"type": "node", "id": 14915811, "lat": 52.1399435, "lon": -0.4243328, "tags": {"bus": "yes", "highway": "bus_stop", "public_transport": "platform"}}, {"type": "node", "id": 20981580, "lat": 51.9929714, "lon": -0.1875624, "tags": {"name": "Baldock", "naptan:AtcoCode": "9100BALDOCK", "network": "National Rail", "network:website": "https://www.nationalrail.co.uk/stations/bdk/", "network:wikidata": "Q26334", "public_transport": "station", "railway": "station", "ref:crs": "BDK", "train": "yes", "wheelchair": "no", "wikidata": "Q19953", "wikipedia": "en:Baldock railway station"}}, {"type": "node", "id": 21264536, "lat": 52.0258212, "lon": -0.266464, "tags": {"name": "Arlesey", "naptan:AtcoCode": "9100ARLSEY", "network": "National Rail", "network:website": "https://www.nationalrail.co.uk/stations/arl/", "network:wikidata": "Q26334", "public_transport": "station", "railway": "station", "ref:crs": "ARL", "ref:tiploc": "ARLSEY", "source:name": "local knowledge", "wikidata": "Q4567224", "wikipedia": "en:Arlesey railway station"}}, {"type": "node", "id": 21281518, "lat": 52.0908316, "lon": 0.0091415, "tags": {"name": "Meldreth", "naptan:AtcoCode": "9100MELDRTH", "network": "National Rail", "network:website": "https://www.nationalrail.co.uk/stations/mel/", "network:wikidata": "Q26334", "public_transport": "station", "railway": "station", "ref:crs": "MEL", "wikidata": "Q2915277", "wikipedia": "en:Meldreth railway station"}}, {"type": "node", "id": 21285573, "lat": 51.9054737, "lon": -0.4585987, "tags": {"name": "Leagrave", "naptan:AtcoCode": "9100LEAGRVE", "network": "National Rail", "network:website": "https://www.nationalrail.co.uk/stations/lea/", "network:wikidata": "Q26334", "public_transport": "station", "railway": "station", "ref:crs": "LEA", "train": "yes", "wheelchair": "no", "wikidata": "Q12061118", "wikipedia": "en:Leagrave railway station"}}, {"type": "node", "id": 24331719, "lat": 51.8741932, "lon": -0.1610858, "tags": {"bench": "yes", "bin": "yes", "bus": "yes", "highway": "bus_stop", "lit": "yes", "name": "Stirling Close", "naptan:AtcoCode": "210021201180", "naptan:Bearing": "S", "naptan:CommonName": "Stirling Close", "naptan:Crossing": "opp Stirling Close", "naptan:Indicator": "opp", "naptan:Landmark": "opp Stirling Close", "naptan:NaptanCode": "hrtgadmp", "naptan:PlusbusZoneRef": "STEVNGE", "naptan:ShortCommonName": "NA", "naptan:Street": "Blenheim Way", "naptan:verified": "no", "public_transport": "platform", "shelter": "yes", "source": "naptan_import", "tactile_paving": "yes"}}, {"type": "node", "id": 26237649, "lat": 52.1293364, "lon": -0.4676146, "tags": {"name": "Bedford St Johns", "naptan:AtcoCode": "9100BESJOHN", "network": "National Rail", "network:website": "https://www.nationalrail.co.uk/stations/bsj/", "network:wikidata": "Q26334", "public_transport": "station", "railway": "station", "ref:crs": "BSJ", "train": "yes", "wikidata": "Q2567167", "wikimedia_commons": "Category:Bedford St Johns railway station", "wikipedia": "en:Bedford St Johns railway station"}}, {"type": "node", "id": 27457645, "lat": 52.0690354, "lon": -0.5207575, "tags": {"name": "Stewartby", "naptan:AtcoCode": "9100STWRTBY", "network": "National Rail", "network:website": "https://www.nationalrail.co.uk/stations/swr/", "network:wikidata": "Q26334", "operator": "London Northwestern Railway", "public_transport": "station", "railway": "station", "ref:crs": "SWR", "source": "NPE", "train": "yes", "wikidata": "Q2379914", "wikipedia": "en:Stewartby railway station"}}, {"type": "node", "id": 76890118, "lat": 52.0917879, "lon": -0.5041465, "tags": {"name": "Kempston Hardwick", "naptan:AtcoCode": "9100KMPSTNH", "network": "National Rail", "network:website": "https://www.nationalrail.co.uk/stations/kmh/", "network:wikidata": "Q26334", "public_transport": "station", "railway": "station", "ref:crs": "KMH", "source": "NPE", "train": "yes", "wikidata": "Q2903851", "wikipedia": "en:Kempston Hardwick railway station"}}, {"type": "node", "id": 76892789, "lat": 52.0542365, "lon": -0.5323915, "tags": {"name": "Millbrook", "naptan:AtcoCode": "9100MLBRKB", "network": "National Rail", "network:website": "https://www.nationalrail.co.uk/stations/mlb/", "network:wikidata": "Q26334", "public_transport": "station", "railway": "station", "ref:crs": "MLB", "source": "NPE", "wikidata": "Q777709", "wikipedia": "en:Millbrook railway station (Bedfordshire)"}}, {"type": "node", "id": 94959069, "lat": 51.8988133, "lon": -0.1602289, "tags": {"bench": "yes", "bin": "yes", "bus": "yes", "highway": "bus_stop", "lit": "yes", "name": "Edmonds Drive", "naptan:AtcoCode": "210021201560", "naptan:Bearing": "NW", "naptan:CommonName": "Edmonds Drive", "naptan:Indicator": "opp", "naptan:NaptanCode": "hrtgadap", "naptan:PlusbusZoneRef": "STEVNGE", "naptan:Street": "Gresley Way", "naptan:verified": "no", "network": "SB1", "public_transport": "platform", "shelter": "yes", "tactile_paving": "no"}}, {"type": "node", "id": 94959073, "lat": 51.8988497, "lon": -0.1600928, "tags": {"bench": "no", "bin": "yes", "bus": "yes", "highway": "bus_stop", "lit": "yes", "name": "Edmonds Drive", "naptan:AtcoCode": "210021203080", "naptan:Bearing": "SE", "naptan:CommonName": "Edmonds Drive", "naptan:Indicator": "nr", "naptan:NaptanCode": "hrtdwmdw", "naptan:PlusbusZoneRef": "STEVNGE", "naptan:Street": "Gresley Way", "naptan:verified": "no", "public_transport": "platform", "shelter": "no", "tactile_paving": "no"}}, {"type": "node", "id": 112547989, "lat": 52.1353594, "lon": -0.0060201, "tags": {"created_by": "JOSM", "highway": "bus_stop", "source": "survey"}}, {"type": "node", "id": 246515781, "lat": 51.8157249, "lon": -0.3560173, "tags": {"bench": "yes", "bin": "yes", "bus": "yes", "check_date:shelter": "2022-02-19", "highway": "bus_stop", "name": "The George PH", "naptan:AtcoCode": "210021500260", "naptan:NaptanCode": "hrtdamgw", "public_transport": "platform", "shelter": "yes"}}, {"type": "node", "id": 246774230, "lat": 51.8092483, "lon": -0.3489847, "tags": {"bus": "yes", "highway": "bus_stop", "name": "Crabtree Lane", "naptan:AtcoCode": "210021500680", "naptan:Bearing": "SE", "naptan:CommonName": "Crabtree Lane", "naptan:Crossing": "opp Skew Bridge PH", "naptan:Indicator": "adj", "naptan:Landmark": "opp Skew Bridge PH", "naptan:NaptanCode": "hrtdajpt", "naptan:PlusbusZoneRef": "HRPNDN", "naptan:ShortCommonName": "NA", "naptan:Street": "Southdown Road", "naptan:verified": "no", "public_transport": "platform", "shelter": "no", "source": "naptan_import"}}, {"type": "node", "id": 246774232, "lat": 51.8095908, "lon": -0.3498638, "tags": {"bus": "yes", "highway": "bus_stop", "name": "Crabtree Lane", "naptan:AtcoCode": "210021511080", "naptan:Bearing": "NW", "naptan:CommonName": "Crabtree Lane", "naptan:Crossing": "Skew Bridge PH", "naptan:Indicator": "opp", "naptan:Landmark": "Skew Bridge PH", "naptan:NaptanCode": "hrtatjpg", "naptan:PlusbusZoneRef": "HRPNDN", "naptan:ShortCommonName": "NA", "naptan:Street": "Southdown Road", "naptan:verified": "no", "public_transport": "platform", "shelter": "no", "source": "naptan_import"}}, {"type": "node", "id": 246774235, "lat": 51.8117872, "lon": -0.3519459, "tags": {"bus": "yes", "highway": "bus_stop", "local_ref": "NR", "name": "Harpenden House Hotel", "naptan:AtcoCode": "210021500660", "naptan:Bearing": "SE", "naptan:CommonName": "Harpenden House Hotel", "naptan:Crossing": "St Dominic RC School", "naptan:Indicator": "nr", "naptan:Landmark": "St Dominic RC School", "naptan:NaptanCode": "hrtdajpm", "naptan:PlusbusZoneRef": "HRPNDN", "naptan:ShortCommonName": "NA", "naptan:Street": "Southdown Road", "naptan:verified": "no", "public_transport": "platform", "shelter": "no", "source": "naptan_import"}}, {"type": "node", "id": 246774361, "lat": 51.8141828, "lon": -0.3546557, "tags": {"bus": "yes", "highway": "bus_stop", "public_transport": "platform"}}, {"type": "node", "id": 247352706, "lat": 51.8024944, "lon": -0.3896278, "tags": {"bus": "yes", "highway": "bus_stop", "name": "Harpenden Lane", "naptan:AtcoCode": "210021510900", "naptan:Bearing": "E", "naptan:CommonName": "Harpenden Lane", "naptan:Crossing": "Roundabout", "naptan:Indicator": "E-bound", "naptan:Landmark": "Roundabout", "naptan:NaptanCode": "hrtatjma", "naptan:PlusbusZoneRef": "HRPNDN;STALBCY", "naptan:ShortCommonName": "NA", "naptan:Street": "Harpenden Lane", "naptan:verified": "no", "public_transport": "platform", "source": "naptan_import"}}, {"type": "node", "id": 247418479, "lat": 51.865463, "lon": -0.4571938, "tags": {"highway": "bus_stop", "naptan:AtcoCode": "021013510", "naptan:NaptanCode": "ahladjpj"}}, {"type": "node", "id": 247418903, "lat": 51.8598029, "lon": -0.4561895, "tags": {"bus": "yes", "highway": "bus_stop", "name": "Elm Avenue", "naptan:AtcoCode": "021013515", "naptan:Bearing": "E", "naptan:CommonName": "Elm Avenue", "naptan:Indicator": "adj", "naptan:NaptanCode": "ahladjtd", "naptan:PlusbusZoneRef": "LUTON", "naptan:Street": "Manor Road", "naptan:verified": "no", "public_transport": "platform"}}, {"type": "node", "id": 247418904, "lat": 51.8593722, "lon": -0.4544893, "tags": {"bus": "yes", "highway": "bus_stop", "name": "Sports and Social Club", "naptan:AtcoCode": "021013516", "naptan:Bearing": "SE", "naptan:CommonName": "Sports and Social Club", "naptan:Indicator": "o/s", "naptan:NaptanCode": "ahladjtg", "naptan:PlusbusZoneRef": "LUTON", "naptan:Street": "Manor Road", "naptan:verified": "no", "public_transport": "platform"}}, {"type": "node", "id": 247419049, "lat": 51.8627434, "lon": -0.4584376, "tags": {"highway": "bus_stop", "naptan:AtcoCode": "021013580", "naptan:NaptanCode": "ahladmja"}}, {"type": "node", "id": 248353439, "lat": 51.7971636, "lon": -0.4039404, "tags": {"bus": "yes", "highway": "bus_stop", "local_ref": "NR", "name": "Wheatlock Mead", "naptan:AtcoCode": "210021509280", "naptan:Bearing": "SE", "naptan:CommonName": "Wheatlock Mead", "naptan:Crossing": "opp Brache Close", "naptan:Indicator": "nr", "naptan:Landmark": "opp Brache Close", "naptan:NaptanCode": "hrtatpgw", "naptan:PlusbusZoneRef": "HRPNDN;STALBCY", "naptan:ShortCommonName": "NA", "naptan:Street": "Lybury Lane", "naptan:verified": "no", "public_transport": "platform", "shelter": "no", "source": "naptan_import"}}, {"type": "node", "id": 248353482, "lat": 51.7997332, "lon": -0.4065319, "tags": {"bus": "yes", "highway": "bus_stop", "public_transport": "platform", "shelter": "no"}}, {"type": "node", "id": 248413604, "lat": 51.8249301, "lon": -0.3338469, "tags": {"bus": "yes", "highway": "bus_stop", "name": "Tallents Crescent", "naptan:AtcoCode": "210021510520", "naptan:Bearing": "NW", "naptan:CommonName": "Tallents Crescent", "naptan:Crossing": "Common Lane", "naptan:Indicator": "adj", "naptan:Landmark": "Common Lane", "naptan:NaptanCode": "hrtatjwd", "naptan:PlusbusZoneRef": "HRPNDN", "naptan:ShortCommonName": "NA", "naptan:Street": "Milford Hill", "naptan:verified": "no", "public_transport": "platform", "source": "naptan_import"}}, {"type": "node", "id": 248418392, "lat": 51.8272944, "lon": -0.3436968, "tags": {"bench": "no", "bin": "no", "bus": "yes", "highway": "bus_stop", "name": "Porters Hill", "naptan:AtcoCode": "210021501130", "naptan:Bearing": "SE", "naptan:CommonName": "Porters Hill", "naptan:Indicator": "nr", "naptan:NaptanCode": "hrtdajdw", "naptan:PlusbusZoneRef": "HRPNDN", "naptan:Street": "Lower Luton Road", "naptan:verified": "no", "public_transport": "platform", "shelter": "no"}}, {"type": "node", "id": 248910267, "lat": 51.7971149, "lon": -0.4039823, "tags": {"bus": "yes", "highway": "bus_stop", "name": "Wheatlock Mead", "naptan:AtcoCode": "210021502475", "naptan:Bearing": "NW", "naptan:CommonName": "Wheatlock Mead", "naptan:Crossing": "Brache Close", "naptan:Indicator": "opp", "naptan:Landmark": "Brache Close", "naptan:NaptanCode": "hrtdadaj", "naptan:PlusbusZoneRef": "HRPNDN;STALBCY", "naptan:ShortCommonName": "NA", "naptan:Street": "Lybury Lane", "naptan:verified": "no", "public_transport": "platform", "shelter": "no", "source": "naptan_import"}}, {"type": "node", "id": 249389064, "lat": 51.8602169, "lon": -0.4564898, "tags": {"bus": "yes", "highway": "bus_stop", "name": "Elm Avenue", "naptan:AtcoCode": "021013530", "naptan:Bearing": "NE", "naptan:BusStopType": "CUS", "naptan:CommonName": "Elm Avenue", "naptan:Indicator": "NE-bound", "naptan:NaptanCode": "ahladjwp", "naptan:PlusbusZoneRef": "LUTON", "naptan:Street": "Elm Avenue", "naptan:verified": "no", "public_transport": "platform"}}, {"type": "node", "id": 249389065, "lat": 51.8624962, "lon": -0.4550994, "tags": {"highway": "bus_stop", "naptan:AtcoCode": "021013513", "naptan:NaptanCode": "ahladjpw"}}, {"type": "node", "id": 249389066, "lat": 51.8626757, "lon": -0.4553536, "tags": {"bus": "yes", "highway": "bus_stop", "name": "Culworth Close", "naptan:AtcoCode": "021013531", "naptan:Bearing": "NW", "naptan:CommonName": "Culworth Close", "naptan:Indicator": "adj", "naptan:NaptanCode": "ahladjwt", "naptan:PlusbusZoneRef": "LUTON", "naptan:Street": "Elm Avenue", "naptan:verified": "no", "public_transport": "platform"}}, {"type": "node", "id": 249443943, "lat": 51.8516342, "lon": -0.4473746, "tags": {"bus": "yes", "highway": "bus_stop", "naptan:AtcoCode": "021024584", "naptan:NaptanCode": "ahlamdwa", "public_transport": "platform"}}, {"type": "node", "id": 249443975, "lat": 51.8537972, "lon": -0.4506362, "tags": {"bus": "yes", "highway": "bus_stop", "name": "The Chapel", "naptan:AtcoCode": "021013523", "naptan:Bearing": "SE", "naptan:CommonName": "The Chapel", "naptan:Indicator": "opp", "naptan:NaptanCode": "ahladjwd", "naptan:PlusbusZoneRef": "LUTON", "naptan:Street": "Mancroft Road", "naptan:verified": "no", "public_transport": "platform"}}, {"type": "node", "id": 249443976, "lat": 51.8540908, "lon": -0.4514308, "tags": {"bus": "yes", "highway": "bus_stop", "naptan:AtcoCode": "021013524", "naptan:NaptanCode": "ahladjwg", "public_transport": "platform"}}, {"type": "node", "id": 249450952, "lat": 51.8531133, "lon": -0.4304917, "tags": {"bus": "yes", "highway": "bus_stop", "name": "Old School Walk", "naptan:AtcoCode": "021013539", "naptan:NaptanCode": "ahladmda", "public_transport": "platform", "shelter": "no"}}, {"type": "node", "id": 249450959, "lat": 51.8511499, "lon": -0.4258558, "tags": {"bus": "yes", "highway": "bus_stop", "name": "Pepsal End Lane", "naptan:AtcoCode": "021013541", "naptan:Bearing": "NW", "naptan:CommonName": "Pepsal End Lane", "naptan:Indicator": "adj", "naptan:NaptanCode": "ahladmdg", "naptan:PlusbusZoneRef": "LUTON", "naptan:Street": "Front Street", "naptan:verified": "no", "public_transport": "platform", "shelter": "no"}}, {"type": "node", "id": 249453575, "lat": 51.8538781, "lon": -0.445604, "tags": {"bus": "yes", "highway": "bus_stop", "naptan:AtcoCode": "021013517", "naptan:NaptanCode": "ahladjtj", "public_transport": "platform"}}, {"type": "node", "id": 249453604, "lat": 51.8538615, "lon": -0.4454905, "tags": {"bus": "yes", "highway": "bus_stop", "name": "Manor Road", "naptan:AtcoCode": "021013520", "naptan:Bearing": "S", "naptan:CommonName": "Manor Road", "naptan:Indicator": "opp", "naptan:NaptanCode": "ahladjtw", "naptan:PlusbusZoneRef": "LUTON", "naptan:Street": "Woodside Road", "naptan:verified": "no", "public_transport": "platform"}}, {"type": "node", "id": 249453813, "lat": 51.8640671, "lon": -0.463627, "tags": {"bus": "yes", "highway": "bus_stop", "name": "Mancroft Road", "naptan:AtcoCode": "021013504", "naptan:Bearing": "NE", "naptan:CommonName": "Mancroft Road", "naptan:Indicator": "opp", "naptan:NaptanCode": "ahladjmp", "naptan:PlusbusZoneRef": "LUTON", "naptan:Street": "Dunstable Road", "naptan:verified": "no", "public_transport": "platform"}}, {"type": "node", "id": 250532732, "lat": 51.8044532, "lon": -0.3327358, "tags": {"bus": "yes", "highway": "bus_stop", "local_ref": "NR", "name": "Paddock Wood", "naptan:AtcoCode": "210021500520", "naptan:Bearing": "SE", "naptan:CommonName": "Paddock Wood", "naptan:Crossing": "opp Oakley Road", "naptan:Indicator": "nr", "naptan:Landmark": "opp Oakley Road", "naptan:NaptanCode": "hrtdajtw", "naptan:PlusbusZoneRef": "HRPNDN;STALBCY", "naptan:ShortCommonName": "NA", "naptan:Street": "Grove Road", "naptan:verified": "no", "public_transport": "platform", "source": "naptan_import"}}, {"type": "node", "id": 253673250, "lat": 51.8722637, "lon": -0.3960152, "tags": {"bus": "yes", "highway": "bus_stop", "name": "Luton Airport Parkway Station", "naptan:AtcoCode": "02900208", "naptan:Bearing": "E", "naptan:CommonName": "Luton Airport Parkway Rail Station", "naptan:Indicator": "o/s", "naptan:NaptanCode": "ltnadadg", "naptan:verified": "no", "public_transport": "platform", "shelter": "yes", "wheelchair": "yes", "wheelchair:description": "Shuttle bus to airport has ramp and wheelchair/buggy space."}}, {"type": "node", "id": 255593742, "lat": 51.8385605, "lon": -0.463394, "tags": {"bus": "yes", "highway": "bus_stop", "name": "Cavendish Road", "naptan:AtcoCode": "210021428120", "naptan:Bearing": "NW", "naptan:CommonName": "The Red Lion PH", "naptan:Crossing": "Cavendish Road", "naptan:Indicator": "o/s", "naptan:Landmark": "Cavendish Road", "naptan:NaptanCode": "hrtdaptd", "naptan:ShortCommonName": "NA", "naptan:Street": "High Street", "naptan:verified": "no", "public_transport": "platform", "shelter": "no", "source": "naptan_import"}}, {"type": "node", "id": 260294196, "lat": 51.8062067, "lon": -0.3477592, "tags": {"bus": "yes", "highway": "bus_stop", "public_transport": "platform", "shelter": "no"}}, {"type": "node", "id": 261678489, "lat": 51.7676407, "lon": -0.3706398, "tags": {"bus": "yes", "highway": "bus_stop", "public_transport": "platform"}}, {"type": "node", "id": 261678490, "lat": 51.7672565, "lon": -0.3701144, "tags": {"bus": "yes", "highway": "bus_stop", "name": "Bow Bridge", "naptan:AtcoCode": "210021509000", "naptan:Bearing": "NW", "naptan:CommonName": "Bow Bridge", "naptan:Crossing": "opp Shafford Cottages", "naptan:Indicator": "NW-bound", "naptan:Landmark": "opp Shafford Cottages", "naptan:NaptanCode": "hrtatpwd", "naptan:PlusbusZoneRef": "STALBCY", "naptan:ShortCommonName": "NA", "naptan:Street": "Redbourn Road", "naptan:verified": "no", "public_transport": "platform", "source": "naptan_import"}}, {"type": "node", "id": 261678491, "lat": 51.7688698, "lon": -0.3728124, "tags": {"bus": "yes", "highway": "bus_stop", "public_transport": "platform"}}, {"type": "node", "id": 261678492, "lat": 51.7725448, "lon": -0.3760099, "tags": {"bus": "yes", "highway": "bus_stop", "name": "Hogg End Lane", "naptan:AtcoCode": "210021509020", "naptan:Bearing": "NW", "naptan:CommonName": "Hogg End Lane", "naptan:Crossing": "Hogg End Lane", "naptan:Indicator": "adj", "naptan:Landmark": "Hogg End Lane", "naptan:NaptanCode": "hrtatpwg", "naptan:PlusbusZoneRef": "STALBCY", "naptan:ShortCommonName": "NA", "naptan:Street": "Redbourn Road", "naptan:verified": "no", "public_transport": "platform", "source": "naptan_import"}}, {"type": "node", "id": 291149587, "lat": 52.2486425, "lon": -0.0470788, "tags": {"highway": "bus_stop", "note": "Stop for 8 and 9. \"Bus stop both sides of road\"", "shelter": "yes"}}, {"type": "node", "id": 293297215, "lat": 52.2214639, "lon": -0.1397182, "tags": {"highway": "bus_stop", "name": "The Green, Eltisley", "naptan:AtcoCode": "0500SELTI001", "naptan:NaptanCode": "CMBDWDPD", "note": "Has a bus bay.\nLimited X3 bus service to/from Cambridge on weekdays only", "operator": "Whippet", "route_ref": "X3"}}, {"type": "node", "id": 294954919, "lat": 52.2226668, "lon": -0.1622246, "tags": {"highway": "bus_stop"}}, {"type": "node", "id": 294954932, "lat": 52.2243162, "lon": -0.1730722, "tags": {"bus": "yes", "highway": "bus_stop", "name": "High Street", "naptan:AtcoCode": "0500SCROX002", "naptan:Bearing": "W", "naptan:CommonName": "High Street", "naptan:Indicator": "adj", "naptan:NaptanCode": "CMBGJWMW", "naptan:Street": "Cambridge Road", "naptan:verified": "no", "public_transport": "platform", "shelter": "no"}}, {"type": "node", "id": 298925664, "lat": 52.1299035, "lon": -0.1577588, "tags": {"highway": "bus_stop", "naptan:AtcoCode": "021024513", "naptan:NaptanCode": "ahlamajw"}}, {"type": "node", "id": 326003081, "lat": 51.9525474, "lon": -0.2711656, "tags": {"bench": "no", "bus": "yes", "highway": "bus_stop", "name": "Convent Close", "naptan:AtcoCode": "210021110580", "naptan:Bearing": "NW", "naptan:CommonName": "Convent Close", "naptan:Indicator": "nr", "naptan:NaptanCode": "hrtgdtjd", "naptan:PlusbusZoneRef": "HITCHIN", "naptan:Street": "Verulam Road", "naptan:verified": "no", "public_transport": "platform", "shelter": "no", "tactile_paving": "no"}}, {"type": "node", "id": 343469884, "lat": 51.9188051, "lon": -0.1708396, "tags": {"bench": "yes", "bin": "yes", "bus": "yes", "highway": "bus_stop", "lit": "yes", "name": "Mildmay Road", "naptan:AtcoCode": "210021202340", "naptan:Bearing": "W", "naptan:CommonName": "Mildmay Road", "naptan:Crossing": "Martins Wood JMI School", "naptan:Indicator": "W-bound", "naptan:Landmark": "Martins Wood JMI School", "naptan:NaptanCode": "hrtdwpjw", "naptan:PlusbusZoneRef": "STEVNGE", "naptan:ShortCommonName": "NA", "naptan:Street": "Mildmay Road", "public_transport": "platform", "shelter": "no", "source": "naptan_import", "tactile_paving": "no"}}, {"type": "node", "id": 343470185, "lat": 51.9240904, "lon": -0.1785183, "tags": {"bench": "yes", "bin": "yes", "bus": "yes", "highway": "bus_stop", "lit": "yes", "name": "Canterbury Way", "naptan:AtcoCode": "210021202720", "naptan:Bearing": "W", "naptan:CommonName": "Durham Road", "naptan:Crossing": "Durham Road", "naptan:Indicator": "W-bound", "naptan:Landmark": "Durham Road", "naptan:NaptanCode": "hrtdwpga", "naptan:PlusbusZoneRef": "STEVNGE", "naptan:ShortCommonName": "NA", "naptan:Street": "Canterbury Way", "public_transport": "platform", "shelter": "yes", "source": "naptan_import", "tactile_paving": "yes"}}, {"type": "node", "id": 343470569, "lat": 51.9229501, "lon": -0.1894979, "tags": {"bench": "yes", "bin": "yes", "bus": "yes", "highway": "bus_stop", "lit": "yes", "local_ref": "NR", "name": "York Road", "naptan:AtcoCode": "210021202760", "naptan:Bearing": "SW", "naptan:CommonName": "York Road", "naptan:Crossing": "Islington Way", "naptan:Indicator": "nr", "naptan:Landmark": "Islington Way", "naptan:NaptanCode": "hrtdwpag", "naptan:PlusbusZoneRef": "STEVNGE", "naptan:ShortCommonName": "NA", "naptan:Street": "Canterbury Way", "public_transport": "platform", "shelter": "yes", "source": "naptan_import", "tactile_paving": "no"}}, {"type": "node", "id": 343471003, "lat": 51.9179605, "lon": -0.1919164, "tags": {"bench": "yes", "bin": "yes", "bus": "yes", "highway": "bus_stop", "lit": "yes", "name": "Trent Close", "naptan:AtcoCode": "210021202780", "naptan:Bearing": "S", "naptan:CommonName": "Trent Close", "naptan:Crossing": "Trumper Road", "naptan:Indicator": "opp", "naptan:Landmark": "Trumper Road", "naptan:NaptanCode": "hrtdwpda", "naptan:PlusbusZoneRef": "STEVNGE", "naptan:ShortCommonName": "NA", "naptan:Street": "Grace Way", "public_transport": "platform", "shelter": "yes", "source": "naptan_import", "tactile_paving": "yes"}}, {"type": "node", "id": 343471926, "lat": 51.9053747, "lon": -0.1946047, "tags": {"bench": "yes", "bin": "yes", "bus": "yes", "highway": "bus_stop", "lit": "yes", "name": "Bedwell Crescent", "naptan:AtcoCode": "210021202860", "naptan:Bearing": "W", "naptan:CommonName": "Bedwell Crescent", "naptan:Crossing": "Bedwell Crescent", "naptan:Indicator": "adj", "naptan:Landmark": "Bedwell Crescent", "naptan:NaptanCode": "hrtdwmtm", "naptan:PlusbusZoneRef": "STEVNGE", "naptan:ShortCommonName": "NA", "naptan:Street": "Fairlands Way", "public_transport": "platform", "shelter": "yes", "source": "naptan_import", "tactile_paving": "no"}}, {"type": "node", "id": 343472389, "lat": 51.9049577, "lon": -0.2033095, "tags": {"bench": "yes", "bin": "no", "bus": "yes", "highway": "bus_stop", "lit": "yes", "name": "The Forum", "naptan:AtcoCode": "210021202900", "naptan:Bearing": "W", "naptan:CommonName": "The Forum", "naptan:Crossing": "TK Maxx", "naptan:Indicator": "o/s", "naptan:Landmark": "TK Maxx", "naptan:NaptanCode": "hrtdwmtw", "naptan:PlusbusZoneRef": "STEVNGE", "naptan:ShortCommonName": "NA", "naptan:Street": "Fairlands Way", "public_transport": "platform", "shelter": "yes", "source": "naptan_import", "tactile_paving": "no"}}, {"type": "node", "id": 345591774, "lat": 52.2316268, "lon": -0.2470646, "tags": {"addr:city": "St Neots", "addr:postcode": "PE19 1QF", "addr:street": "Hawkesden Road", "alt_name": "Saint Neots", "name": "St Neots", "naptan:AtcoCode": "9100STNEOTS", "network": "National Rail", "network:website": "https://www.nationalrail.co.uk/stations/sno/", "network:wikidata": "Q26334", "operator": "Great Northern", "public_transport": "station", "railway": "station", "ref:crs": "SNO", "ref:tiploc": "STNEOTS", "wheelchair": "yes", "wikidata": "Q3072111", "wikipedia": "en:St Neots railway station"}}, {"type": "node", "id": 357393346, "lat": 51.9204237, "lon": -0.1702419, "tags": {"bench": "yes", "bin": "yes", "bus": "yes", "highway": "bus_stop", "lit": "yes", "name": "Ascot Crescent", "naptan:AtcoCode": "210021202470", "naptan:Bearing": "NW", "naptan:CommonName": "Ascot Crescent", "naptan:Crossing": "Sefton Road", "naptan:Indicator": "N-bound", "naptan:Landmark": "Sefton Road", "naptan:NaptanCode": "hrtdwptd", "naptan:PlusbusZoneRef": "STEVNGE", "naptan:ShortCommonName": "NA", "naptan:Street": "Ascot Crescent", "public_transport": "platform", "shelter": "yes", "source": "naptan_import", "tactile_paving": "no"}}, {"type": "node", "id": 357431205, "lat": 51.9072318, "lon": -0.1879737, "tags": {"bench": "no", "bin": "no", "bus": "yes", "highway": "bus_stop", "lit": "yes", "name": "Archer Road", "naptan:AtcoCode": "210021202020", "naptan:Bearing": "NW", "naptan:CommonName": "Archer Road", "naptan:Crossing": "Allotment Gardens", "naptan:Indicator": "opp", "naptan:Landmark": "Allotment Gardens", "naptan:NaptanCode": "hrtdwtgm", "naptan:PlusbusZoneRef": "STEVNGE", "naptan:ShortCommonName": "NA", "naptan:Street": "Lonsdale Road", "naptan:verified": "no", "public_transport": "platform", "shelter": "no", "source": "naptan_import", "tactile_paving": "no"}}, {"type": "node", "id": 357431706, "lat": 51.9077817, "lon": -0.1849107, "tags": {"bench": "yes", "bin": "yes", "bus": "yes", "highway": "bus_stop", "lit": "yes", "name": "Sloan Court", "naptan:AtcoCode": "210021202680", "naptan:Bearing": "NW", "naptan:CommonName": "Sloan Court", "naptan:Crossing": "Archer Road Sloane Court", "naptan:Indicator": "opp", "naptan:Landmark": "Archer Road Sloane Court", "naptan:NaptanCode": "hrtdwpdp", "naptan:PlusbusZoneRef": "STEVNGE", "naptan:ShortCommonName": "NA", "naptan:Street": "Archer Road", "public_transport": "platform", "shelter": "yes", "source": "naptan_import", "tactile_paving": "no"}}, {"type": "node", "id": 357431865, "lat": 51.9098883, "lon": -0.1833826, "tags": {"bench": "no", "bin": "yes", "bus": "yes", "highway": "bus_stop", "lit": "yes", "name": "Fairlands Centre", "naptan:AtcoCode": "210021202060", "naptan:Bearing": "NW", "naptan:CommonName": "Fairlands Centre", "naptan:Crossing": "The King Pin PH", "naptan:Indicator": "adj", "naptan:Landmark": "The King Pin PH", "naptan:NaptanCode": "hrtdwtja", "naptan:PlusbusZoneRef": "STEVNGE", "naptan:ShortCommonName": "NA", "naptan:Street": "Archer Road", "public_transport": "platform", "shelter": "yes", "source": "naptan_import", "tactile_paving": "no"}}, {"type": "node", "id": 357431995, "lat": 51.9098115, "lon": -0.182921, "tags": {"bench": "yes", "bin": "yes", "bus": "yes", "highway": "bus_stop", "lit": "yes", "name": "Fairlands Centre", "naptan:AtcoCode": "210021202660", "naptan:Bearing": "SE", "naptan:CommonName": "Fairlands Centre", "naptan:Crossing": "The King Pin", "naptan:Indicator": "opp", "naptan:Landmark": "The King Pin", "naptan:NaptanCode": "hrtdwpdm", "naptan:PlusbusZoneRef": "STEVNGE", "naptan:ShortCommonName": "NA", "naptan:Street": "Archer Road", "public_transport": "platform", "shelter": "yes", "source": "naptan_import", "tactile_paving": "no"}}, {"type": "node", "id": 360327624, "lat": 51.9054801, "lon": -0.2019756, "tags": {"bench": "yes", "bin": "yes", "bus": "yes", "check_date:shelter": "2021-01-02", "highway": "bus_stop", "lit": "yes", "name": "The Forum", "naptan:AtcoCode": "210021201800", "naptan:Bearing": "E", "naptan:CommonName": "The Forum", "naptan:Crossing": "King George V Playing Field", "naptan:Indicator": "opp", "naptan:Landmark": "King George V Playing Field", "naptan:NaptanCode": "hrtdwtwm", "naptan:PlusbusZoneRef": "STEVNGE", "naptan:ShortCommonName": "NA", "naptan:Street": "Fairlands Way", "public_transport": "platform", "shelter": "yes", "source": "naptan_import"}}, {"type": "node", "id": 360951326, "lat": 51.9056464, "lon": -0.1972194, "tags": {"bench": "no", "bin": "yes", "bus": "yes", "highway": "bus_stop", "lit": "yes", "name": "Silam Road", "naptan:AtcoCode": "210021201820", "naptan:Bearing": "E", "naptan:CommonName": "Silam Road", "naptan:Crossing": "Popple Way", "naptan:Indicator": "opp", "naptan:Landmark": "Popple Way", "naptan:NaptanCode": "hrtdwtwp", "naptan:PlusbusZoneRef": "STEVNGE", "naptan:ShortCommonName": "NA", "naptan:Street": "Fairlands Way", "public_transport": "platform", "shelter": "no", "source": "naptan_import"}}, {"type": "node", "id": 360951383, "lat": 51.905629, "lon": -0.1935198, "tags": {"bench": "no", "bin": "yes", "bus": "yes", "highway": "bus_stop", "lit": "yes", "name": "Bedwell Crescent", "naptan:AtcoCode": "210021201840", "naptan:Bearing": "E", "naptan:CommonName": "Bedwell Crescent", "naptan:Crossing": "Grace Way", "naptan:Indicator": "opp", "naptan:Landmark": "Grace Way", "naptan:NaptanCode": "hrtgadag", "naptan:PlusbusZoneRef": "STEVNGE", "naptan:ShortCommonName": "NA", "naptan:Street": "Fairlands Way", "public_transport": "platform", "shelter": "no", "source": "naptan_import"}}, {"type": "node", "id": 415913905, "lat": 51.8472582, "lon": -0.4126956, "tags": {"bus": "yes", "highway": "bus_stop", "name": "Luton Hoo Hotel", "public_transport": "platform", "shelter": "no"}}, {"type": "node", "id": 415914136, "lat": 51.846689, "lon": -0.4121458, "tags": {"bus": "yes", "highway": "bus_stop", "name": "Luton Hoo Hotel", "public_transport": "platform", "shelter": "no"}}, {"type": "node", "id": 415914137, "lat": 51.8513657, "lon": -0.4141485, "tags": {"bus": "yes", "highway": "bus_stop", "name": "Newlands Road", "public_transport": "platform"}}, {"type": "node", "id": 417225257, "lat": 51.8550193, "lon": -0.4332212, "tags": {"bus": "yes", "highway": "bus_stop", "name": "Slip End Crossroads", "naptan:AtcoCode": "021013538", "naptan:Bearing": "NE", "naptan:CommonName": "Crossroads", "naptan:Indicator": "NE-bound", "naptan:NaptanCode": "ahladmaw", "naptan:PlusbusZoneRef": "LUTON", "naptan:Street": "Church Road", "naptan:verified": "no", "public_transport": "platform", "shelter": "yes"}}, {"type": "node", "id": 417225258, "lat": 51.8571952, "lon": -0.4299204, "tags": {"bus": "yes", "highway": "bus_stop", "name": "Church Road", "naptan:AtcoCode": "021028156", "naptan:Bearing": "NE", "naptan:CommonName": "Church Road", "naptan:Indicator": "adj", "naptan:NaptanCode": "ahlampmj", "naptan:verified": "no", "public_transport": "platform"}}, {"type": "node", "id": 417225260, "lat": 51.8570687, "lon": -0.4297487, "tags": {"bus": "yes", "highway": "bus_stop", "name": "Church Road", "naptan:AtcoCode": "021028157", "naptan:Bearing": "SW", "naptan:CommonName": "Church Road", "naptan:Indicator": "opp", "naptan:NaptanCode": "ahlampmp", "naptan:verified": "no", "public_transport": "platform"}}, {"type": "node", "id": 417225429, "lat": 51.8556756, "lon": -0.4439212, "tags": {"bench": "no", "bin": "no", "bus": "yes", "departures_board": "timetable", "highway": "bus_stop", "naptan:AtcoCode": "021013519", "naptan:NaptanCode": "ahladjtp", "public_transport": "platform", "shelter": "no"}}, {"type": "node", "id": 417225430, "lat": 51.8554778, "lon": -0.4444362, "tags": {"bus": "yes", "departures_board": "timetable", "highway": "bus_stop", "naptan:AtcoCode": "021013518", "naptan:NaptanCode": "ahladjtm", "public_transport": "platform", "shelter": "no"}}, {"type": "node", "id": 417225431, "lat": 51.8586544, "lon": -0.4385518, "tags": {"bus": "yes", "highway": "bus_stop", "name": "Grove Park Road", "naptan:AtcoCode": "021013534", "naptan:Bearing": "SE", "naptan:CommonName": "Grove Park Road", "naptan:Indicator": "SE-bound", "naptan:NaptanCode": "ahladmaj", "naptan:PlusbusZoneRef": "LUTON", "naptan:Street": "Grove Road", "naptan:verified": "no", "public_transport": "platform"}}, {"type": "node", "id": 417225432, "lat": 51.8584131, "lon": -0.4385506, "tags": {"bus": "yes", "highway": "bus_stop", "naptan:AtcoCode": "021013535", "naptan:NaptanCode": "ahladmam", "public_transport": "platform"}}, {"type": "node", "id": 417225449, "lat": 51.8514273, "lon": -0.4466903, "tags": {"bus": "yes", "highway": "bus_stop", "naptan:AtcoCode": "021013521", "naptan:NaptanCode": "ahladjwa", "public_transport": "platform"}}, {"type": "node", "id": 417713767, "lat": 51.9047064, "lon": -0.3152478, "tags": {"bus": "yes", "highway": "bus_stop", "name": "Plough Lane", "naptan:AtcoCode": "210021100340", "naptan:Bearing": "NW", "naptan:CommonName": "Plough Lane", "naptan:Indicator": "opp", "naptan:NaptanCode": "hrtgmdaw", "naptan:Street": "King's Walden Road", "naptan:verified": "no", "public_transport": "platform", "shelter": "yes"}}, {"type": "node", "id": 418497291, "lat": 51.8585729, "lon": -0.3426406, "tags": {"highway": "bus_stop", "shelter": "yes"}}, {"type": "node", "id": 418823273, "lat": 51.8719578, "lon": -0.433747, "tags": {"bus": "yes", "highway": "bus_stop", "naptan:AtcoCode": "02907017", "naptan:NaptanCode": "ltngdad", "public_transport": "platform"}}, {"type": "node", "id": 418823289, "lat": 51.8755169, "lon": -0.4330737, "tags": {"bus": "yes", "highway": "bus_stop", "name": "Farley Methodist Church", "naptan:AtcoCode": "02907031", "naptan:Bearing": "SE", "naptan:CommonName": "Farley Methodist Church", "naptan:Indicator": "opp", "naptan:NaptanCode": "ltngdja", "naptan:PlusbusZoneRef": "LUTON", "naptan:verified": "no", "public_transport": "platform"}}, {"type": "node", "id": 418823290, "lat": 51.8751622, "lon": -0.4324331, "tags": {"bus": "yes", "highway": "bus_stop", "naptan:AtcoCode": "02907014", "naptan:NaptanCode": "ltngawm", "public_transport": "platform", "shelter": "no"}}, {"type": "node", "id": 418823291, "lat": 51.8742674, "lon": -0.431713, "tags": {"bus": "yes", "highway": "bus_stop", "name": "Bolingbroke Road", "naptan:AtcoCode": "02907015", "naptan:Bearing": "S", "naptan:CommonName": "Bolingbroke Road", "naptan:Indicator": "o/s", "naptan:NaptanCode": "ltngawp", "naptan:PlusbusZoneRef": "LUTON", "naptan:verified": "no", "public_transport": "platform"}}, {"type": "node", "id": 418974175, "lat": 51.8703923, "lon": -0.4248113, "tags": {"bus": "yes", "highway": "bus_stop", "name": "Stockwood Park", "naptan:AtcoCode": "02907038", "naptan:Bearing": "SW", "naptan:CommonName": "Wilsden Avenue", "naptan:Indicator": "opp", "naptan:NaptanCode": "ltngdma", "naptan:PlusbusZoneRef": "LUTON", "naptan:verified": "no", "public_transport": "platform", "shelter": "yes"}}, {"type": "node", "id": 418974177, "lat": 51.8702288, "lon": -0.4298908, "tags": {"bus": "yes", "highway": "bus_stop", "name": "The Crossway", "naptan:AtcoCode": "02907034", "naptan:Bearing": "NW", "naptan:CommonName": "The Crossway", "naptan:Indicator": "opp", "naptan:NaptanCode": "ltngdjm", "naptan:PlusbusZoneRef": "LUTON", "naptan:verified": "no", "public_transport": "platform"}}, {"type": "node", "id": 418974178, "lat": 51.8700512, "lon": -0.4294275, "tags": {"bus": "yes", "highway": "bus_stop", "name": "The Crossway", "naptan:AtcoCode": "02907035", "naptan:Bearing": "SE", "naptan:CommonName": "The Crossway", "naptan:Indicator": "nr", "naptan:NaptanCode": "ltngdjp", "naptan:PlusbusZoneRef": "LUTON", "naptan:verified": "no", "public_transport": "platform"}}, {"type": "node", "id": 418974179, "lat": 51.871755, "lon": -0.4350897, "tags": {"bus": "yes", "highway": "bus_stop", "naptan:AtcoCode": "02907018", "naptan:NaptanCode": "ltngdag", "public_transport": "platform"}}, {"type": "node", "id": 418974180, "lat": 51.8719466, "lon": -0.4326481, "tags": {"bus": "yes", "highway": "bus_stop", "name": "South Drift Way", "naptan:AtcoCode": "02907033", "naptan:Bearing": "SE", "naptan:CommonName": "South Drift Way", "naptan:Indicator": "opp", "naptan:NaptanCode": "ltngdjg", "naptan:PlusbusZoneRef": "LUTON", "naptan:verified": "no", "public_transport": "platform"}}, {"type": "node", "id": 418974182, "lat": 51.8678488, "lon": -0.4306854, "tags": {"bus": "yes", "highway": "bus_stop", "name": "Farley Farm Road", "naptan:AtcoCode": "02907203", "naptan:Bearing": "SW", "naptan:CommonName": "Farley Farm Road", "naptan:Indicator": "opp", "naptan:NaptanCode": "ltngdpm", "naptan:PlusbusZoneRef": "LUTON", "naptan:Street": "Farley Hill", "naptan:verified": "no", "public_transport": "platform"}}, {"type": "node", "id": 422164395, "lat": 51.8762415, "lon": -0.4431126, "tags": {"bus": "yes", "highway": "bus_stop", "naptan:AtcoCode": "02907023", "naptan:NaptanCode": "ltngdaw", "public_transport": "platform"}}, {"type": "node", "id": 422164396, "lat": 51.8758023, "lon": -0.4414862, "tags": {"bus": "yes", "highway": "bus_stop", "name": "Cades Close", "naptan:AtcoCode": "02907022", "naptan:Bearing": "W", "naptan:CommonName": "Cades Close", "naptan:Indicator": "nr", "naptan:NaptanCode": "ltngdat", "naptan:PlusbusZoneRef": "LUTON", "naptan:verified": "no", "public_transport": "platform"}}, {"type": "node", "id": 422164397, "lat": 51.8769246, "lon": -0.4454704, "tags": {"bus": "yes", "highway": "bus_stop", "naptan:AtcoCode": "02907024", "naptan:NaptanCode": "ltngdga", "public_transport": "platform"}}, {"type": "node", "id": 422164398, "lat": 51.8792025, "lon": -0.4446887, "tags": {"bus": "yes", "highway": "bus_stop", "name": "Priestleys", "naptan:AtcoCode": "02907026", "naptan:Bearing": "E", "naptan:CommonName": "Priestleys", "naptan:Indicator": "opp", "naptan:NaptanCode": "ltngdgj", "naptan:PlusbusZoneRef": "LUTON", "naptan:verified": "no", "public_transport": "platform"}}, {"type": "node", "id": 422164399, "lat": 51.8755259, "lon": -0.4324974, "tags": {"bus": "yes", "highway": "bus_stop", "name": "Meyrick Avenue", "naptan:AtcoCode": "02907013", "naptan:Bearing": "SW", "naptan:CommonName": "Meyrick Avenue", "naptan:Indicator": "o/s", "naptan:NaptanCode": "ltngawj", "naptan:PlusbusZoneRef": "LUTON", "naptan:verified": "no", "public_transport": "platform"}}, {"type": "node", "id": 422164400, "lat": 51.8751536, "lon": -0.4370152, "tags": {"bus": "yes", "highway": "bus_stop", "naptan:AtcoCode": "02907045", "naptan:NaptanCode": "ltngdpa", "public_transport": "platform"}}, {"type": "node", "id": 422164404, "lat": 51.8766342, "lon": -0.4367758, "tags": {"bus": "yes", "highway": "bus_stop", "naptan:AtcoCode": "02907030", "naptan:NaptanCode": "ltngdgw", "public_transport": "platform"}}, {"type": "node", "id": 422164405, "lat": 51.8765128, "lon": -0.4368331, "tags": {"bus": "yes", "highway": "bus_stop", "naptan:AtcoCode": "02907046", "naptan:NaptanCode": "ltngdpd", "public_transport": "platform"}}, {"type": "node", "id": 422164406, "lat": 51.8765442, "lon": -0.4373989, "tags": {"bus": "yes", "highway": "bus_stop", "naptan:AtcoCode": "02907029", "naptan:NaptanCode": "ltngdgt", "note": "Bus stop ??? If so, Which side of road?", "public_transport": "platform"}}, {"type": "node", "id": 422164407, "lat": 51.8780822, "lon": -0.4426978, "tags": {"bus": "yes", "highway": "bus_stop", "name": "Rockley Road", "naptan:AtcoCode": "02907027", "naptan:Bearing": "SE", "naptan:CommonName": "Rockley Road", "naptan:Indicator": "opp", "naptan:NaptanCode": "ltngdgm", "naptan:PlusbusZoneRef": "LUTON", "naptan:verified": "no", "public_transport": "platform"}}, {"type": "node", "id": 422164412, "lat": 51.877975, "lon": -0.4463458, "tags": {"highway": "bus_stop", "naptan:AtcoCode": "02907025", "naptan:NaptanCode": "ltngdgd"}}, {"type": "node", "id": 422164462, "lat": 51.8684676, "lon": -0.4318994, "tags": {"bus": "yes", "highway": "bus_stop", "public_transport": "platform"}}, {"type": "node", "id": 422164505, "lat": 51.8742019, "lon": -0.438314, "tags": {"bus": "yes", "highway": "bus_stop", "naptan:AtcoCode": "02907044", "naptan:NaptanCode": "ltngdmw", "public_transport": "platform"}}, {"type": "node", "id": 422164506, "lat": 51.8744411, "lon": -0.4399046, "tags": {"bus": "yes", "highway": "bus_stop", "naptan:AtcoCode": "02907021", "naptan:NaptanCode": "ltngdap", "public_transport": "platform"}}, {"type": "node", "id": 422164507, "lat": 51.8737915, "lon": -0.4390426, "tags": {"bus": "yes", "highway": "bus_stop", "naptan:AtcoCode": "02907020", "naptan:NaptanCode": "ltngdam", "public_transport": "platform"}}, {"type": "node", "id": 422164508, "lat": 51.8727338, "lon": -0.4380852, "tags": {"bus": "yes", "highway": "bus_stop", "naptan:AtcoCode": "02907019", "naptan:NaptanCode": "ltngdaj", "public_transport": "platform"}}, {"type": "node", "id": 428972668, "lat": 51.8965243, "lon": -0.3932286, "tags": {"bus": "yes", "highway": "bus_stop", "name": "Brays Road", "naptan:AtcoCode": "02901415", "naptan:Bearing": "SW", "naptan:CommonName": "Brays Road", "naptan:Indicator": "SW-bound", "naptan:NaptanCode": "ltngmtm", "naptan:PlusbusZoneRef": "LUTON", "naptan:Street": "Brays Road", "naptan:verified": "no", "public_transport": "platform"}}, {"type": "node", "id": 428972669, "lat": 51.8964978, "lon": -0.3937072, "tags": {"bus": "yes", "highway": "bus_stop", "name": "Brays Road", "naptan:AtcoCode": "02901275", "naptan:Bearing": "NE", "naptan:CommonName": "Brays Road", "naptan:Indicator": "NE-bound", "naptan:NaptanCode": "ltnajdm", "naptan:PlusbusZoneRef": "LUTON", "naptan:Street": "Brays Road", "naptan:verified": "no", "public_transport": "platform"}}, {"type": "node", "id": 442704309, "lat": 52.1427474, "lon": -0.4300593, "tags": {"bench": "yes", "bin": "no", "bus": "yes", "check_date:shelter": "2021-08-23", "highway": "bus_stop", "name": "Goldington Green", "naptan:AtcoCode": "020035260", "naptan:Bearing": "E", "naptan:CommonName": "Goldington Green", "naptan:Crossing": "Barker's Lane", "naptan:Indicator": "adj", "naptan:NaptanCode": "bfsampdw", "naptan:PlusbusZoneRef": "BEDFDM", "naptan:Street": "Goldington Road", "public_transport": "platform", "shelter": "yes", "source": "naptan_import"}}, {"type": "node", "id": 449362776, "lat": 52.2235058, "lon": -0.283127, "tags": {"bus": "yes", "highway": "bus_stop", "public_transport": "platform"}}, {"type": "node", "id": 449362780, "lat": 52.2266183, "lon": -0.2765009, "tags": {"bus": "yes", "highway": "bus_stop", "public_transport": "platform"}}, {"type": "node", "id": 449368261, "lat": 52.2185211, "lon": -0.2889635, "tags": {"bus": "yes", "highway": "bus_stop", "public_transport": "platform"}}, {"type": "node", "id": 449368263, "lat": 52.2207085, "lon": -0.2880451, "tags": {"bus": "yes", "highway": "bus_stop", "public_transport": "platform"}}, {"type": "node", "id": 449377115, "lat": 52.1426614, "lon": -0.4991886, "tags": {"bench": "no", "bin": "no", "bus": "yes", "highway": "bus_stop", "name": "Day's Lane", "naptan:AtcoCode": "020035090", "naptan:Bearing": "W", "naptan:CommonName": "Day's Lane", "naptan:Indicator": "adj", "naptan:NaptanCode": "bfsamatm", "naptan:Street": "Bromham Road", "naptan:verified": "no", "public_transport": "platform", "shelter": "no"}}, {"type": "node", "id": 449377119, "lat": 52.14033, "lon": -0.4447506, "tags": {"bench": "no", "bin": "no", "bus": "yes", "highway": "bus_stop", "lit": "yes", "name": "Dean Street", "naptan:AtcoCode": "020035225", "naptan:Bearing": "W", "naptan:CommonName": "Dean Street", "naptan:Indicator": "adj", "naptan:Landmark": "Dean Street", "naptan:NaptanCode": "bfsamjmw", "naptan:PlusbusZoneRef": "BEDFDM", "naptan:Street": "Goldington Green", "public_transport": "platform", "shelter": "no", "source": "naptan_import", "tactile_paving": "yes"}}, {"type": "node", "id": 449377120, "lat": 52.142513, "lon": -0.4314155, "tags": {"bench": "no", "bin": "no", "bus": "yes", "highway": "bus_stop", "lit": "no", "name": "Goldington Green", "naptan:AtcoCode": "020035258", "naptan:Bearing": "W", "naptan:CommonName": "Goldington Green", "naptan:Crossing": "Sandy Road", "naptan:Indicator": "opp", "naptan:NaptanCode": "bfsampdp", "naptan:PlusbusZoneRef": "BEDFDM", "naptan:Street": "Goldington Road", "public_transport": "platform", "shelter": "no", "source": "naptan_import", "tactile_paving": "yes"}}, {"type": "node", "id": 449377125, "lat": 52.1469278, "lon": -0.4107315, "tags": {"bus": "yes", "highway": "bus_stop", "name": "Elms Farm Industrial Estate", "naptan:AtcoCode": "020035266", "naptan:Bearing": "SW", "naptan:CommonName": "Elms Farm Industrial Estate", "naptan:Indicator": "opp", "naptan:NaptanCode": "bfsampgt", "naptan:Street": "Goldington Road", "naptan:verified": "no", "public_transport": "platform"}}, {"type": "node", "id": 449377127, "lat": 52.1576129, "lon": -0.3537826, "tags": {"bus": "yes", "highway": "bus_stop", "naptan:AtcoCode": "020033101", "naptan:NaptanCode": "bfsajtga", "public_transport": "platform"}}, {"type": "node", "id": 449377129, "lat": 52.1781598, "lon": -0.320098, "tags": {"bus": "yes", "highway": "bus_stop", "name": "Park Road", "naptan:AtcoCode": "020033105", "naptan:Bearing": "SW", "naptan:CommonName": "Park Road", "naptan:Indicator": "adj", "naptan:Landmark": "Park Road", "naptan:NaptanCode": "bfsajtgp", "naptan:PlusbusZoneRef": "BIGLSWD", "naptan:Street": "Bedford Road", "public_transport": "platform", "shelter": "yes", "source": "naptan_import"}}, {"type": "node", "id": 449377131, "lat": 52.1378212, "lon": -0.4714551, "tags": {"bench": "yes", "bin": "yes", "bus": "yes", "highway": "bus_stop", "lit": "yes", "local_ref": "M", "name": "Bus Station", "naptan:AtcoCode": "020035054", "naptan:CommonName": "Bus Station", "naptan:Indicator": "Stop M", "naptan:Landmark": "Icelands", "naptan:NaptanCode": "bfsamadt", "naptan:PlusbusZoneRef": "BEDFDM", "naptan:Street": "Greenhill Street", "public_transport": "platform", "shelter": "no", "source": "NaPTAN", "tactile_paving": "no"}}, {"type": "node", "id": 450969842, "lat": 52.1943564, "lon": -0.2982081, "tags": {"bus": "yes", "highway": "bus_stop", "name": "Wyboston Footbridge", "naptan:AtcoCode": "020033113", "naptan:Bearing": "S", "naptan:CommonName": "Wyboston Footbridge", "naptan:Indicator": "S-bound", "naptan:NaptanCode": "bfsajtjd", "naptan:Street": "Great North Road (A1)", "naptan:verified": "no", "public_transport": "platform", "shelter": "yes", "source": "dictaphone"}}, {"type": "node", "id": 455193748, "lat": 51.9010526, "lon": 0.2006645, "tags": {"bus": "yes", "highway": "bus_stop", "public_transport": "platform"}}, {"type": "node", "id": 459341799, "lat": 51.9570057, "lon": -0.2570563, "tags": {"bench": "no", "bin": "no", "highway": "bus_stop", "lit": "yes", "name": "Green Lane", "shelter": "no", "tactile_paving": "no"}}, {"type": "node", "id": 459341810, "lat": 51.9580276, "lon": -0.2594744, "tags": {"bench": "no", "bin": "no", "bus": "yes", "highway": "bus_stop", "lit": "no", "name": "Orchard Road", "public_transport": "platform", "shelter": "no", "tactile_paving": "no"}}, {"type": "node", "id": 459944586, "lat": 51.9548798, "lon": -0.2537151, "tags": {"bench": "no", "bin": "no", "bus": "yes", "highway": "bus_stop", "lit": "no", "name": "Purwell Meadows", "public_transport": "platform", "shelter": "no", "tactile_paving": "no"}}, {"type": "node", "id": 467704416, "lat": 52.0021691, "lon": -0.4955374, "tags": {"bus": "yes", "highway": "bus_stop", "name": "Village Hall", "naptan:AtcoCode": "021020162", "naptan:Bearing": "N", "naptan:CommonName": "Village Hall", "naptan:Indicator": "adj", "naptan:NaptanCode": "ahlagjgj", "naptan:PlusbusZoneRef": "FLITWCK", "naptan:Street": "Dunstable Road", "naptan:verified": "no", "public_transport": "platform", "route_ref": "X42"}}, {"type": "node", "id": 469288222, "lat": 52.0030145, "lon": -0.4938994, "tags": {"bench": "no", "bin": "no", "bus": "yes", "highway": "bus_stop", "naptan:AtcoCode": "021024637", "naptan:NaptanCode": "ahlamgwj", "public_transport": "platform", "shelter": "no", "tactile_paving": "no"}}, {"type": "node", "id": 469288245, "lat": 52.0016295, "lon": -0.4902171, "tags": {"bus": "yes", "highway": "bus_stop", "name": "Oak Road", "naptan:AtcoCode": "021020751", "naptan:Bearing": "W", "naptan:CommonName": "Oak Road", "naptan:Indicator": "adj", "naptan:NaptanCode": "ahlapwpj", "naptan:PlusbusZoneRef": "FLITWCK", "naptan:Street": "Station Road", "naptan:verified": "no", "public_transport": "platform"}}, {"type": "node", "id": 469288783, "lat": 51.9982577, "lon": -0.4968887, "tags": {"bus": "yes", "highway": "bus_stop", "public_transport": "platform", "route_ref": "X42"}}, {"type": "node", "id": 469294105, "lat": 52.0059174, "lon": -0.4871229, "tags": {"bus": "yes", "highway": "bus_stop", "naptan:AtcoCode": "021020188", "naptan:NaptanCode": "ahlagjpd", "public_transport": "platform"}}, {"type": "node", "id": 469904462, "lat": 51.9984936, "lon": -0.5022481, "tags": {"bus": "yes", "highway": "bus_stop", "name": "Larkway", "naptan:AtcoCode": "021020105", "naptan:Bearing": "S", "naptan:CommonName": "Larkway", "naptan:Indicator": "opp", "naptan:NaptanCode": "ahlagjad", "naptan:PlusbusZoneRef": "FLITWCK", "naptan:Street": "Temple Way", "naptan:verified": "no", "public_transport": "platform"}}, {"type": "node", "id": 470408580, "lat": 52.0001916, "lon": -0.5004697, "tags": {"bus": "yes", "highway": "bus_stop", "naptan:AtcoCode": "021020103", "naptan:NaptanCode": "ahlagdwp", "public_transport": "platform"}}, {"type": "node", "id": 470408609, "lat": 52.0007731, "lon": -0.4960211, "tags": {"bus": "yes", "highway": "bus_stop", "public_transport": "platform"}}, {"type": "node", "id": 470408649, "lat": 52.0001727, "lon": -0.5001347, "tags": {"bus": "yes", "highway": "bus_stop", "public_transport": "platform"}}, {"type": "node", "id": 471108727, "lat": 52.0050578, "lon": -0.5002228, "tags": {"bench": "yes", "bin": "yes", "bus": "yes", "highway": "bus_stop", "name": "Woodland Middle School", "naptan:AtcoCode": "021020115", "naptan:Bearing": "NW", "naptan:CommonName": "Woodland Middle School", "naptan:Indicator": "o/s", "naptan:NaptanCode": "ahlagjdm", "naptan:PlusbusZoneRef": "FLITWCK", "naptan:Street": "Steppingley Road", "naptan:verified": "no", "public_transport": "platform", "route_ref": "X42", "shelter": "yes", "tactile_paving": "no"}}, {"type": "node", "id": 473068074, "lat": 52.0042788, "lon": -0.5059814, "tags": {"bus": "yes", "highway": "bus_stop", "naptan:AtcoCode": "021020112", "naptan:NaptanCode": "ahlagjda", "public_transport": "platform", "shelter": "no"}}, {"type": "node", "id": 473071764, "lat": 52.0062414, "lon": -0.5042605, "tags": {"bus": "yes", "highway": "bus_stop", "name": "Bluebell Close", "naptan:AtcoCode": "021020114", "naptan:Bearing": "SW", "naptan:CommonName": "Bluebell Close", "naptan:Indicator": "adj", "naptan:NaptanCode": "ahlagjdj", "naptan:PlusbusZoneRef": "FLITWCK", "naptan:Street": "Manor Way", "naptan:verified": "no", "public_transport": "platform", "shelter": "yes"}}, {"type": "node", "id": 473117827, "lat": 51.9986153, "lon": -0.5023, "tags": {"bus": "yes", "highway": "bus_stop", "naptan:AtcoCode": "021020104", "naptan:NaptanCode": "ahlagdwt", "public_transport": "platform"}}, {"type": "node", "id": 473117972, "lat": 52.0008037, "lon": -0.49702, "tags": {"bus": "yes", "highway": "bus_stop", "naptan:AtcoCode": "021020100", "naptan:NaptanCode": "ahlagdwg", "public_transport": "platform", "shelter": "no"}}, {"type": "node", "id": 473120999, "lat": 52.0012679, "lon": -0.5068103, "tags": {"bus": "yes", "highway": "bus_stop", "name": "Pennine Rise", "naptan:AtcoCode": "021020110", "naptan:Bearing": "S", "naptan:CommonName": "Pennine Rise", "naptan:Indicator": "opp", "naptan:NaptanCode": "ahlagjat", "naptan:PlusbusZoneRef": "FLITWCK", "naptan:Street": "Manor Way", "naptan:verified": "no", "public_transport": "platform"}}, {"type": "node", "id": 473772515, "lat": 52.2074185, "lon": -0.2887634, "tags": {"bus": "yes", "highway": "bus_stop", "note": "Bus Stop painted on road, but no bus stop sign", "public_transport": "platform", "source": "dictaphone"}}, {"type": "node", "id": 474888201, "lat": 51.9212861, "lon": 0.1627063, "tags": {"bus": "yes", "highway": "bus_stop", "name": "The Village Hall", "naptan:AtcoCode": "150018002002", "naptan:Bearing": "SE", "naptan:BusStopType": "CUS", "naptan:CommonName": "The Village Hall", "naptan:Crossing": "Mailers Lane", "naptan:Indicator": "Opp", "naptan:Landmark": "The Village Hall", "naptan:NaptanCode": "esxdatmt", "naptan:Street": "The Street", "naptan:verified": "no", "public_transport": "platform", "source": "naptan_import"}}, {"type": "node", "id": 474888202, "lat": 51.9191451, "lon": 0.165192, "tags": {"bus": "yes", "highway": "bus_stop", "name": "The Street", "naptan:AtcoCode": "150018002003", "naptan:Bearing": "E", "naptan:BusStopType": "CUS", "naptan:CommonName": "The Street", "naptan:Crossing": "Brixton Lane", "naptan:Indicator": "E-bound", "naptan:Landmark": "The Street", "naptan:NaptanCode": "esxdatmp", "naptan:Street": "The Street", "naptan:verified": "no", "public_transport": "platform", "source": "naptan_import"}}, {"type": "node", "id": 474888203, "lat": 51.9172868, "lon": 0.1664841, "tags": {"bus": "yes", "highway": "bus_stop", "name": "School", "naptan:AtcoCode": "150018002005", "naptan:Bearing": "S", "naptan:BusStopType": "CUS", "naptan:CommonName": "School", "naptan:Indicator": "o/s", "naptan:Landmark": "School", "naptan:NaptanCode": "esxdatpg", "naptan:Street": "Carters Hill", "naptan:verified": "no", "public_transport": "platform", "source": "naptan_import"}}, {"type": "node", "id": 474888204, "lat": 51.9190917, "lon": 0.1651604, "tags": {"bus": "yes", "highway": "bus_stop", "name": "The Street", "naptan:AtcoCode": "1500180020Y3", "naptan:Bearing": "W", "naptan:BusStopType": "CUS", "naptan:CommonName": "The Street", "naptan:Crossing": "Brixton Lane", "naptan:Indicator": "W-bound", "naptan:Landmark": "The Street", "naptan:NaptanCode": "esxgtmwd", "naptan:Street": "The Street", "naptan:verified": "no", "public_transport": "platform", "source": "naptan_import"}}, {"type": "node", "id": 474888205, "lat": 51.9172885, "lon": 0.1663969, "tags": {"bus": "yes", "highway": "bus_stop", "name": "School", "naptan:AtcoCode": "1500180020Y5", "naptan:Bearing": "N", "naptan:BusStopType": "CUS", "naptan:CommonName": "School", "naptan:Indicator": "Opp", "naptan:Landmark": "School", "naptan:NaptanCode": "esxgtjam", "naptan:Street": "Carters Hill", "naptan:verified": "no", "public_transport": "platform", "source": "naptan_import"}}, {"type": "node", "id": 474888206, "lat": 51.9762615, "lon": 0.174702, "tags": {"bus": "yes", "highway": "bus_stop", "name": "Poore Street", "naptan:AtcoCode": "150018003001", "naptan:Bearing": "W", "naptan:BusStopType": "CUS", "naptan:CommonName": "Council Houses", "naptan:Crossing": "Bradley Road", "naptan:Indicator": "W-bound", "naptan:Landmark": "Council Houses", "naptan:NaptanCode": "esxdatgp", "naptan:Street": "B1038 Wicken Road", "naptan:verified": "no", "public_transport": "platform", "source": "naptan_import"}}, {"type": "node", "id": 474888207, "lat": 51.9834595, "lon": 0.1583596, "tags": {"bus": "yes", "highway": "bus_stop", "name": "Wood Hall", "naptan:AtcoCode": "150018003003", "naptan:Bearing": "S", "naptan:BusStopType": "CUS", "naptan:CommonName": "Clatterbury Lane", "naptan:Crossing": "Main Street", "naptan:Indicator": "S-bound", "naptan:Landmark": "Clatterbury Lane", "naptan:NaptanCode": "esxdatja", "naptan:Street": "Clatterbury Lane", "naptan:verified": "no", "public_transport": "platform", "source": "naptan_import"}}, {"type": "node", "id": 474888209, "lat": 51.9723435, "lon": 0.1554596, "tags": {"bus": "yes", "highway": "bus_stop", "name": "Wicken Road", "naptan:AtcoCode": "150018003005", "naptan:Bearing": "S", "naptan:BusStopType": "CUS", "naptan:CommonName": "Wicken Road", "naptan:Crossing": "Wicken Road B1038", "naptan:Indicator": "Adj", "naptan:Landmark": "Wicken Road", "naptan:NaptanCode": "esxdatjg", "naptan:Street": "Clatterbury Lane", "naptan:verified": "no", "public_transport": "platform", "source": "naptan_import"}}, {"type": "node", "id": 474888210, "lat": 51.9702865, "lon": 0.1538839, "tags": {"bus": "yes", "highway": "bus_stop", "name": "Cricket Grounds", "naptan:AtcoCode": "150018003006", "naptan:Bearing": "SW", "naptan:BusStopType": "CUS", "naptan:CommonName": "Clatterbury Lane", "naptan:Indicator": "SW-bound", "naptan:Landmark": "Clatterbury Lane", "naptan:NaptanCode": "esxdatjm", "naptan:Street": "Clatterbury Lane", "naptan:verified": "no", "public_transport": "platform", "source": "naptan_import"}}, {"type": "node", "id": 474888211, "lat": 51.9792152, "lon": 0.1861308, "tags": {"bus": "yes", "highway": "bus_stop", "name": "Wicken Road", "naptan:AtcoCode": "150018003010", "naptan:Bearing": "SW", "naptan:BusStopType": "CUS", "naptan:CommonName": "Wicken Road", "naptan:Crossing": "Wicken Hall Lane", "naptan:Indicator": "SW-bound", "naptan:Landmark": "Wicken Road", "naptan:NaptanCode": "esxdatwa", "naptan:Street": "B1038 Wicken Road", "naptan:verified": "no", "public_transport": "platform", "source": "naptan_import"}}, {"type": "node", "id": 474888212, "lat": 51.9778292, "lon": 0.1818258, "tags": {"bus": "yes", "highway": "bus_stop", "name": "Coach and Horses", "naptan:AtcoCode": "150018003012", "naptan:Bearing": "SW", "naptan:BusStopType": "CUS", "naptan:CommonName": "Coach and Horses", "naptan:Indicator": "Opp", "naptan:Landmark": "Coach and Horses", "naptan:NaptanCode": "esxdawdt", "naptan:Street": "B1038 Wicken Road", "naptan:verified": "no", "public_transport": "platform", "source": "naptan_import"}}, {"type": "node", "id": 474888215, "lat": 51.9771297, "lon": 0.1573284, "tags": {"bus": "yes", "highway": "bus_stop", "name": "Hill Green North", "naptan:AtcoCode": "150018003015", "naptan:Bearing": "S", "naptan:BusStopType": "CUS", "naptan:CommonName": "Hill Green North", "naptan:Indicator": "S-bound", "naptan:Landmark": "Hill Green North", "naptan:NaptanCode": "esxdawdg", "naptan:Street": "Clatterbury Lane", "naptan:verified": "no", "public_transport": "platform", "source": "naptan_import"}}, {"type": "node", "id": 474888216, "lat": 51.9749679, "lon": 0.1565401, "tags": {"bus": "yes", "highway": "bus_stop", "name": "Hill Green", "naptan:AtcoCode": "150018003016", "naptan:Bearing": "SW", "naptan:BusStopType": "CUS", "naptan:CommonName": "Hill Green", "naptan:Indicator": "S-bound", "naptan:Landmark": "Hill Green", "naptan:NaptanCode": "esxdawda", "naptan:Street": "Clatterbury Lane", "naptan:verified": "no", "public_transport": "platform", "source": "naptan_import"}}, {"type": "node", "id": 474888219, "lat": 51.9698866, "lon": 0.1526417, "tags": {"bus": "yes", "highway": "bus_stop", "name": "Cricket Grounds", "naptan:AtcoCode": "150018003017", "naptan:Bearing": "NE", "naptan:BusStopType": "CUS", "naptan:CommonName": "Clatterbury Lane", "naptan:Indicator": "NE-bound", "naptan:Landmark": "Clatterbury Lane", "naptan:NaptanCode": "esxdawaw", "naptan:Street": "Clatterbury Lane", "naptan:verified": "no", "public_transport": "platform", "source": "naptan_import"}}, {"type": "node", "id": 474888220, "lat": 51.9743534, "lon": 0.1275495, "tags": {"bus": "yes", "highway": "bus_stop", "name": "Valance Road", "naptan:AtcoCode": "150018003018", "naptan:Bearing": "NW", "naptan:BusStopType": "CUS", "naptan:CommonName": "Valance Road", "naptan:Crossing": "Valance Road", "naptan:Indicator": "Opp", "naptan:Landmark": "Valance Road", "naptan:NaptanCode": "esxdawdw", "naptan:Street": "Langley Road", "naptan:verified": "no", "public_transport": "platform", "source": "naptan_import"}}, {"type": "node", "id": 474888223, "lat": 51.9792612, "lon": 0.1860748, "tags": {"bus": "yes", "highway": "bus_stop", "name": "Wicken Road", "naptan:AtcoCode": "1500180030Y0", "naptan:Bearing": "NE", "naptan:BusStopType": "CUS", "naptan:CommonName": "Wicken Road", "naptan:Crossing": "Wicken Hall Lane", "naptan:Indicator": "NE-bound", "naptan:Landmark": "Wicken Road", "naptan:NaptanCode": "esxgtgdm", "naptan:Street": "B1038 Wicken Road", "naptan:verified": "no", "public_transport": "platform", "source": "naptan_import"}}, {"type": "node", "id": 474888225, "lat": 51.9834624, "lon": 0.1582007, "tags": {"bus": "yes", "highway": "bus_stop", "name": "Wood Hall", "naptan:AtcoCode": "1500180030Y3", "naptan:Bearing": "N", "naptan:BusStopType": "CUS", "naptan:CommonName": "Clatterbury Lane", "naptan:Crossing": "Main Street", "naptan:Indicator": "N-bound", "naptan:Landmark": "Clatterbury Lane", "naptan:NaptanCode": "esxgtjga", "naptan:Street": "Clatterbury Lane", "naptan:verified": "no", "public_transport": "platform", "source": "naptan_import"}}, {"type": "node", "id": 474888226, "lat": 51.9771403, "lon": 0.1572415, "tags": {"bus": "yes", "highway": "bus_stop", "name": "Hill Green North", "naptan:AtcoCode": "1500180030Y5", "naptan:Bearing": "N", "naptan:BusStopType": "CUS", "naptan:CommonName": "Hill Green North", "naptan:Indicator": "N-bound", "naptan:Landmark": "Hill Green North", "naptan:NaptanCode": "esxgtgwd", "naptan:Street": "Clatterbury Lane", "naptan:verified": "no", "public_transport": "platform", "source": "naptan_import"}}, {"type": "node", "id": 474888229, "lat": 51.9749872, "lon": 0.1564682, "tags": {"bus": "yes", "highway": "bus_stop", "name": "Hill Green", "naptan:AtcoCode": "1500180030Y6", "naptan:Bearing": "NE", "naptan:BusStopType": "CUS", "naptan:CommonName": "Hill Green", "naptan:Indicator": "N-bound", "naptan:Landmark": "Hill Green", "naptan:NaptanCode": "esxgtgpm", "naptan:Street": "Clatterbury Lane", "naptan:verified": "no", "public_transport": "platform", "source": "naptan_import"}}, {"type": "node", "id": 474888230, "lat": 51.9743883, "lon": 0.1276094, "tags": {"bus": "yes", "highway": "bus_stop", "name": "Valance Road", "naptan:AtcoCode": "1500180030Y8", "naptan:Bearing": "SE", "naptan:BusStopType": "CUS", "naptan:CommonName": "Valance Road", "naptan:Crossing": "Valance Road", "naptan:Indicator": "Adj", "naptan:Landmark": "Valance Road", "naptan:NaptanCode": "esxgtdjg", "naptan:Street": "Langley Road", "naptan:verified": "no", "public_transport": "platform", "source": "naptan_import"}}, {"type": "node", "id": 474888232, "lat": 51.9735489, "lon": 0.1556219, "tags": {"bus": "yes", "highway": "bus_stop", "name": "Stickling Green Road", "naptan:AtcoCode": "150018003Y04", "naptan:Bearing": "N", "naptan:BusStopType": "CUS", "naptan:CommonName": "Stickling Green Road", "naptan:Crossing": "Wicken Road B1038", "naptan:Indicator": "Adj", "naptan:Landmark": "Stickling Green Road", "naptan:NaptanCode": "esxgwtma", "naptan:Street": "Clatterbury Lane", "naptan:verified": "no", "public_transport": "platform", "source": "naptan_import"}}, {"type": "node", "id": 474888233, "lat": 51.9723055, "lon": 0.1553188, "tags": {"bus": "yes", "highway": "bus_stop", "name": "Wicken Road", "naptan:AtcoCode": "150018003Y05", "naptan:Bearing": "N", "naptan:BusStopType": "CUS", "naptan:CommonName": "Wicken Road", "naptan:Crossing": "Wicken Road B1038", "naptan:Indicator": "Opp", "naptan:Landmark": "Wicken Road", "naptan:NaptanCode": "esxgwtmd", "naptan:Street": "Clatterbury Lane", "naptan:verified": "no", "public_transport": "platform", "source": "naptan_import"}}, {"type": "node", "id": 474888234, "lat": 51.9896262, "lon": 0.0927336, "tags": {"bus": "yes", "highway": "bus_stop", "name": "Waterwick Hill", "naptan:AtcoCode": "150018004001", "naptan:Bearing": "NW", "naptan:BusStopType": "CUS", "naptan:CommonName": "Lower Green", "naptan:Crossing": "Waterwick Hill", "naptan:Indicator": "NW-bound", "naptan:Landmark": "Lower Green", "naptan:NaptanCode": "esxdatma", "naptan:Street": "Lower Green Road", "naptan:verified": "no", "public_transport": "platform", "source": "naptan_import"}}, {"type": "node", "id": 474888237, "lat": 52.0403652, "lon": 0.1096416, "tags": {"bus": "yes", "highway": "bus_stop", "local_ref": "adj", "name": "Pinkneys", "naptan:AtcoCode": "150018004004", "naptan:Bearing": "SW", "naptan:BusStopType": "CUS", "naptan:CommonName": "Crawley End", "naptan:Crossing": "Pinkneys", "naptan:Indicator": "adj", "naptan:Landmark": "Crawley End", "naptan:NaptanCode": "esxdatwg", "naptan:Street": "Crawley End Road", "naptan:verified": "no", "public_transport": "platform", "source": "naptan_import"}}, {"type": "node", "id": 474888239, "lat": 52.0369941, "lon": 0.1065667, "tags": {"bus": "yes", "fixme": "This is the o/s bus stop; o/s a church: where's the church?", "highway": "bus_stop", "name": "Church", "naptan:AtcoCode": "150018004006", "naptan:Bearing": "S", "naptan:BusStopType": "CUS", "naptan:CommonName": "Church", "naptan:Indicator": "o/s", "naptan:Landmark": "Church", "naptan:NaptanCode": "esxdatwd", "naptan:Street": "Crawley End Road", "naptan:verified": "no", "public_transport": "platform", "source": "naptan_import"}}, {"type": "node", "id": 474888240, "lat": 51.9931969, "lon": 0.1058062, "tags": {"highway": "bus_stop", "name": "Long Ley", "naptan:AtcoCode": "150018004007", "naptan:Bearing": "S", "naptan:BusStopType": "CUS", "naptan:CommonName": "Long Ley", "naptan:Crossing": "Cogmore", "naptan:Indicator": "S-bound", "naptan:Landmark": "Long Ley", "naptan:NaptanCode": "esxdawga", "naptan:Street": "Valance Road", "naptan:verified": "no", "public_transport": "platform", "source": "naptan_import"}}, {"type": "node", "id": 474888242, "lat": 52.0172501, "lon": 0.1204173, "tags": {"bus": "yes", "highway": "bus_stop", "name": "Lower Pond Street", "naptan:AtcoCode": "150018004010", "naptan:Bearing": "NE", "naptan:BusStopType": "CUS", "naptan:CommonName": "Lower Pond Street", "naptan:Crossing": "Bull Lane", "naptan:Indicator": "NE-bound", "naptan:Landmark": "Lower Pond Street", "naptan:NaptanCode": "esxdawgm", "naptan:Street": "Lower Pond Street", "naptan:verified": "no", "public_transport": "platform", "source": "naptan_import"}}, {"type": "node", "id": 474888243, "lat": 51.9896888, "lon": 0.0927511, "tags": {"bus": "yes", "highway": "bus_stop", "name": "Waterwick Hill", "naptan:AtcoCode": "1500180040Y1", "naptan:Bearing": "SE", "naptan:BusStopType": "CUS", "naptan:CommonName": "Lower Green", "naptan:Crossing": "Waterwick Hill", "naptan:Indicator": "SE-bound", "naptan:Landmark": "Lower Green", "naptan:NaptanCode": "esxgtdjw", "naptan:Street": "Lower Green Road", "naptan:verified": "no", "public_transport": "platform", "source": "naptan_import"}}, {"type": "node", "id": 474888245, "lat": 52.0403763, "lon": 0.1095254, "tags": {"bus": "yes", "highway": "bus_stop", "local_ref": "opp", "name": "Pinkneys", "naptan:AtcoCode": "1500180040Y4", "naptan:Bearing": "NE", "naptan:BusStopType": "CUS", "naptan:CommonName": "Crawley End", "naptan:Crossing": "Pinkneys", "naptan:Indicator": "opp", "naptan:Landmark": "Crawley End", "naptan:NaptanCode": "esxgpdgt", "naptan:Street": "Crawley End Road", "naptan:verified": "no", "public_transport": "platform", "source": "naptan_import"}}, {"type": "node", "id": 474888246, "lat": 52.0370136, "lon": 0.10648, "tags": {"bus": "yes", "highway": "bus_stop", "name": "Church", "naptan:AtcoCode": "1500180040Y6", "naptan:Bearing": "N", "naptan:BusStopType": "CUS", "naptan:CommonName": "Church", "naptan:Indicator": "Opp", "naptan:Landmark": "Church", "naptan:NaptanCode": "esxgtgtw", "naptan:Street": "Crawley End Road", "naptan:verified": "no", "public_transport": "platform", "source": "naptan_import"}}, {"type": "node", "id": 474888247, "lat": 51.9931715, "lon": 0.1057176, "tags": {"highway": "bus_stop", "name": "Long Ley", "naptan:AtcoCode": "1500180040Y7", "naptan:Bearing": "N", "naptan:BusStopType": "CUS", "naptan:CommonName": "Long Ley", "naptan:Crossing": "Cogmore", "naptan:Indicator": "N-bound", "naptan:Landmark": "Long Ley", "naptan:NaptanCode": "esxgtjpd", "naptan:Street": "Valance Road", "naptan:verified": "no", "public_transport": "platform", "source": "naptan_import"}}, {"type": "node", "id": 474888250, "lat": 52.0395374, "lon": 0.1086694, "tags": {"bus": "yes", "highway": "bus_stop", "name": "Engleric", "naptan:AtcoCode": "150018005005", "naptan:Bearing": "SW", "naptan:BusStopType": "CUS", "naptan:CommonName": "Engleric", "naptan:Indicator": "Adj", "naptan:Landmark": "Engleric", "naptan:NaptanCode": "esxdawgt", "naptan:Street": "Crawley End Road", "naptan:verified": "no", "public_transport": "platform", "source": "naptan_import"}}, {"type": "node", "id": 474888252, "lat": 52.0395569, "lon": 0.1085828, "tags": {"bus": "yes", "highway": "bus_stop", "name": "Engleric", "naptan:AtcoCode": "1500180050Y5", "naptan:Bearing": "NE", "naptan:BusStopType": "CUS", "naptan:CommonName": "Engleric", "naptan:Indicator": "Opp", "naptan:Landmark": "Engleric", "naptan:NaptanCode": "esxgpdgw", "naptan:Street": "Crawley End Road", "naptan:verified": "no", "public_transport": "platform", "source": "naptan_import"}}, {"type": "node", "id": 474888291, "lat": 51.9543332, "lon": 0.2029818, "tags": {"bus": "yes", "highway": "bus_stop", "name": "Providence Cottage", "naptan:AtcoCode": "150018009021", "naptan:Bearing": "NE", "naptan:CommonName": "Providence Cottage", "naptan:Indicator": "o/s", "naptan:Landmark": "Providence Cottage", "naptan:NaptanCode": "esxdgadp", "naptan:Street": "Cambridge Road", "naptan:verified": "no", "public_transport": "platform", "source": "naptan_import"}}, {"type": "node", "id": 474888295, "lat": 51.9032254, "lon": 0.1944611, "tags": {"bus": "yes", "highway": "bus_stop", "name": "Chapel Hill", "naptan:AtcoCode": "150018010003", "naptan:Bearing": "SE", "naptan:CommonName": "Chapel Hill", "naptan:Crossing": "Spencer Close", "naptan:Indicator": "SE-bound", "naptan:Landmark": "Chapel Hill", "naptan:NaptanCode": "esxdapjw", "naptan:Street": "Chapel Hill", "naptan:verified": "no", "public_transport": "platform", "source": "naptan_import"}}, {"type": "node", "id": 474888296, "lat": 51.9029277, "lon": 0.1998111, "tags": {"bus": "yes", "highway": "bus_stop", "name": "Lower Street", "naptan:AtcoCode": "150018010004", "naptan:Bearing": "NE", "naptan:BusStopType": "CUS", "naptan:CommonName": "Lower Street", "naptan:Crossing": "Grove Hill", "naptan:Indicator": "NE-bound", "naptan:Landmark": "Lower Street", "naptan:NaptanCode": "esxdapma", "naptan:Street": "Lower Street", "naptan:verified": "no", "public_transport": "platform", "source": "naptan_import"}}, {"type": "node", "id": 474888297, "lat": 51.8989309, "lon": 0.2014509, "tags": {"bus": "yes", "highway": "bus_stop", "name": "St Mary's Drive", "naptan:AtcoCode": "150018010006", "naptan:Bearing": "W", "naptan:BusStopType": "CUS", "naptan:CommonName": "Maitland Road", "naptan:Crossing": "Church Road", "naptan:Indicator": "W-bound", "naptan:Landmark": "Maitland Road", "naptan:NaptanCode": "esxdapmg", "naptan:Street": "Maitland Road", "naptan:verified": "no", "public_transport": "platform", "source": "naptan_import"}}, {"type": "node", "id": 474888304, "lat": 51.8936771, "lon": 0.1863806, "tags": {"bus": "yes", "highway": "bus_stop", "name": "Stansted Road", "naptan:AtcoCode": "150018011003", "naptan:Bearing": "S", "naptan:CommonName": "Stansted Road", "naptan:Crossing": "Foresthall Road", "naptan:Indicator": "S-bound", "naptan:Landmark": "Stansted Road", "naptan:NaptanCode": "esxdapwd", "naptan:Street": "Stansted Road", "naptan:verified": "no", "public_transport": "platform", "source": "naptan_import"}}, {"type": "node", "id": 474888305, "lat": 51.8935548, "lon": 0.1861209, "tags": {"bus": "yes", "highway": "bus_stop", "name": "Stansted Road", "naptan:AtcoCode": "150018011004", "naptan:Bearing": "N", "naptan:CommonName": "Stansted Road", "naptan:Crossing": "Foresthall Road", "naptan:Indicator": "N-bound", "naptan:Landmark": "Stansted Road", "naptan:NaptanCode": "esxdapwg", "naptan:Street": "Stansted Road", "naptan:verified": "no", "public_transport": "platform", "source": "naptan_import"}}, {"type": "node", "id": 474888306, "lat": 51.8982849, "lon": 0.19031, "tags": {"bus": "yes", "highway": "bus_stop", "name": "Pines Hill", "naptan:AtcoCode": "150018011005", "naptan:Bearing": "SW", "naptan:CommonName": "Pines Hill", "naptan:Crossing": "Silver Street", "naptan:Indicator": "SW-bound", "naptan:Landmark": "Pines Hill", "naptan:NaptanCode": "esxdapwj", "naptan:Street": "Pines Hill", "naptan:verified": "no", "public_transport": "platform", "source": "naptan_import"}}, {"type": "node", "id": 474888307, "lat": 51.9011595, "lon": 0.1923326, "tags": {"highway": "bus_stop", "name": "Silver Street", "naptan:AtcoCode": "150018011006", "naptan:Bearing": "S", "naptan:CommonName": "Silver Street", "naptan:Crossing": "Blythwood Gardens", "naptan:Indicator": "S-bound", "naptan:Landmark": "Silver Street", "naptan:NaptanCode": "esxdgamt", "naptan:Street": "Silver Street", "naptan:verified": "no", "public_transport": "platform", "source": "naptan_import"}}, {"type": "node", "id": 474888308, "lat": 51.9013184, "lon": 0.1921953, "tags": {"highway": "bus_stop", "name": "Silver Street", "naptan:AtcoCode": "150018011007", "naptan:Bearing": "N", "naptan:BusStopType": "CUS", "naptan:CommonName": "Silver Street", "naptan:Crossing": "Blythwood Gardens", "naptan:Indicator": "N-bound", "naptan:Landmark": "Silver Street", "naptan:NaptanCode": "esxdapwm", "naptan:Street": "Silver Street", "naptan:verified": "no", "public_transport": "platform", "source": "naptan_import"}}, {"type": "node", "id": 474888309, "lat": 51.9078028, "lon": 0.1973449, "tags": {"bus": "yes", "highway": "bus_stop", "name": "The Three Colts", "naptan:AtcoCode": "150018011011", "naptan:Bearing": "NE", "naptan:CommonName": "The Three Colts", "naptan:Indicator": "o/s", "naptan:Landmark": "The Three Colts", "naptan:NaptanCode": "esxdatag", "naptan:Street": "Cambridge Road", "naptan:verified": "no", "public_transport": "platform", "source": "naptan_import"}}, {"type": "node", "id": 474888310, "lat": 51.9079501, "lon": 0.1976429, "tags": {"bus": "yes", "highway": "bus_stop", "name": "The Three Colts", "naptan:AtcoCode": "150018011012", "naptan:Bearing": "SW", "naptan:CommonName": "The Three Colts", "naptan:Indicator": "Opp", "naptan:Landmark": "The Three Colts", "naptan:NaptanCode": "esxdataj", "naptan:Street": "Cambridge Road", "naptan:verified": "no", "public_transport": "platform", "source": "naptan_import"}}, {"type": "node", "id": 474888312, "lat": 51.9237607, "lon": 0.2018914, "tags": {"bus": "yes", "highway": "bus_stop", "name": "Village Hall", "naptan:AtcoCode": "150018011014", "naptan:Bearing": "S", "naptan:CommonName": "Village Hall", "naptan:Indicator": "o/s", "naptan:Landmark": "Village Hall", "naptan:NaptanCode": "esxdatap", "naptan:Street": "Cambridge Road", "naptan:verified": "no", "public_transport": "platform", "source": "naptan_import"}}, {"type": "node", "id": 474888313, "lat": 51.9283969, "lon": 0.2011438, "tags": {"bus": "yes", "highway": "bus_stop", "name": "Smith's Cottages", "naptan:AtcoCode": "150018011016", "naptan:Bearing": "S", "naptan:CommonName": "Smith's Cottages", "naptan:Indicator": "o/s", "naptan:Landmark": "Smith's Cottages", "naptan:NaptanCode": "esxdataw", "naptan:Street": "Cambridge Road", "naptan:verified": "no", "public_transport": "platform", "source": "naptan_import"}}, {"type": "node", "id": 474888314, "lat": 51.9285722, "lon": 0.2009051, "tags": {"bus": "yes", "highway": "bus_stop", "name": "Smith's Cottages", "naptan:AtcoCode": "150018011017", "naptan:Bearing": "N", "naptan:CommonName": "Smith's Cottages", "naptan:Indicator": "Opp", "naptan:Landmark": "Smith's Cottages", "naptan:NaptanCode": "esxdatda", "naptan:Street": "Cambridge Road", "naptan:verified": "no", "public_transport": "platform", "source": "naptan_import"}}, {"type": "node", "id": 474888315, "lat": 51.9316514, "lon": 0.1992666, "tags": {"bus": "yes", "highway": "bus_stop", "name": "Vicarage Lane", "naptan:AtcoCode": "150018011018", "naptan:Bearing": "N", "naptan:CommonName": "Vicarage Lane", "naptan:Crossing": "Vicarage Lane", "naptan:Indicator": "Adj", "naptan:Landmark": "Vicarage Lane", "naptan:NaptanCode": "esxdatdg", "naptan:Street": "London Road", "naptan:verified": "no", "public_transport": "platform", "source": "naptan_import"}}, {"type": "node", "id": 474888316, "lat": 51.9319653, "lon": 0.199311, "tags": {"bus": "yes", "highway": "bus_stop", "name": "Vicarage Lane", "naptan:AtcoCode": "150018011019", "naptan:Bearing": "S", "naptan:CommonName": "Vicarage Lane", "naptan:Crossing": "Vicarage Lane", "naptan:Indicator": "Opp", "naptan:Landmark": "Vicarage Lane", "naptan:NaptanCode": "esxdatdj", "naptan:Street": "London Road", "naptan:verified": "no", "public_transport": "platform", "source": "naptan_import"}}, {"type": "node", "id": 474888317, "lat": 51.941326, "lon": 0.199347, "tags": {"bus": "yes", "highway": "bus_stop", "name": "Belchams Lane", "naptan:AtcoCode": "150018011021", "naptan:Bearing": "S", "naptan:CommonName": "Belchams Lane", "naptan:Crossing": "Belchams Lane", "naptan:Indicator": "Adj", "naptan:Landmark": "Belchams Lane", "naptan:NaptanCode": "esxdatgd", "naptan:Street": "London Road", "naptan:verified": "no", "public_transport": "platform", "source": "naptan_import"}}, {"type": "node", "id": 474888318, "lat": 51.9140997, "lon": 0.1997447, "tags": {"bus": "yes", "highway": "bus_stop", "name": "Alsa Street", "naptan:AtcoCode": "1500180110Y3", "naptan:Bearing": "N", "naptan:BusStopType": "CUS", "naptan:CommonName": "Alsa Street", "naptan:Crossing": "Alsa Street", "naptan:Indicator": "Opp", "naptan:Landmark": "Alsa Street", "naptan:NaptanCode": "esxgptmp", "naptan:Street": "Cambridge Road", "naptan:verified": "yes", "public_transport": "platform", "source": "Maxar-Premium"}}, {"type": "node", "id": 474888321, "lat": 51.9413186, "lon": 0.1992593, "tags": {"bus": "yes", "highway": "bus_stop", "name": "Belchams Lane", "naptan:AtcoCode": "150018011Y21", "naptan:Bearing": "N", "naptan:BusStopType": "CUS", "naptan:CommonName": "Belchams Lane", "naptan:Crossing": "Belchams Lane", "naptan:Indicator": "Opp", "naptan:Landmark": "Belchams Lane", "naptan:NaptanCode": "esxgptpa", "naptan:Street": "London Road", "naptan:verified": "no", "public_transport": "platform", "source": "naptan_import"}}, {"type": "node", "id": 474888322, "lat": 51.9149095, "lon": 0.2287673, "tags": {"bus": "yes", "highway": "bus_stop", "name": "Station Road", "naptan:AtcoCode": "150018012002", "naptan:Bearing": "N", "naptan:CommonName": "Station Road", "naptan:Crossing": "Stansted Road", "naptan:Indicator": "N-bound", "naptan:Landmark": "Station Road", "naptan:NaptanCode": "esxdapgw", "naptan:Street": "Station Road", "naptan:verified": "no", "public_transport": "platform", "source": "naptan_import"}}, {"type": "node", "id": 474888323, "lat": 51.9172517, "lon": 0.2285231, "tags": {"bus": "yes", "highway": "bus_stop", "name": "Ridley Gardens", "naptan:AtcoCode": "150018012003", "naptan:Bearing": "S", "naptan:CommonName": "Ridley Gardens", "naptan:Crossing": "Ridley Gardens", "naptan:Indicator": "Adj", "naptan:Landmark": "Ridley Gardens", "naptan:NaptanCode": "esxdapja", "naptan:Street": "Station Road", "naptan:verified": "no", "public_transport": "platform", "source": "naptan_import"}}, {"type": "node", "id": 474888324, "lat": 51.9198872, "lon": 0.2280395, "tags": {"bus": "yes", "highway": "bus_stop", "name": "Elsenham Railway Station", "naptan:AtcoCode": "150018012004", "naptan:Bearing": "N", "naptan:BusStopType": "CUS", "naptan:CommonName": "Elsenham Railway Station", "naptan:Indicator": "o/s", "naptan:Landmark": "Elsenham Railway Station", "naptan:NaptanCode": "esxdapjd", "naptan:Street": "Station Road", "naptan:verified": "no", "public_transport": "platform", "source": "naptan_import"}}, {"type": "node", "id": 474888331, "lat": 51.9200413, "lon": 0.2234444, "tags": {"bus": "yes", "highway": "bus_stop", "name": "Jenkins Drive", "naptan:AtcoCode": "150018012012", "naptan:Bearing": "E", "naptan:BusStopType": "CUS", "naptan:CommonName": "New Road", "naptan:Crossing": "Jenkins Drive", "naptan:Indicator": "E-bound", "naptan:Landmark": "New Road", "naptan:NaptanCode": "esxdawad", "naptan:Street": "New Road", "naptan:verified": "no", "public_transport": "platform", "source": "naptan_import"}}, {"type": "node", "id": 474888343, "lat": 51.9199883, "lon": 0.2234444, "tags": {"bus": "yes", "highway": "bus_stop", "name": "Jenkins Drive", "naptan:AtcoCode": "150018012Y12", "naptan:Bearing": "W", "naptan:BusStopType": "CUS", "naptan:CommonName": "New Road", "naptan:Crossing": "Jenkins Drive", "naptan:Indicator": "W-bound", "naptan:Landmark": "New Road", "naptan:NaptanCode": "esxgtmwt", "naptan:Street": "New Road", "naptan:verified": "no", "public_transport": "platform", "source": "naptan_import"}}, {"type": "node", "id": 474893024, "lat": 51.9083856, "lon": 0.1904383, "tags": {"bus": "yes", "highway": "bus_stop", "name": "Long Croft", "naptan:AtcoCode": "1500BNTFLDGN", "naptan:Bearing": "S", "naptan:CommonName": "Long Croft", "naptan:Crossing": "Bentfield Road", "naptan:Indicator": "Adj", "naptan:Landmark": "Long Croft", "naptan:NaptanCode": "esxdapwp", "naptan:Street": "Pennington Lane", "naptan:verified": "no", "public_transport": "platform", "source": "naptan_import"}}, {"type": "node", "id": 474893134, "lat": 52.0344174, "lon": 0.1055062, "tags": {"bus": "yes", "highway": "bus_stop", "name": "School", "naptan:AtcoCode": "1500CHRISHL2", "naptan:Bearing": "NW", "naptan:BusStopType": "CUS", "naptan:CommonName": "School", "naptan:Indicator": "o/s", "naptan:Landmark": "School", "naptan:NaptanCode": "esxdawgp", "naptan:Street": "Palmers Lane", "naptan:verified": "no", "public_transport": "platform", "source": "naptan_import"}}, {"type": "node", "id": 474893226, "lat": 51.9175907, "lon": 0.2282166, "tags": {"bus": "yes", "highway": "bus_stop", "name": "Ridley Gardens", "naptan:AtcoCode": "1500DGK004", "naptan:Bearing": "N", "naptan:CommonName": "Ridley Gardens", "naptan:Crossing": "Ridley Gardens", "naptan:Indicator": "Opp", "naptan:Landmark": "Ridley Gardens", "naptan:NaptanCode": "esxgmdja", "naptan:Street": "Station Road", "naptan:verified": "no", "public_transport": "platform", "source": "naptan_import"}}, {"type": "node", "id": 474893488, "lat": 52.0342924, "lon": 0.1291372, "tags": {"bench": "no", "bin": "no", "bus": "yes", "fixme": "These bus stops may need distancing", "highway": "bus_stop", "lit": "no", "name": "Kings Lane", "naptan:AtcoCode": "1500IM1000", "naptan:Bearing": "S", "naptan:BusStopType": "CUS", "naptan:CommonName": "Kings Lane", "naptan:Crossing": "Kings Lane", "naptan:Indicator": "Adj", "naptan:Landmark": "Kings Lane", "naptan:NaptanCode": "esxadgwj", "naptan:Street": "Essex Hill", "naptan:verified": "no", "public_transport": "platform", "shelter": "no", "source": "naptan_import", "tactile_paving": "no"}}, {"type": "node", "id": 474893489, "lat": 52.034298, "lon": 0.1289946, "tags": {"bench": "no", "bin": "no", "bus": "yes", "fixme": "These bus stops may need distancing", "highway": "bus_stop", "lit": "no", "name": "Kings Lane", "naptan:AtcoCode": "1500IM1000AA", "naptan:Bearing": "N", "naptan:BusStopType": "CUS", "naptan:CommonName": "Kings Lane", "naptan:Crossing": "Kings Lane", "naptan:Indicator": "Opp", "naptan:Landmark": "Kings Lane", "naptan:NaptanCode": "esxgtgwt", "naptan:Street": "Essex Hill", "naptan:verified": "no", "public_transport": "platform", "shelter": "no", "source": "naptan_import", "tactile_paving": "no"}}, {"type": "node", "id": 474893492, "lat": 51.9199379, "lon": 0.1641395, "tags": {"bus": "yes", "highway": "bus_stop", "name": "Manuden House", "naptan:AtcoCode": "1500IM1002", "naptan:Bearing": "SE", "naptan:BusStopType": "CUS", "naptan:CommonName": "Manuden House", "naptan:Indicator": "o/s", "naptan:Landmark": "Manuden House", "naptan:NaptanCode": "esxadgwp", "naptan:Street": "The Street", "naptan:verified": "no", "public_transport": "platform", "source": "naptan_import"}}, {"type": "node", "id": 474893493, "lat": 51.9199765, "lon": 0.1639959, "tags": {"bus": "yes", "highway": "bus_stop", "name": "Manuden House", "naptan:AtcoCode": "1500IM1002AA", "naptan:Bearing": "NW", "naptan:BusStopType": "CUS", "naptan:CommonName": "Manuden House", "naptan:Indicator": "Opp", "naptan:Landmark": "Manuden House", "naptan:NaptanCode": "esxgtjda", "naptan:Street": "The Street", "naptan:verified": "no", "public_transport": "platform", "source": "naptan_import"}}, {"type": "node", "id": 474893494, "lat": 51.9208379, "lon": 0.1631211, "tags": {"bus": "yes", "highway": "bus_stop", "name": "The Village Hall", "naptan:AtcoCode": "1500IM1003", "naptan:Bearing": "NW", "naptan:BusStopType": "CUS", "naptan:CommonName": "The Village Hall", "naptan:Crossing": "Mailers Lane", "naptan:Indicator": "o/s", "naptan:Landmark": "The Village Hall", "naptan:NaptanCode": "esxadgwt", "naptan:Street": "The Street", "naptan:verified": "no", "public_transport": "platform", "source": "naptan_import"}}, {"type": "node", "id": 474893495, "lat": 51.9475336, "lon": 0.1342395, "tags": {"bus": "yes", "highway": "bus_stop", "name": "Bonneting Lane", "naptan:AtcoCode": "1500IM1004", "naptan:Bearing": "W", "naptan:BusStopType": "CUS", "naptan:CommonName": "Bonneting Lane", "naptan:Crossing": "New Town Lane", "naptan:Indicator": "Opp", "naptan:Landmark": "Bonneting Lane", "naptan:NaptanCode": "esxdatpw", "naptan:Street": "Pelham Road", "naptan:verified": "no", "public_transport": "platform", "source": "naptan_import"}}, {"type": "node", "id": 474893499, "lat": 51.9660624, "lon": 0.1459364, "tags": {"bus": "yes", "highway": "bus_stop", "name": "The Fox & Hounds", "naptan:AtcoCode": "1500IM1011", "naptan:Bearing": "W", "naptan:BusStopType": "CUS", "naptan:CommonName": "The Fox & Hounds", "naptan:Indicator": "o/s", "naptan:Landmark": "The Fox & Hounds", "naptan:NaptanCode": "esxdatjp", "naptan:Street": "High Street", "naptan:verified": "no", "public_transport": "platform", "source": "naptan_import"}}, {"type": "node", "id": 474893500, "lat": 51.9661165, "lon": 0.1458663, "tags": {"bus": "yes", "highway": "bus_stop", "name": "The Fox & Hounds", "naptan:AtcoCode": "1500IM1011AA", "naptan:Bearing": "E", "naptan:BusStopType": "CUS", "naptan:CommonName": "The Fox & Hounds", "naptan:Indicator": "Opp", "naptan:Landmark": "The Fox & Hounds", "naptan:NaptanCode": "esxgpgma", "naptan:Street": "High Street", "naptan:verified": "no", "public_transport": "platform", "source": "naptan_import"}}, {"type": "node", "id": 474893501, "lat": 51.9189726, "lon": 0.1672343, "tags": {"bus": "yes", "highway": "bus_stop", "name": "The Yew Tree", "naptan:AtcoCode": "1500IM1014", "naptan:Bearing": "SE", "naptan:BusStopType": "CUS", "naptan:CommonName": "The Yew Tree", "naptan:Indicator": "o/s", "naptan:Landmark": "The Yew Tree", "naptan:NaptanCode": "esxdatmw", "naptan:Street": "The Street", "naptan:verified": "no", "public_transport": "platform", "source": "naptan_import"}}, {"type": "node", "id": 474893502, "lat": 51.9189293, "lon": 0.1671449, "tags": {"bus": "yes", "highway": "bus_stop", "name": "The Yew Tree", "naptan:AtcoCode": "1500IM1014AA", "naptan:Bearing": "NW", "naptan:BusStopType": "CUS", "naptan:CommonName": "The Yew Tree", "naptan:Indicator": "Opp", "naptan:Landmark": "The Yew Tree", "naptan:NaptanCode": "esxgpjda", "naptan:Street": "The Street", "naptan:verified": "no", "public_transport": "platform", "source": "naptan_import"}}, {"type": "node", "id": 474893550, "lat": 51.9491827, "lon": 0.1999789, "tags": {"bus": "yes", "highway": "bus_stop", "name": "The Potteries", "naptan:AtcoCode": "1500IM1065", "naptan:Bearing": "S", "naptan:CommonName": "The Potteries", "naptan:Indicator": "Opp", "naptan:Landmark": "The Potteries", "naptan:NaptanCode": "esxdgaga", "naptan:Street": "London Road", "naptan:verified": "no", "public_transport": "platform", "source": "naptan_import"}}, {"type": "node", "id": 474893551, "lat": 51.9495968, "lon": 0.1999555, "tags": {"bus": "yes", "highway": "bus_stop", "name": "The Potteries", "naptan:AtcoCode": "1500IM1065B", "naptan:Bearing": "N", "naptan:CommonName": "The Potteries", "naptan:Indicator": "o/s", "naptan:Landmark": "The Potteries", "naptan:NaptanCode": "esxdgadw", "naptan:Street": "London Road", "naptan:verified": "no", "public_transport": "platform", "source": "naptan_import"}}, {"type": "node", "id": 474893552, "lat": 51.9372865, "lon": 0.1984801, "tags": {"bus": "yes", "highway": "bus_stop", "name": "The Chequers", "naptan:AtcoCode": "1500IM1066", "naptan:Bearing": "S", "naptan:CommonName": "The Chequers", "naptan:Indicator": "o/s", "naptan:Landmark": "The Chequers", "naptan:NaptanCode": "esxdgamw", "naptan:Street": "London Road", "naptan:verified": "no", "public_transport": "platform", "source": "naptan_import"}}, {"type": "node", "id": 474893553, "lat": 51.9373007, "lon": 0.1983046, "tags": {"bus": "yes", "highway": "bus_stop", "name": "The Chequers", "naptan:AtcoCode": "1500IM1066AA", "naptan:Bearing": "N", "naptan:BusStopType": "CUS", "naptan:CommonName": "The Chequers", "naptan:Indicator": "Opp", "naptan:Landmark": "The Chequers", "naptan:NaptanCode": "esxgptmj", "naptan:Street": "London Road", "naptan:verified": "no", "public_transport": "platform", "source": "naptan_import"}}, {"type": "node", "id": 474893554, "lat": 51.9049839, "lon": 0.1941979, "tags": {"bus": "yes", "highway": "bus_stop", "name": "Clarence Road", "naptan:AtcoCode": "1500IM1067", "naptan:Bearing": "NE", "naptan:CommonName": "The Feathers", "naptan:Indicator": "Opp", "naptan:Landmark": "The Feathers", "naptan:NaptanCode": "esxdatad", "naptan:Street": "Cambridge Road", "naptan:verified": "no", "public_transport": "platform", "source": "naptan_import"}}, {"type": "node", "id": 474893618, "lat": 51.9657097, "lon": 0.1430226, "tags": {"bus": "yes", "highway": "bus_stop", "name": "Brent Pelham Corner", "naptan:AtcoCode": "1500IM1144", "naptan:Bearing": "NW", "naptan:CommonName": "Brent Pelham Corner", "naptan:Crossing": "High Street", "naptan:Indicator": "NW-bound", "naptan:Landmark": "Brent Pelham Corner", "naptan:NaptanCode": "esxdatjt", "naptan:Street": "Middle Street", "naptan:verified": "no", "public_transport": "platform", "source": "naptan_import"}}, {"type": "node", "id": 474893619, "lat": 51.9657533, "lon": 0.1430975, "tags": {"bus": "yes", "highway": "bus_stop", "name": "Brent Pelham Corner", "naptan:AtcoCode": "1500IM1144AA", "naptan:Bearing": "SE", "naptan:BusStopType": "CUS", "naptan:CommonName": "Brent Pelham Corner", "naptan:Crossing": "High Street", "naptan:Indicator": "SE-bound", "naptan:Landmark": "Brent Pelham Corner", "naptan:NaptanCode": "esxgpgdg", "naptan:Street": "Middle Street", "naptan:verified": "no", "public_transport": "platform", "source": "naptan_import"}}, {"type": "node", "id": 474894181, "lat": 51.9958517, "lon": 0.1041827, "tags": {"highway": "bus_stop", "name": "Upper Green", "naptan:AtcoCode": "1500IM1777", "naptan:Bearing": "SE", "naptan:BusStopType": "CUS", "naptan:CommonName": "Upper Green", "naptan:Crossing": "Cogmore", "naptan:Indicator": "SE-bound", "naptan:Landmark": "Upper Green", "naptan:NaptanCode": "esxdatmd", "naptan:Street": "Bull Lane", "naptan:verified": "no", "public_transport": "platform", "source": "naptan_import"}}, {"type": "node", "id": 474894183, "lat": 51.995789, "lon": 0.1041652, "tags": {"bus": "yes", "highway": "bus_stop", "name": "Upper Green", "naptan:AtcoCode": "1500IM1777AA", "naptan:Bearing": "NW", "naptan:BusStopType": "CUS", "naptan:CommonName": "Upper Green", "naptan:Crossing": "Cogmore", "naptan:Indicator": "NW-bound", "naptan:Landmark": "Upper Green", "naptan:NaptanCode": "esxgpjdt", "naptan:Street": "Bull Lane", "naptan:verified": "no", "public_transport": "platform", "source": "naptan_import"}}, {"type": "node", "id": 474894184, "lat": 51.9727322, "lon": 0.1558649, "tags": {"bus": "yes", "highway": "bus_stop", "name": "The Cricketers", "naptan:AtcoCode": "1500IM1778", "naptan:Bearing": "E", "naptan:BusStopType": "CUS", "naptan:CommonName": "The Cricketers", "naptan:Crossing": "Clatterbury Lane", "naptan:Indicator": "o/s", "naptan:Landmark": "The Cricketers", "naptan:NaptanCode": "esxadmgd", "naptan:Street": "Wicken Road", "naptan:verified": "no", "public_transport": "platform", "source": "naptan_import"}}, {"type": "node", "id": 474894185, "lat": 51.9726767, "lon": 0.1559496, "tags": {"bus": "yes", "highway": "bus_stop", "name": "The Cricketers", "naptan:AtcoCode": "1500IM1778A", "naptan:Bearing": "W", "naptan:BusStopType": "CUS", "naptan:CommonName": "The Cricketers", "naptan:Crossing": "Clatterbury Lane", "naptan:Indicator": "Opp", "naptan:Landmark": "The Cricketers", "naptan:NaptanCode": "esxgpdpm", "naptan:Street": "Wicken Road", "naptan:verified": "no", "public_transport": "platform", "source": "naptan_import"}}, {"type": "node", "id": 474894188, "lat": 51.9874363, "lon": 0.1606931, "tags": {"bus": "yes", "highway": "bus_stop", "name": "The Gap", "naptan:AtcoCode": "1500IM1780", "naptan:Bearing": "W", "naptan:BusStopType": "CUS", "naptan:CommonName": "Poore Street", "naptan:Crossing": "Clatterbury Lane", "naptan:Indicator": "W-bound", "naptan:Landmark": "Poore Street", "naptan:NaptanCode": "esxadmgj", "naptan:Street": "Poore Street", "naptan:verified": "no", "public_transport": "platform", "source": "naptan_import"}}, {"type": "node", "id": 474894190, "lat": 51.98749, "lon": 0.1607102, "tags": {"bus": "yes", "highway": "bus_stop", "name": "The Gap", "naptan:AtcoCode": "1500IM1780AA", "naptan:Bearing": "E", "naptan:BusStopType": "CUS", "naptan:CommonName": "Poore Street", "naptan:Crossing": "Clatterbury Lane", "naptan:Indicator": "E-bound", "naptan:Landmark": "Poore Street", "naptan:NaptanCode": "esxgtdmd", "naptan:Street": "Poore Street", "naptan:verified": "no", "public_transport": "platform", "source": "naptan_import"}}, {"type": "node", "id": 474894496, "lat": 51.9774589, "lon": 0.1810157, "tags": {"bus": "yes", "highway": "bus_stop", "name": "Coach and Horses", "naptan:AtcoCode": "1500IM2096", "naptan:Bearing": "NE", "naptan:BusStopType": "CUS", "naptan:CommonName": "Coach and Horses", "naptan:Indicator": "o/s", "naptan:Landmark": "Coach and Horses", "naptan:NaptanCode": "esxadmwm", "naptan:Street": "B1038 Wicken Road", "naptan:verified": "no", "public_transport": "platform", "source": "naptan_import"}}, {"type": "node", "id": 474894497, "lat": 51.9745377, "lon": 0.1436623, "tags": {"bus": "yes", "highway": "bus_stop", "name": "Stickling Green", "naptan:AtcoCode": "1500IM2097", "naptan:Bearing": "E", "naptan:BusStopType": "CUS", "naptan:CommonName": "Stickling Green", "naptan:Indicator": "E-bound", "naptan:Landmark": "Stickling Green", "naptan:NaptanCode": "esxadmwp", "naptan:Street": "Stickling Green", "naptan:verified": "no", "public_transport": "platform", "source": "naptan_import"}}, {"type": "node", "id": 474894498, "lat": 51.9744841, "lon": 0.1436452, "tags": {"bus": "yes", "highway": "bus_stop", "name": "Stickling Green", "naptan:AtcoCode": "1500IM2097AA", "naptan:Bearing": "W", "naptan:BusStopType": "CUS", "naptan:CommonName": "Stickling Green", "naptan:Indicator": "W-bound", "naptan:Landmark": "Stickling Green", "naptan:NaptanCode": "esxgtmpt", "naptan:Street": "Stickling Green", "naptan:verified": "no", "public_transport": "platform", "source": "naptan_import"}}, {"type": "node", "id": 474894499, "lat": 51.9904706, "lon": 0.091768, "tags": {"bus": "yes", "highway": "bus_stop", "name": "The Bull", "naptan:AtcoCode": "1500IM2099", "naptan:Bearing": "SE", "naptan:BusStopType": "CUS", "naptan:CommonName": "The Bull", "naptan:Indicator": "o/s", "naptan:Landmark": "The Bull", "naptan:NaptanCode": "esxadmwt", "naptan:Street": "Park Lane", "naptan:verified": "no", "public_transport": "platform", "source": "naptan_import"}}, {"type": "node", "id": 474894500, "lat": 51.9904278, "lon": 0.0916495, "tags": {"bus": "yes", "highway": "bus_stop", "name": "The Bull", "naptan:AtcoCode": "1500IM2099AA", "naptan:Bearing": "NW", "naptan:BusStopType": "CUS", "naptan:CommonName": "The Bull", "naptan:Indicator": "Opp", "naptan:Landmark": "The Bull", "naptan:NaptanCode": "esxgtmam", "naptan:Street": "Park Lane", "naptan:verified": "no", "public_transport": "platform", "source": "naptan_import"}},