{"version": 0.6, "generator": "Overpass API 0.7.62.5 1bd436f1", "osm3s": {"timestamp_osm_base": "2025-04-09T15:08:45Z", "copyright": "The data included in this document is from www.openstreetmap.org. The data is made available under ODbL."}, "elements": [{"type": "node", "id": 20473093, "lat": 52.978108, "lon": -0.0313195, "tags": {"name": "Boston", "name:lt": "Bostonas", "naptan:AtcoCode": "9100BOSTON", "network": "National Rail", "network:website": "https://www.nationalrail.co.uk/stations/bsn/", "network:wikidata": "Q26334", "public_transport": "station", "railway": "station", "ref:crs": "BSN", "source": "NPE tracing", "wheelchair": "yes", "wikidata": "Q1812453", "wikipedia": "en:Boston railway station"}}, {"type": "node", "id": 27409154, "lat": 52.9772075, "lon": -0.2938084, "tags": {"name": "Heckington", "naptan:AtcoCode": "9100HCKNGTN", "network": "National Rail", "network:website": "https://www.nationalrail.co.uk/stations/hec/", "network:wikidata": "Q26334", "operator": "East Midlands Railway", "public_transport": "station", "railway": "station", "ref:crs": "HEC", "source": "Bing", "wikidata": "Q1998480", "wikipedia": "en:Heckington railway station"}}, {"type": "node", "id": 27409523, "lat": 52.9955161, "lon": -0.4101594, "tags": {"name": "Sleaford", "naptan:AtcoCode": "9100SLEFD", "network": "National Rail", "network:website": "https://www.nationalrail.co.uk/stations/slr/", "network:wikidata": "Q26334", "operator": "East Midlands Railway", "public_transport": "station", "railway": "station", "ref:crs": "SLR", "train": "yes", "wikidata": "Q2661734", "wikipedia": "en:Sleaford railway station"}}, {"type": "node", "id": 27409531, "lat": 52.9852782, "lon": -0.4559695, "tags": {"name": "Rauceby", "naptan:AtcoCode": "9100RAUCEBY", "network": "National Rail", "network:website": "https://www.nationalrail.co.uk/stations/rau/", "network:wikidata": "Q26334", "railway": "station", "ref:crs": "RAU", "source": "Bing", "wikidata": "Q2146289", "wikipedia": "en:Rauceby railway station"}}, {"type": "node", "id": 111777233, "lat": 53.0413872, "lon": -0.3804741, "tags": {"name": "Ruskington", "naptan:AtcoCode": "9100RSKNGTN", "network": "National Rail", "network:website": "https://www.nationalrail.co.uk/stations/rkt/", "network:wikidata": "Q26334", "railway": "station", "ref:crs": "RKT", "source": "Bing", "wikidata": "Q7380966", "wikipedia": "en:Ruskington railway station"}}, {"type": "node", "id": 152410624, "lat": 53.1389295, "lon": -0.3910625, "tags": {"name": "Metheringham", "naptan:AtcoCode": "9100MTHRNGH", "network": "National Rail", "network:website": "https://www.nationalrail.co.uk/stations/mgm/", "network:wikidata": "Q26334", "old_name": "Blankney & Metheringham", "public_transport": "station", "railway": "station", "ref:crs": "MGM", "source": "Bing", "wikidata": "Q2228454", "wikipedia": "en:Metheringham railway station"}}, {"type": "node", "id": 154539634, "lat": 52.975325, "lon": -0.1098555, "tags": {"name": "Hubberts Bridge", "naptan:AtcoCode": "9100HBRTBDG", "network": "National Rail", "network:website": "https://www.nationalrail.co.uk/stations/hbb/", "network:wikidata": "Q26334", "railway": "station", "ref:crs": "HBB", "source": "NPE", "wikidata": "Q2354815", "wikipedia": "en:Hubberts Bridge railway station"}}, {"type": "node", "id": 324738247, "lat": 52.9798705, "lon": -0.0179402, "tags": {"bus": "yes", "highway": "bus_stop", "name": "Foster Street", "naptan:AtcoCode": "270000009295", "naptan:NaptanCode": "linjamjd", "public_transport": "platform"}}, {"type": "node", "id": 502319647, "lat": 53.0310983, "lon": 0.1025657, "tags": {"highway": "bus_stop", "name": "Summerfields", "naptan:AtcoCode": "270000008235", "naptan:Bearing": "W", "naptan:CommonName": "Summerfields", "naptan:Indicator": "adj", "naptan:Landmark": "Summerfields", "naptan:NaptanCode": "lingpgtm", "naptan:Street": "Old Main Road", "naptan:verified": "no", "source": "naptan_import"}}, {"type": "node", "id": 502319651, "lat": 53.0311652, "lon": 0.1028523, "tags": {"highway": "bus_stop", "name": "Summerfields", "naptan:AtcoCode": "270000008236", "naptan:Bearing": "E", "naptan:CommonName": "Summerfields", "naptan:Indicator": "opp", "naptan:Landmark": "Summerfields", "naptan:NaptanCode": "lingpgtp", "naptan:Street": "Old Main Road", "naptan:verified": "no", "source": "naptan_import"}}, {"type": "node", "id": 502319654, "lat": 53.0309208, "lon": 0.0988732, "tags": {"bench": "no", "bin": "no", "highway": "bus_stop", "name": "St Mary's Church", "naptan:AtcoCode": "270000008237", "naptan:Bearing": "SE", "naptan:CommonName": "St Mary's Church", "naptan:Indicator": "opp", "naptan:Landmark": "St Mary's Church", "naptan:NaptanCode": "lingpgtw", "naptan:Street": "Church Road", "naptan:verified": "no", "shelter": "no", "source": "naptan_import"}}, {"type": "node", "id": 502319659, "lat": 53.0291664, "lon": 0.0994442, "tags": {"bench": "no", "bin": "no", "highway": "bus_stop", "name": "The Giles School", "naptan:AtcoCode": "270000008238", "naptan:Bearing": "N", "naptan:CommonName": "The Giles School", "naptan:Indicator": "adj", "naptan:Landmark": "The Giles School", "naptan:NaptanCode": "lingpgwa", "naptan:Street": "Shaw Lane", "naptan:verified": "no", "shelter": "no", "source": "naptan_import"}}, {"type": "node", "id": 502319723, "lat": 53.1876306, "lon": 0.1459179, "tags": {"highway": "bus_stop", "name": "Scremby Crossroads", "naptan:AtcoCode": "270000008257", "naptan:Bearing": "SE", "naptan:CommonName": "Scremby Crossroads", "naptan:Indicator": "Eastbound", "naptan:Landmark": "Greengate Road", "naptan:NaptanCode": "lingpjdt", "naptan:Street": "Lowgate Road", "naptan:verified": "no", "source": "naptan_import"}}, {"type": "node", "id": 502319729, "lat": 53.1877616, "lon": 0.1451311, "tags": {"highway": "bus_stop", "name": "Scremby Crossroads", "naptan:AtcoCode": "270000008258", "naptan:Bearing": "NW", "naptan:CommonName": "Scremby Crossroads", "naptan:Indicator": "Westbound", "naptan:Landmark": "Northfield Road", "naptan:NaptanCode": "lingpjdw", "naptan:Street": "Lowgate Road", "naptan:verified": "no", "source": "naptan_import"}}, {"type": "node", "id": 502319733, "lat": 53.1905968, "lon": 0.1304377, "tags": {"highway": "bus_stop", "name": "Dunrobin", "naptan:AtcoCode": "270000008259", "naptan:Bearing": "SE", "naptan:CommonName": "Dunrobin", "naptan:Indicator": "adj", "naptan:Landmark": "Dunrobin", "naptan:NaptanCode": "lingpjga", "naptan:Street": "A158", "naptan:verified": "no", "source": "naptan_import"}}, {"type": "node", "id": 502319737, "lat": 53.1905469, "lon": 0.1302107, "tags": {"highway": "bus_stop", "name": "Dunrobin", "naptan:AtcoCode": "270000008260", "naptan:Bearing": "NW", "naptan:CommonName": "Dunrobin", "naptan:Indicator": "opp", "naptan:Landmark": "Dunrobin", "naptan:NaptanCode": "lingpjgd", "naptan:Street": "A158", "naptan:verified": "no", "source": "naptan_import"}}, {"type": "node", "id": 502319740, "lat": 53.1926186, "lon": 0.113846, "tags": {"highway": "bus_stop", "name": "Hardings Lane", "naptan:AtcoCode": "270000008261", "naptan:Bearing": "W", "naptan:CommonName": "Hardings Lane", "naptan:Indicator": "adj", "naptan:Landmark": "Hardings Lane", "naptan:NaptanCode": "lingpjgj", "naptan:Street": "Skegness Road", "naptan:verified": "no", "source": "naptan_import"}}, {"type": "node", "id": 502319744, "lat": 53.1927412, "lon": 0.1140317, "tags": {"highway": "bus_stop", "name": "Hardings Lane", "naptan:AtcoCode": "270000008262", "naptan:Bearing": "E", "naptan:CommonName": "Hardings Lane", "naptan:Indicator": "opp", "naptan:Landmark": "Hardings Lane", "naptan:NaptanCode": "lingpjgm", "naptan:Street": "Skegness Road", "naptan:verified": "no", "source": "naptan_import"}}, {"type": "node", "id": 502319746, "lat": 53.1933386, "lon": 0.1102585, "tags": {"highway": "bus_stop", "name": "Red Lion PH", "naptan:AtcoCode": "270000008263", "naptan:Bearing": "E", "naptan:CommonName": "Red Lion PH", "naptan:Indicator": "opp", "naptan:Landmark": "Red Lion PH", "naptan:NaptanCode": "lingpjgp", "naptan:Street": "Skegness Road", "naptan:verified": "no", "source": "naptan_import"}}, {"type": "node", "id": 502319759, "lat": 53.1910695, "lon": 0.1048627, "tags": {"highway": "bus_stop", "name": "North of Roundabout", "naptan:AtcoCode": "270000008264", "naptan:Bearing": "SW", "naptan:CommonName": "North of Roundabout", "naptan:Indicator": "SW - bound", "naptan:Landmark": "North of Roundabout", "naptan:NaptanCode": "lingpjgt", "naptan:Street": "A16", "naptan:verified": "no", "source": "naptan_import"}}, {"type": "node", "id": 502319764, "lat": 53.1909274, "lon": 0.1045619, "tags": {"highway": "bus_stop", "name": "North of Roundabout", "naptan:AtcoCode": "270000008265", "naptan:Bearing": "NE", "naptan:CommonName": "North of Roundabout", "naptan:Indicator": "NE - bound", "naptan:Landmark": "North of Roundabout", "naptan:NaptanCode": "lingpjgw", "naptan:Street": "A16", "naptan:verified": "no", "source": "naptan_import"}}, {"type": "node", "id": 502319768, "lat": 53.1774999, "lon": 0.0891732, "tags": {"highway": "bus_stop", "name": "Sports Ground", "naptan:AtcoCode": "270000008266", "naptan:Bearing": "S", "naptan:CommonName": "Sports Ground", "naptan:Indicator": "adj", "naptan:Landmark": "Sports Ground", "naptan:NaptanCode": "lingpjma", "naptan:Street": "Partney Road", "naptan:verified": "no", "source": "naptan_import"}}, {"type": "node", "id": 502319772, "lat": 53.1772153, "lon": 0.0889948, "tags": {"highway": "bus_stop", "name": "Sports Ground", "naptan:AtcoCode": "270000008267", "naptan:Bearing": "N", "naptan:CommonName": "Sports Ground", "naptan:Indicator": "opp", "naptan:Landmark": "Sports Ground", "naptan:NaptanCode": "lingpjmd", "naptan:Street": "Partney Road", "naptan:verified": "no", "source": "naptan_import"}}, {"type": "node", "id": 502319777, "lat": 53.1739045, "lon": 0.0911682, "tags": {"highway": "bus_stop", "name": "Shades Hotel", "naptan:AtcoCode": "270000008268", "naptan:Bearing": "W", "naptan:CommonName": "Shades Hotel", "naptan:Indicator": "opp", "naptan:Landmark": "Shades Hotel", "naptan:NaptanCode": "lingpjmg", "naptan:Street": "Church Street", "naptan:verified": "no", "source": "naptan_import"}}, {"type": "node", "id": 502319782, "lat": 53.1755079, "lon": 0.0848415, "tags": {"highway": "bus_stop", "name": "Grace Swan Clinic", "naptan:AtcoCode": "270000008269", "naptan:Bearing": "NW", "naptan:CommonName": "Grace Swan Clinic", "naptan:Indicator": "adj", "naptan:Landmark": "Grace Swan Clinic", "naptan:NaptanCode": "lingpjmj", "naptan:Street": "Main Road", "naptan:verified": "no", "source": "naptan_import"}}, {"type": "node", "id": 502319786, "lat": 53.1757212, "lon": 0.0844762, "tags": {"highway": "bus_stop", "name": "Grace Swan Clinic", "naptan:AtcoCode": "270000008270", "naptan:Bearing": "SE", "naptan:CommonName": "Grace Swan Clinic", "naptan:Indicator": "opp", "naptan:Landmark": "Grace Swan Clinic", "naptan:NaptanCode": "lingpjmp", "naptan:Street": "Main Road", "naptan:verified": "no", "source": "naptan_import"}}, {"type": "node", "id": 502319790, "lat": 53.1770915, "lon": 0.0755054, "tags": {"highway": "bus_stop", "name": "Hundleby Hotel", "naptan:AtcoCode": "270000008271", "naptan:Bearing": "E", "naptan:CommonName": "Hundleby Hotel", "naptan:Indicator": "opp", "naptan:Landmark": "North Beck Lane", "naptan:NaptanCode": "lingpjmt", "naptan:Street": "Main Road", "naptan:verified": "no", "source": "naptan_import"}}, {"type": "node", "id": 502319793, "lat": 53.1770352, "lon": 0.0730634, "tags": {"highway": "bus_stop", "name": "Brickyard Lane", "naptan:AtcoCode": "270000008272", "naptan:Bearing": "E", "naptan:CommonName": "Brickyard Lane", "naptan:Indicator": "opp", "naptan:Landmark": "Brickyard Lane", "naptan:NaptanCode": "lingpjmw", "naptan:Street": "Main Road", "naptan:verified": "no", "source": "naptan_import"}}, {"type": "node", "id": 502319798, "lat": 53.192914, "lon": -0.0108272, "tags": {"highway": "bus_stop", "name": "Country Park", "naptan:AtcoCode": "270000008273", "naptan:Bearing": "E", "naptan:CommonName": "Country Park", "naptan:Indicator": "adj", "naptan:Landmark": "Country Park", "naptan:NaptanCode": "lingpjpa", "naptan:Street": "B1195", "naptan:verified": "no", "source": "naptan_import"}}, {"type": "node", "id": 502319802, "lat": 53.1928671, "lon": -0.0112485, "tags": {"highway": "bus_stop", "name": "Country Park", "naptan:AtcoCode": "270000008274", "naptan:Bearing": "W", "naptan:CommonName": "Country Park", "naptan:Indicator": "opp", "naptan:Landmark": "Country Park", "naptan:NaptanCode": "lingpjpd", "naptan:Street": "B1195", "naptan:verified": "no", "source": "naptan_import"}}, {"type": "node", "id": 502319806, "lat": 53.1555765, "lon": 0.0599735, "tags": {"highway": "bus_stop", "name": "Fen Lane", "naptan:AtcoCode": "270000008275", "naptan:Bearing": "E", "naptan:CommonName": "Fen Lane", "naptan:Indicator": "opp", "naptan:Landmark": "Fen Lane", "naptan:NaptanCode": "lingpjpg", "naptan:Street": "A16", "naptan:verified": "no", "source": "naptan_import"}}, {"type": "node", "id": 502319810, "lat": 53.1528383, "lon": 0.0581823, "tags": {"highway": "bus_stop", "name": "East Keal Hall", "naptan:AtcoCode": "270000008276", "naptan:Bearing": "S", "naptan:CommonName": "East Keal Hall", "naptan:Indicator": "opp", "naptan:Landmark": "East Keal Hall", "naptan:NaptanCode": "lingpjpj", "naptan:Street": "A16", "naptan:verified": "no", "source": "naptan_import"}}, {"type": "node", "id": 502319814, "lat": 53.1531754, "lon": 0.0579292, "tags": {"highway": "bus_stop", "name": "East Keal Hall", "naptan:AtcoCode": "270000008277", "naptan:Bearing": "N", "naptan:CommonName": "East Keal Hall", "naptan:Indicator": "adj", "naptan:Landmark": "East Keal Hall", "naptan:NaptanCode": "lingpjpm", "naptan:Street": "A16", "naptan:verified": "no", "source": "naptan_import"}}, {"type": "node", "id": 502319820, "lat": 53.13163, "lon": 0.0403656, "tags": {"highway": "bus_stop", "name": "Mill Lane", "naptan:AtcoCode": "270000008278", "naptan:Bearing": "S", "naptan:CommonName": "Mill Lane", "naptan:Indicator": "opp", "naptan:Landmark": "Mill Lane", "naptan:NaptanCode": "lingpjpt", "naptan:Street": "Main Road", "naptan:verified": "no", "source": "naptan_import"}}, {"type": "node", "id": 502319824, "lat": 53.1221991, "lon": 0.0254626, "tags": {"highway": "bus_stop", "name": "Fen Road", "naptan:AtcoCode": "270000008279", "naptan:Bearing": "NE", "naptan:CommonName": "Fen Road", "naptan:Indicator": "opp", "naptan:Landmark": "Fen Road", "naptan:NaptanCode": "lingpjpw", "naptan:Street": "Main Road", "naptan:verified": "no", "source": "naptan_import"}}, {"type": "node", "id": 502319828, "lat": 53.1218613, "lon": 0.0249509, "tags": {"highway": "bus_stop", "name": "Fen Road", "naptan:AtcoCode": "270000008280", "naptan:Bearing": "SW", "naptan:CommonName": "Fen Road", "naptan:Indicator": "adj", "naptan:Landmark": "Fen Road", "naptan:NaptanCode": "lingpjta", "naptan:Street": "Main Road", "naptan:verified": "no", "source": "naptan_import"}}, {"type": "node", "id": 502319829, "lat": 53.1173333, "lon": 0.0177656, "tags": {"highway": "bus_stop", "name": "Church Road", "naptan:AtcoCode": "270000008281", "naptan:Bearing": "SW", "naptan:CommonName": "Church Road", "naptan:Indicator": "opp", "naptan:Landmark": "Church Road", "naptan:NaptanCode": "lingpjtd", "naptan:Street": "A16", "naptan:verified": "no", "source": "naptan_import"}}, {"type": "node", "id": 502319830, "lat": 53.0925274, "lon": 0.0050148, "tags": {"highway": "bus_stop", "name": "Post Office", "naptan:AtcoCode": "270000008282", "naptan:Bearing": "S", "naptan:CommonName": "Post Office", "naptan:Indicator": "adj", "naptan:Landmark": "Post Office", "naptan:NaptanCode": "lingpjtg", "naptan:Street": "Main Road", "naptan:verified": "no", "source": "naptan_import"}}, {"type": "node", "id": 502319831, "lat": 53.0890661, "lon": 0.0055408, "tags": {"highway": "bus_stop", "name": "Horbling Lane", "naptan:AtcoCode": "270000008283", "naptan:Bearing": "S", "naptan:CommonName": "Horbling Lane", "naptan:Indicator": "adj", "naptan:Landmark": "Horbling Lane", "naptan:NaptanCode": "lingpjtj", "naptan:Street": "Main Road", "naptan:verified": "no", "source": "naptan_import"}}, {"type": "node", "id": 502319832, "lat": 53.0600707, "lon": 0.0145806, "tags": {"highway": "bus_stop", "name": "Northlands Lane End", "naptan:AtcoCode": "270000008284", "naptan:Bearing": "S", "naptan:CommonName": "Northlands Lane End", "naptan:Indicator": "opp", "naptan:Landmark": "Northlands Lane End", "naptan:NaptanCode": "lingpjtm", "naptan:Street": "Main Road", "naptan:verified": "no", "source": "naptan_import"}}, {"type": "node", "id": 502319834, "lat": 53.0491433, "lon": 0.014787, "tags": {"highway": "bus_stop", "name": "Littlemoors Lane", "naptan:AtcoCode": "270000008285", "naptan:Bearing": "S", "naptan:CommonName": "Littlemoors Lane", "naptan:Indicator": "opp", "naptan:Landmark": "Littlemoors Lane", "naptan:NaptanCode": "lingpjtp", "naptan:Street": "Main Road", "naptan:verified": "no", "source": "naptan_import"}}, {"type": "node", "id": 502319836, "lat": 53.049345, "lon": 0.0145577, "tags": {"highway": "bus_stop", "name": "Littlemoors Lane", "naptan:AtcoCode": "270000008286", "naptan:Bearing": "N", "naptan:CommonName": "Littlemoors Lane", "naptan:Indicator": "adj", "naptan:Landmark": "Littlemoors Lane", "naptan:NaptanCode": "lingpjtw", "naptan:Street": "Main Road", "naptan:verified": "no", "source": "naptan_import"}}, {"type": "node", "id": 502319840, "lat": 53.0384603, "lon": 0.0159594, "tags": {"highway": "bus_stop", "name": "Sibsey School", "naptan:AtcoCode": "270000008287", "naptan:Bearing": "SE", "naptan:CommonName": "Sibsey School", "naptan:Indicator": "adj", "naptan:Landmark": "Sibsey School", "naptan:NaptanCode": "lingpjwa", "naptan:Street": "Boston Road", "naptan:verified": "no", "source": "naptan_import"}}, {"type": "node", "id": 502319844, "lat": 53.0390538, "lon": 0.0154203, "tags": {"highway": "bus_stop", "name": "Sibsey School", "naptan:AtcoCode": "270000008288", "naptan:Bearing": "NW", "naptan:CommonName": "Sibsey School", "naptan:Indicator": "opp", "naptan:Landmark": "Sibsey School", "naptan:NaptanCode": "lingpjwd", "naptan:Street": "Boston Road", "naptan:verified": "no", "source": "naptan_import"}}, {"type": "node", "id": 502319847, "lat": 53.0349253, "lon": 0.0160481, "tags": {"highway": "bus_stop", "name": "Station Road", "naptan:AtcoCode": "270000008289", "naptan:Bearing": "S", "naptan:CommonName": "Station Road", "naptan:Indicator": "adj", "naptan:Landmark": "Station Road", "naptan:NaptanCode": "lingpjwg", "naptan:Street": "A16", "naptan:verified": "no", "source": "naptan_import"}}, {"type": "node", "id": 502319968, "lat": 53.138406, "lon": -0.3918244, "tags": {"highway": "bus_stop", "name": "Railway Station", "naptan:AtcoCode": "270000008317", "naptan:Bearing": "E", "naptan:CommonName": "Railway Station", "naptan:Indicator": "adj", "naptan:Landmark": "Rail Station", "naptan:NaptanCode": "lingpmjg", "naptan:Street": "Station Road", "naptan:verified": "no", "source": "naptan_import"}}, {"type": "node", "id": 502319972, "lat": 53.1384099, "lon": -0.3911315, "tags": {"highway": "bus_stop", "name": "Railway Station", "naptan:AtcoCode": "270000008318", "naptan:Bearing": "W", "naptan:CommonName": "Railway Station", "naptan:Indicator": "opp", "naptan:Landmark": "Rail Station", "naptan:NaptanCode": "lingpmjm", "naptan:Street": "Station Road", "naptan:verified": "no", "source": "naptan_import"}}, {"type": "node", "id": 502319977, "lat": 53.1133389, "lon": -0.3309234, "tags": {"highway": "bus_stop", "name": "Penny Farthing PH", "naptan:AtcoCode": "270000008319", "naptan:Bearing": "E", "naptan:CommonName": "Penny Farthing PH", "naptan:Indicator": "adj", "naptan:Landmark": "Penny Farthing PH", "naptan:NaptanCode": "lingpmjp", "naptan:Street": "Station Road", "naptan:verified": "no", "source": "naptan_import"}}, {"type": "node", "id": 502319981, "lat": 53.113291, "lon": -0.3307092, "tags": {"highway": "bus_stop", "name": "Penny Farthing PH", "naptan:AtcoCode": "270000008320", "naptan:Bearing": "W", "naptan:CommonName": "Penny Farthing PH", "naptan:Indicator": "opp", "naptan:Landmark": "Penny Farthing PH", "naptan:NaptanCode": "lingpmjt", "naptan:Street": "Station Road", "naptan:verified": "no", "source": "naptan_import"}}, {"type": "node", "id": 502319985, "lat": 53.113064, "lon": -0.3292628, "tags": {"highway": "bus_stop", "name": "Station Road", "naptan:AtcoCode": "270000008321", "naptan:Bearing": "SE", "naptan:CommonName": "Station Road", "naptan:Indicator": "SE - bound", "naptan:Landmark": "Station Road", "naptan:NaptanCode": "lingpmjw", "naptan:Street": "Main Street", "naptan:verified": "no", "shelter": "yes", "source": "naptan_import"}}, {"type": "node", "id": 502319988, "lat": 53.1129749, "lon": -0.3273433, "tags": {"highway": "bus_stop", "name": "Auckland Crescent", "naptan:AtcoCode": "270000008322", "naptan:Bearing": "N", "naptan:CommonName": "Auckland Crescent", "naptan:Indicator": "opp", "naptan:Landmark": "Auckland Crescent", "naptan:NaptanCode": "lingpmpa", "naptan:Street": "Martin Road", "naptan:verified": "no", "shelter": "yes", "source": "naptan_import"}}, {"type": "node", "id": 502319992, "lat": 53.1128279, "lon": -0.327186, "tags": {"highway": "bus_stop", "name": "Auckland Crescent", "naptan:AtcoCode": "270000008323", "naptan:Bearing": "S", "naptan:CommonName": "Auckland Crescent", "naptan:Indicator": "adj", "naptan:Landmark": "Auckland Crescent", "naptan:NaptanCode": "lingpmpd", "naptan:Street": "Martin Road", "naptan:verified": "no", "source": "naptan_import"}}, {"type": "node", "id": 502319996, "lat": 53.1243634, "lon": -0.3208645, "tags": {"highway": "bus_stop", "name": "Jubilee Close", "naptan:AtcoCode": "270000008324", "naptan:Bearing": "W", "naptan:CommonName": "Jubilee Close", "naptan:Indicator": "adj", "naptan:Landmark": "Jubilee Close", "naptan:NaptanCode": "lingpmpg", "naptan:Street": "High Street", "naptan:verified": "no", "source": "naptan_import"}}, {"type": "node", "id": 502320011, "lat": 53.1244123, "lon": -0.3205039, "tags": {"highway": "bus_stop", "name": "Jubilee Close", "naptan:AtcoCode": "270000008325", "naptan:Bearing": "E", "naptan:CommonName": "Jubilee Close", "naptan:Indicator": "opp", "naptan:Landmark": "Jubilee Close", "naptan:NaptanCode": "lingpmpj", "naptan:Street": "High Street", "naptan:verified": "no", "source": "naptan_import"}}, {"type": "node", "id": 502320014, "lat": 53.1438836, "lon": -0.2376702, "tags": {"highway": "bus_stop", "name": "Mill Lane", "naptan:AtcoCode": "270000008326", "naptan:Bearing": "SW", "naptan:CommonName": "Mill Lane", "naptan:Indicator": "opp", "naptan:Landmark": "Mill Lane", "naptan:NaptanCode": "lingpmpm", "naptan:Street": "Witham Road", "naptan:verified": "no", "shelter": "yes", "source": "naptan_import"}}, {"type": "node", "id": 502320019, "lat": 53.1518918, "lon": -0.2157911, "tags": {"highway": "bus_stop", "name": "Clarence Road", "naptan:AtcoCode": "270000008327", "naptan:Bearing": "SW", "naptan:CommonName": "Clarence Road", "naptan:Indicator": "adj", "naptan:Landmark": "Clarence Road", "naptan:NaptanCode": "lingpmpt", "naptan:Street": "Station Road", "naptan:verified": "no", "source": "naptan_import"}}, {"type": "node", "id": 502320024, "lat": 53.1230886, "lon": -0.1844189, "tags": {"highway": "bus_stop", "name": "North Road", "naptan:AtcoCode": "270000008328", "naptan:Bearing": "SE", "naptan:CommonName": "North Road", "naptan:Indicator": "adj", "naptan:Landmark": "North Road", "naptan:NaptanCode": "lingpmpw", "naptan:Street": "B1192", "naptan:verified": "no", "source": "OS_OpenData _StreetView"}}, {"type": "node", "id": 502320028, "lat": 53.1230024, "lon": -0.1846617, "tags": {"highway": "bus_stop", "name": "North Road", "naptan:AtcoCode": "270000008329", "naptan:Bearing": "NW", "naptan:CommonName": "North Road", "naptan:Indicator": "opp", "naptan:Landmark": "North Road", "naptan:NaptanCode": "lingpmta", "naptan:Street": "B1192", "naptan:verified": "no", "source": "OS_OpenData _StreetView"}}, {"type": "node", "id": 502320032, "lat": 53.1076387, "lon": -0.1701748, "tags": {"bus": "yes", "highway": "bus_stop", "name": "War Memorial", "naptan:AtcoCode": "270000008330", "naptan:Bearing": "SW", "naptan:CommonName": "War Memorial", "naptan:Indicator": "opp", "naptan:Landmark": "War Memorial", "naptan:NaptanCode": "lingpmtd", "naptan:Street": "High Street", "naptan:verified": "no", "public_transport": "platform", "source": "OS_OpenData _StreetView"}}, {"type": "node", "id": 502320036, "lat": 53.105828, "lon": -0.1747608, "tags": {"bus": "yes", "highway": "bus_stop", "name": "Silver Street", "naptan:AtcoCode": "270000008331", "naptan:Bearing": "W", "naptan:CommonName": "Silver Street", "naptan:Indicator": "adj", "naptan:Landmark": "Silver Street", "naptan:NaptanCode": "lingpmtg", "naptan:Street": "High Street", "naptan:verified": "no", "public_transport": "platform", "source": "OS_OpenData _StreetView"}}, {"type": "node", "id": 502320040, "lat": 53.1006403, "lon": -0.1968964, "tags": {"bus": "yes", "highway": "bus_stop", "name": "Castlefields Estate", "naptan:AtcoCode": "270000008332", "naptan:Bearing": "NE", "naptan:CommonName": "Castlefields Estate", "naptan:Indicator": "adj", "naptan:Landmark": "Castlefields Estate", "naptan:NaptanCode": "lingpmtj", "naptan:Street": "Sleaford Road", "naptan:verified": "no", "public_transport": "platform", "source": "OS_OpenData _StreetView"}}, {"type": "node", "id": 502320044, "lat": 53.1004608, "lon": -0.1969188, "tags": {"bus": "yes", "highway": "bus_stop", "name": "Castlefields Estate", "naptan:AtcoCode": "270000008333", "naptan:Bearing": "SW", "naptan:CommonName": "Castlefields Estate", "naptan:Indicator": "opp", "naptan:Landmark": "Castlefields Estate", "naptan:NaptanCode": "lingpmtm", "naptan:Street": "Sleaford Road", "naptan:verified": "no", "public_transport": "platform", "source": "OS_OpenData _StreetView"}}, {"type": "node", "id": 502320049, "lat": 53.1529374, "lon": -0.210799, "tags": {"highway": "bus_stop", "name": "St Peter's Church", "naptan:AtcoCode": "270000008334", "naptan:Bearing": "NE", "naptan:CommonName": "St Peter's Church", "naptan:Indicator": "opp", "naptan:Landmark": "St Peter's Church", "naptan:NaptanCode": "lingpmtp", "naptan:Street": "The Broadway", "naptan:verified": "no", "source": "naptan_import"}}, {"type": "node", "id": 502320053, "lat": 53.1283409, "lon": -0.405488, "tags": {"highway": "bus_stop", "name": "Primary School", "naptan:AtcoCode": "270000008335", "naptan:Bearing": "SW", "naptan:CommonName": "Primary School", "naptan:Indicator": "adj", "naptan:Landmark": "Primary School", "naptan:NaptanCode": "lingpmtw", "naptan:Street": "Drury Street", "naptan:verified": "no", "source": "naptan_import"}}, {"type": "node", "id": 502320058, "lat": 53.109445, "lon": -0.4078144, "tags": {"highway": "bus_stop", "name": "The Granaries", "naptan:AtcoCode": "270000008336", "naptan:Bearing": "NE", "naptan:CommonName": "The Granaries", "naptan:Indicator": "opp", "naptan:Landmark": "The Granaries", "naptan:NaptanCode": "lingpmwa", "naptan:Street": "Heath Road", "source": "naptan_import"}}, {"type": "node", "id": 502320061, "lat": 53.096498, "lon": -0.4339534, "tags": {"highway": "bus_stop", "name": "Sports Field", "naptan:AtcoCode": "270000008337", "naptan:Bearing": "NE", "naptan:CommonName": "Sports Field", "naptan:Indicator": "opp", "naptan:Landmark": "Sports Field", "naptan:NaptanCode": "lingpmwd", "naptan:Street": "Heath Road", "naptan:verified": "no", "source": "naptan_import"}}, {"type": "node", "id": 502320070, "lat": 53.0783977, "lon": -0.3928493, "tags": {"highway": "bus_stop", "name": "The Pinfold", "naptan:AtcoCode": "270000008341", "naptan:Bearing": "S", "naptan:CommonName": "The Pinfold", "naptan:Indicator": "adj", "naptan:Landmark": "The Pinfold", "naptan:NaptanCode": "lingpmwp", "naptan:Street": "Lincoln Road", "naptan:verified": "no", "shelter": "yes", "source": "naptan_import"}}, {"type": "node", "id": 502320074, "lat": 53.0625218, "lon": -0.3953392, "tags": {"highway": "bus_stop", "name": "Musicians' Arms PH", "naptan:AtcoCode": "270000008342", "naptan:Bearing": "N", "naptan:CommonName": "Musicians' Arms PH", "naptan:Indicator": "opp", "naptan:Landmark": "Musicians' Arms PH", "naptan:NaptanCode": "lingpmwt", "naptan:Street": "Lincoln Road", "naptan:verified": "no", "source": "naptan_import"}}, {"type": "node", "id": 502320078, "lat": 53.0461312, "lon": -0.3952469, "tags": {"highway": "bus_stop", "name": "Manor Street", "naptan:AtcoCode": "270000008343", "naptan:Bearing": "N", "naptan:CommonName": "Manor Street", "naptan:Indicator": "opp", "naptan:Landmark": "Manor Street", "naptan:NaptanCode": "lingptad", "naptan:Street": "Lincoln Road", "naptan:verified": "no", "shelter": "no", "source": "naptan_import"}}, {"type": "node", "id": 502320081, "lat": 53.0330034, "lon": -0.3851456, "tags": {"highway": "bus_stop", "name": "Speedway Corner", "naptan:AtcoCode": "270000008344", "naptan:Bearing": "N", "naptan:CommonName": "Speedway Corner", "naptan:Indicator": "Northbound", "naptan:Landmark": "Speedway Corner", "naptan:NaptanCode": "lingptag", "naptan:Street": "Sleaford Road", "naptan:verified": "no", "source": "naptan_import"}}, {"type": "node", "id": 502320086, "lat": 53.0318937, "lon": -0.384859, "tags": {"highway": "bus_stop", "name": "Speedway Corner", "naptan:AtcoCode": "270000008345", "naptan:Bearing": "S", "naptan:CommonName": "Speedway Corner", "naptan:Indicator": "Southbound", "naptan:Landmark": "Speedway Corner", "naptan:NaptanCode": "lingptaj", "naptan:Street": "Sleaford Road", "naptan:verified": "no", "source": "naptan_import"}}, {"type": "node", "id": 502320091, "lat": 53.0269041, "lon": -0.3855226, "tags": {"highway": "bus_stop", "name": "Moor Lane", "naptan:AtcoCode": "270000008346", "naptan:Bearing": "SW", "naptan:CommonName": "Moor Lane", "naptan:Indicator": "opp", "naptan:Landmark": "Moor Lane", "naptan:NaptanCode": "lingptam", "naptan:Street": "East Road", "naptan:verified": "no", "source": "naptan_import"}}, {"type": "node", "id": 502320094, "lat": 53.027068, "lon": -0.3856805, "tags": {"highway": "bus_stop", "name": "Moor Lane", "naptan:AtcoCode": "270000008347", "naptan:Bearing": "NE", "naptan:CommonName": "Moor Lane", "naptan:Indicator": "adj", "naptan:Landmark": "Moor Lane", "naptan:NaptanCode": "lingptap", "naptan:Street": "East Road", "naptan:verified": "no", "source": "naptan_import"}}, {"type": "node", "id": 502320098, "lat": 53.0029896, "lon": -0.3988148, "tags": {"bus": "yes", "highway": "bus_stop", "name": "Woodbridge Road", "naptan:AtcoCode": "270000008348", "naptan:Bearing": "NE", "naptan:CommonName": "Woodbridge Road", "naptan:Indicator": "adj", "naptan:Landmark": "Woodbridge Road", "naptan:NaptanCode": "lingptat", "naptan:Street": "East Road", "naptan:verified": "no", "public_transport": "platform", "source": "naptan_import"}}, {"type": "node", "id": 502320102, "lat": 53.0029159, "lon": -0.3986834, "tags": {"bus": "yes", "highway": "bus_stop", "name": "Woodbridge Road", "naptan:AtcoCode": "270000008349", "naptan:Bearing": "SW", "naptan:CommonName": "Woodbridge Road", "naptan:Indicator": "opp", "naptan:Landmark": "Woodbridge Road", "naptan:NaptanCode": "lingptaw", "naptan:Street": "East Road", "naptan:verified": "no", "public_transport": "platform", "source": "naptan_import"}}, {"type": "node", "id": 502320106, "lat": 53.0008813, "lon": -0.4051669, "tags": {"bus": "yes", "highway": "bus_stop", "name": "Duke Street", "naptan:AtcoCode": "270000008350", "naptan:Bearing": "NE", "naptan:CommonName": "Duke Street", "naptan:Indicator": "adj", "naptan:Landmark": "Duke Street", "naptan:NaptanCode": "lingptda", "naptan:Street": "Eastgate", "naptan:verified": "no", "public_transport": "platform", "source": "naptan_import"}}, {"type": "node", "id": 502320110, "lat": 52.9996081, "lon": -0.4081049, "tags": {"bus": "yes", "highway": "bus_stop", "name": "St Denys Church", "naptan:AtcoCode": "270000008351", "naptan:Bearing": "W", "naptan:CommonName": "St Denys Church", "naptan:Indicator": "opp", "naptan:Landmark": "St Denys Church", "naptan:NaptanCode": "lingptdg", "naptan:Street": "Eastgate", "naptan:verified": "no", "public_transport": "platform", "source": "naptan_import"}}, {"type": "node", "id": 502320115, "lat": 52.9979828, "lon": -0.4008777, "tags": {"bus": "yes", "highway": "bus_stop", "name": "Recreation Ground", "naptan:AtcoCode": "270000008352", "naptan:Bearing": "SW", "naptan:CommonName": "Recreation Ground", "naptan:Indicator": "adj", "naptan:Landmark": "Recreation Ground", "naptan:NaptanCode": "lingptdj", "naptan:Street": "Boston Road", "naptan:verified": "no", "public_transport": "platform", "source": "naptan_import"}}, {"type": "node", "id": 502320119, "lat": 52.9946084, "lon": -0.4113881, "tags": {"bus": "yes", "highway": "bus_stop", "name": "Spar Shop", "naptan:AtcoCode": "270000008353", "naptan:Bearing": "SW", "naptan:CommonName": "Spar Shop", "naptan:Indicator": "opp", "naptan:Landmark": "Spar Shop", "naptan:NaptanCode": "lingptdm", "naptan:Street": "Grantham Road", "naptan:verified": "no", "public_transport": "platform", "source": "naptan_import"}}, {"type": "node", "id": 502320133, "lat": 52.994808, "lon": -0.4110308, "tags": {"bus": "yes", "highway": "bus_stop", "name": "Spar Shop", "naptan:AtcoCode": "270000008354", "naptan:Bearing": "NE", "naptan:CommonName": "Spar Shop", "naptan:Indicator": "adj", "naptan:Landmark": "Spar Shop", "naptan:NaptanCode": "lingptdp", "naptan:Street": "Grantham Road", "naptan:verified": "no", "public_transport": "platform", "source": "naptan_import"}}, {"type": "node", "id": 502320142, "lat": 52.9935207, "lon": -0.4174626, "tags": {"bus": "yes", "highway": "bus_stop", "name": "St Edmunds Road", "naptan:AtcoCode": "270000008356", "naptan:Bearing": "SW", "naptan:CommonName": "St Edmunds Road", "naptan:Indicator": "adj", "naptan:Landmark": "St Edmunds Road", "naptan:NaptanCode": "lingptdw", "naptan:Street": "Grantham Road", "naptan:verified": "no", "public_transport": "platform", "source": "naptan_import"}}, {"type": "node", "id": 502320148, "lat": 53.0096975, "lon": -0.4089409, "tags": {"bus": "yes", "highway": "bus_stop", "name": "Summerfield Drive", "naptan:AtcoCode": "270000008357", "naptan:Bearing": "S", "naptan:CommonName": "Summerfield Drive", "naptan:Landmark": "Summerfield Drive", "naptan:NaptanCode": "lingptga", "naptan:Street": "Woodside Avenue", "naptan:verified": "no", "public_transport": "platform", "source": "naptan_import"}}, {"type": "node", "id": 502320151, "lat": 53.0066051, "lon": -0.4103067, "tags": {"bus": "yes", "highway": "bus_stop", "name": "Beech Rise", "naptan:AtcoCode": "270000008358", "naptan:Bearing": "SE", "naptan:CommonName": "Beech Rise", "naptan:Indicator": "adj", "naptan:Landmark": "Beech Rise", "naptan:NaptanCode": "lingptgd", "naptan:Street": "Almond Walk", "naptan:verified": "no", "public_transport": "platform", "source": "naptan_import"}}, {"type": "node", "id": 502320156, "lat": 53.0024959, "lon": -0.4116052, "tags": {"bus": "yes", "highway": "bus_stop", "name": "Tesco", "naptan:AtcoCode": "270000008359", "naptan:Bearing": "NW", "naptan:CommonName": "Tesco", "naptan:Indicator": "adj", "naptan:Landmark": "Tesco", "naptan:NaptanCode": "lingptgj", "naptan:Street": "Northgate", "naptan:verified": "no", "public_transport": "platform", "source": "naptan_import"}}, {"type": "node", "id": 502320161, "lat": 53.0068607, "lon": -0.4207157, "tags": {"bus": "yes", "highway": "bus_stop", "name": "St Denys Avenue", "naptan:AtcoCode": "270000008360", "naptan:Bearing": "NW", "naptan:CommonName": "St Denys Avenue", "naptan:Indicator": "adj", "naptan:Landmark": "St Denys Avenue", "naptan:NaptanCode": "lingptgm", "naptan:Street": "North Parade", "naptan:verified": "no", "public_transport": "platform", "source": "naptan_import"}}, {"type": "node", "id": 502320164, "lat": 53.0068987, "lon": -0.4161385, "tags": {"bus": "yes", "highway": "bus_stop", "name": "Jubilee Grove", "naptan:AtcoCode": "270000008361", "naptan:Bearing": "NW", "naptan:CommonName": "Jubilee Grove", "naptan:Indicator": "opp", "naptan:Landmark": "Jubilee Grove", "naptan:NaptanCode": "lingptgp", "naptan:Street": "Lincoln Road", "naptan:verified": "no", "public_transport": "platform", "source": "naptan_import"}}, {"type": "node", "id": 502320168, "lat": 53.007938, "lon": -0.4172184, "tags": {"bus": "yes", "highway": "bus_stop", "name": "York Road", "naptan:AtcoCode": "270000008362", "naptan:Bearing": "SE", "naptan:CommonName": "York Road", "naptan:Indicator": "adj", "naptan:Landmark": "York Road", "naptan:NaptanCode": "lingptgt", "naptan:Street": "Lincoln Road", "naptan:verified": "no", "public_transport": "platform", "source": "naptan_import"}}, {"type": "node", "id": 502320172, "lat": 53.0114891, "lon": -0.4233043, "tags": {"bus": "yes", "highway": "bus_stop", "name": "The Jolly Scotchman PH", "naptan:AtcoCode": "270000008363", "naptan:Bearing": "NW", "naptan:CommonName": "The Jolly Scotchman PH", "naptan:Indicator": "opp", "naptan:Landmark": "The Jolly Scotchman PH", "naptan:NaptanCode": "lingptgw", "naptan:Street": "Lincoln Road", "naptan:verified": "no", "public_transport": "platform", "source": "naptan_import"}}, {"type": "node", "id": 502320176, "lat": 53.0058047, "lon": -0.4170281, "tags": {"bus": "yes", "highway": "bus_stop", "name": "Roundabout", "naptan:AtcoCode": "270000008364", "naptan:Bearing": "SW", "naptan:CommonName": "Roundabout", "naptan:Landmark": "Roundabout", "naptan:NaptanCode": "lingptja", "naptan:Street": "North Parade", "naptan:verified": "no", "public_transport": "platform", "source": "naptan_import"}}, {"type": "node", "id": 502320179, "lat": 53.020926, "lon": -0.4257931, "tags": {"highway": "bus_stop", "name": "Rookery Lane", "naptan:AtcoCode": "270000008365", "naptan:Bearing": "SW", "naptan:CommonName": "Rookery Lane", "naptan:Indicator": "opp", "naptan:Landmark": "Rookery Lane", "naptan:NaptanCode": "lingptjd", "naptan:Street": "Sleaford Road", "naptan:verified": "no", "source": "naptan_import"}}, {"type": "node", "id": 502320184, "lat": 53.0210787, "lon": -0.4257875, "tags": {"highway": "bus_stop", "name": "Rookery Lane", "naptan:AtcoCode": "270000008366", "naptan:Bearing": "NE", "naptan:CommonName": "Rookery Lane", "naptan:Indicator": "adj", "naptan:Landmark": "Rookery Lane", "naptan:NaptanCode": "lingptjg", "naptan:Street": "Sleaford Road", "naptan:verified": "no", "source": "naptan_import"}}, {"type": "node", "id": 502320185, "lat": 53.0218917, "lon": -0.4254001, "tags": {"highway": "bus_stop", "name": "Leasingham Hall", "naptan:AtcoCode": "270000008367", "naptan:Bearing": "S", "naptan:CommonName": "Leasingham Hall", "naptan:Indicator": "opp", "naptan:Landmark": "Leasingham Hall", "naptan:NaptanCode": "lingptjm", "naptan:Street": "Sleaford Road", "naptan:verified": "no", "source": "naptan_import"}}, {"type": "node", "id": 502320186, "lat": 53.0225498, "lon": -0.4248542, "tags": {"highway": "bus_stop", "name": "Manor Farm", "naptan:AtcoCode": "270000008368", "naptan:Bearing": "NE", "naptan:CommonName": "Manor Farm", "naptan:Indicator": "opp", "naptan:Landmark": "Manor Farm", "naptan:NaptanCode": "lingptjp", "naptan:Street": "Moor Lane", "naptan:verified": "no", "source": "naptan_import"}}, {"type": "node", "id": 502320187, "lat": 53.0238103, "lon": -0.4229594, "tags": {"highway": "bus_stop", "name": "11 Washdyke Lane", "naptan:AtcoCode": "270000008369", "naptan:Bearing": "S", "naptan:CommonName": "11 Washdyke Lane", "naptan:Indicator": "opp", "naptan:Landmark": "Number 11", "naptan:NaptanCode": "lingptjt", "naptan:Street": "Washdyke Lane", "naptan:verified": "no", "source": "naptan_import"}}, {"type": "node", "id": 502320189, "lat": 53.0241088, "lon": -0.4230976, "tags": {"highway": "bus_stop", "name": "11 Washdyke Lane", "naptan:AtcoCode": "270000008370", "naptan:Bearing": "N", "naptan:CommonName": "11 Washdyke Lane", "naptan:Indicator": "adj", "naptan:Landmark": "Number 11", "naptan:NaptanCode": "lingptjw", "naptan:Street": "Washdyke Lane", "naptan:verified": "no", "source": "naptan_import"}}, {"type": "node", "id": 502320192, "lat": 53.0260831, "lon": -0.4228318, "tags": {"highway": "bus_stop", "name": "St Andrews Crescent", "naptan:AtcoCode": "270000008371", "naptan:Bearing": "S", "naptan:CommonName": "St Andrews Crescent", "naptan:Indicator": "opp", "naptan:Landmark": "St Andrews Crescent", "naptan:NaptanCode": "lingptma", "naptan:Street": "Washdyke Lane", "naptan:verified": "no", "source": "naptan_import"}}, {"type": "node", "id": 502320197, "lat": 53.0269685, "lon": -0.4258713, "tags": {"highway": "bus_stop", "name": "Post Office", "naptan:AtcoCode": "270000008372", "naptan:Bearing": "E", "naptan:CommonName": "Post Office", "naptan:Indicator": "opp", "naptan:Landmark": "Post Office", "naptan:NaptanCode": "lingptmd", "naptan:Street": "Chapel Lane", "naptan:verified": "no", "source": "naptan_import"}}, {"type": "node", "id": 502320201, "lat": 53.0259282, "lon": -0.428787, "tags": {"highway": "bus_stop", "name": "The Square", "naptan:AtcoCode": "270000008373", "naptan:Bearing": "NE", "naptan:CommonName": "The Square", "naptan:Indicator": "opp", "naptan:Landmark": "The Square", "naptan:NaptanCode": "lingptmg", "naptan:Street": "Lincoln Road", "naptan:verified": "no", "source": "naptan_import"}}, {"type": "node", "id": 502320204, "lat": 53.0367481, "lon": -0.4565979, "tags": {"highway": "bus_stop", "name": "43 Sleaford Road", "naptan:AtcoCode": "270000008374", "naptan:Bearing": "W", "naptan:CommonName": "43 Sleaford Road", "naptan:Indicator": "opp", "naptan:Landmark": "Number 43", "naptan:NaptanCode": "lingptmj", "naptan:Street": "Sleaford Road", "naptan:verified": "no", "source": "naptan_import"}}, {"type": "node", "id": 502320208, "lat": 53.03687, "lon": -0.4562952, "tags": {"highway": "bus_stop", "name": "43 Sleaford Road", "naptan:AtcoCode": "270000008375", "naptan:Bearing": "E", "naptan:CommonName": "43 Sleaford Road", "naptan:Indicator": "adj", "naptan:Landmark": "Number 43", "naptan:NaptanCode": "lingptmp", "naptan:Street": "Sleaford Road", "naptan:verified": "no", "source": "naptan_import"}}, {"type": "node", "id": 502320212, "lat": 53.0367043, "lon": -0.4608502, "tags": {"highway": "bus_stop", "name": "St Andrew's Church", "naptan:AtcoCode": "270000008376", "naptan:Bearing": "W", "naptan:CommonName": "St Andrew's Church", "naptan:Indicator": "opp", "naptan:Landmark": "St Andrew's Church", "naptan:NaptanCode": "lingptmt", "naptan:Street": "Sleaford Road", "naptan:verified": "no", "source": "naptan_import"}}, {"type": "node", "id": 502320215, "lat": 53.03603, "lon": -0.4650205, "tags": {"highway": "bus_stop", "name": "Cranes Close", "naptan:AtcoCode": "270000008377", "naptan:Bearing": "E", "naptan:CommonName": "Cranes Close", "naptan:Indicator": "adj", "naptan:Landmark": "Cranes Close", "naptan:NaptanCode": "lingptmw", "naptan:Street": "College Road", "naptan:verified": "no", "source": "naptan_import"}}, {"type": "node", "id": 502320220, "lat": 53.0359333, "lon": -0.465889, "tags": {"highway": "bus_stop", "name": "Cranes Close", "naptan:AtcoCode": "270000008378", "naptan:Bearing": "W", "naptan:CommonName": "Cranes Close", "naptan:Indicator": "opp", "naptan:Landmark": "Cranes Close", "naptan:NaptanCode": "lingptpa", "naptan:Street": "College Road", "naptan:verified": "no", "source": "naptan_import"}}, {"type": "node", "id": 502320223, "lat": 53.0361569, "lon": -0.4699826, "tags": {"highway": "bus_stop", "name": "Bristow Road", "naptan:AtcoCode": "270000008379", "naptan:Bearing": "E", "naptan:CommonName": "Bristow Road", "naptan:Indicator": "adj", "naptan:Landmark": "Bristow Road", "naptan:NaptanCode": "lingptpd", "naptan:Street": "College Road", "naptan:verified": "no", "source": "naptan_import"}}, {"type": "node", "id": 502320227, "lat": 53.0360355, "lon": -0.4703299, "tags": {"highway": "bus_stop", "name": "Bristow Road", "naptan:AtcoCode": "270000008380", "naptan:Bearing": "W", "naptan:CommonName": "Bristow Road", "naptan:Indicator": "opp", "naptan:Landmark": "Bristow Road", "naptan:NaptanCode": "lingptpg", "naptan:Street": "College Road", "naptan:verified": "no", "source": "naptan_import"}}, {"type": "node", "id": 502320231, "lat": 53.0361579, "lon": -0.4897595, "tags": {"highway": "bus_stop", "name": "Post Office", "naptan:AtcoCode": "270000008381", "naptan:Bearing": "W", "naptan:CommonName": "Post Office", "naptan:Indicator": "opp", "naptan:Landmark": "Post Office", "naptan:NaptanCode": "lingptpj", "naptan:Street": "Cranwell Avenue", "naptan:verified": "no", "source": "naptan_import"}}, {"type": "node", "id": 502320234, "lat": 53.0362529, "lon": -0.4901589, "tags": {"highway": "bus_stop", "name": "Post Office", "naptan:AtcoCode": "270000008382", "naptan:Bearing": "E", "naptan:CommonName": "Post Office", "naptan:Indicator": "adj", "naptan:Landmark": "Post Office", "naptan:NaptanCode": "lingptpm", "naptan:Street": "Cranwell Avenue", "naptan:verified": "no", "source": "naptan_import"}}, {"type": "node", "id": 502320248, "lat": 53.0362861, "lon": -0.4937102, "tags": {"highway": "bus_stop", "name": "Cherry Tree Close", "naptan:AtcoCode": "270000008383", "naptan:Bearing": "W", "naptan:CommonName": "Cherry Tree Close", "naptan:Indicator": "opp", "naptan:Landmark": "Cherry Tree Close", "naptan:NaptanCode": "lingptpt", "naptan:Street": "Cranwell Avenue", "naptan:verified": "no", "source": "naptan_import"}}, {"type": "node", "id": 502320252, "lat": 53.0362768, "lon": -0.4941701, "tags": {"highway": "bus_stop", "name": "Cherry Tree Close", "naptan:AtcoCode": "270000008384", "naptan:Bearing": "E", "naptan:CommonName": "Cherry Tree Close", "naptan:Indicator": "adj", "naptan:Landmark": "Cherry Tree Close", "naptan:NaptanCode": "lingptpw", "naptan:Street": "Cranwell Avenue", "naptan:verified": "no", "source": "naptan_import"}}, {"type": "node", "id": 502320256, "lat": 53.0359882, "lon": -0.4976553, "tags": {"highway": "bus_stop", "name": "The Hive", "naptan:AtcoCode": "270000008385", "naptan:Bearing": "E", "naptan:CommonName": "The Hive", "naptan:Indicator": "adj", "naptan:Landmark": "The Hive", "naptan:NaptanCode": "lingptwa", "naptan:Street": "Cranwell Avenue", "naptan:verified": "no", "source": "naptan_import"}}, {"type": "node", "id": 502320260, "lat": 53.0359459, "lon": -0.4971496, "tags": {"highway": "bus_stop", "name": "The Hive", "naptan:AtcoCode": "270000008386", "naptan:Bearing": "W", "naptan:CommonName": "The Hive", "naptan:Indicator": "opp", "naptan:Landmark": "The Hive", "naptan:NaptanCode": "lingptwd", "naptan:Street": "Cranwell Avenue", "naptan:verified": "no", "source": "naptan_import"}}, {"type": "node", "id": 502320264, "lat": 52.9911293, "lon": -0.4310339, "tags": {"bus": "yes", "highway": "bus_stop", "name": "238a Grantham Road", "naptan:AtcoCode": "270000008387", "naptan:Bearing": "E", "naptan:CommonName": "238a Grantham Road", "naptan:Indicator": "o/s", "naptan:Landmark": "Number 238a", "naptan:NaptanCode": "lingptwg", "naptan:Street": "Grantham Road", "naptan:verified": "no", "public_transport": "platform", "source": "naptan_import"}}, {"type": "node", "id": 502320269, "lat": 52.986351, "lon": -0.4588719, "tags": {"highway": "bus_stop", "name": "Bus Shelter", "naptan:AtcoCode": "270000008388", "naptan:Bearing": "NW", "naptan:CommonName": "Bus Shelter", "naptan:Indicator": "adj", "naptan:Landmark": "Bus Shelter", "naptan:NaptanCode": "lingptwj", "naptan:Street": "Rauceby Drove", "naptan:verified": "no", "source": "naptan_import"}}, {"type": "node", "id": 502320273, "lat": 52.9863384, "lon": -0.4585893, "tags": {"highway": "bus_stop", "name": "Bus Shelter", "naptan:AtcoCode": "270000008389", "naptan:Bearing": "SE", "naptan:CommonName": "Bus Shelter", "naptan:Indicator": "opp", "naptan:Landmark": "Bus Shelter", "naptan:NaptanCode": "lingptwm", "naptan:Street": "Rauceby Drove", "naptan:verified": "no", "source": "naptan_import"}}, {"type": "node", "id": 502320276, "lat": 52.9891569, "lon": -0.4465105, "tags": {"highway": "bus_stop", "name": "Greylees bus stop", "naptan:AtcoCode": "270000008390", "naptan:Bearing": "NE", "naptan:CommonName": "Level Crossing", "naptan:Indicator": "NE - bound", "naptan:Landmark": "Level Crossing", "naptan:NaptanCode": "lingptwp", "naptan:Street": "Grantham Road", "naptan:verified": "no", "source": "naptan_import"}}, {"type": "node", "id": 502320280, "lat": 52.9890876, "lon": -0.4460213, "tags": {"highway": "bus_stop", "name": "Level Crossing", "naptan:AtcoCode": "270000008391", "naptan:Bearing": "SW", "naptan:CommonName": "Level Crossing", "naptan:Indicator": "SW - bound", "naptan:Landmark": "Level Crossing", "naptan:NaptanCode": "lingptwt", "naptan:Street": "Grantham Road", "naptan:verified": "no", "source": "naptan_import"}}, {"type": "node", "id": 502320284, "lat": 52.9958391, "lon": -0.470261, "tags": {"highway": "bus_stop", "name": "Cliffe View", "naptan:AtcoCode": "270000008392", "naptan:Bearing": "NW", "naptan:CommonName": "Cliffe View", "naptan:Indicator": "adj", "naptan:Landmark": "Cliffe View", "naptan:NaptanCode": "lingpwad", "naptan:Street": "Rauceby Drove", "naptan:verified": "no", "source": "naptan_import"}}, {"type": "node", "id": 502320291, "lat": 52.9958542, "lon": -0.470037, "tags": {"highway": "bus_stop", "name": "Cliffe View", "naptan:AtcoCode": "270000008393", "naptan:Bearing": "SE", "naptan:CommonName": "Cliffe View", "naptan:Indicator": "opp", "naptan:Landmark": "Cliffe View", "naptan:NaptanCode": "lingpwag", "naptan:Street": "Rauceby Drove", "naptan:verified": "no", "source": "naptan_import"}}, {"type": "node", "id": 502320295, "lat": 52.9978406, "lon": -0.4734984, "tags": {"highway": "bus_stop", "name": "Tom Lane", "naptan:AtcoCode": "270000008394", "naptan:Bearing": "E", "naptan:CommonName": "Tom Lane", "naptan:Indicator": "adj", "naptan:Landmark": "Tom Lane", "naptan:NaptanCode": "lingpwaj", "naptan:Street": "Main Street", "naptan:verified": "no", "source": "naptan_import"}}, {"type": "node", "id": 502320307, "lat": 53.0799575, "lon": -0.283506, "tags": {"bench": "no", "bin": "no", "highway": "bus_stop", "lit": "no", "name": "Park Lane", "naptan:AtcoCode": "270000008399", "naptan:Bearing": "W", "naptan:CommonName": "Park Lane", "naptan:Indicator": "adj", "naptan:Landmark": "Park Lane", "naptan:NaptanCode": "lingpwda", "naptan:Street": "Walcott Road", "naptan:verified": "no", "shelter": "yes", "source": "naptan_import", "tactile_paving": "no"}}, {"type": "node", "id": 502320314, "lat": 53.0800793, "lon": -0.287592, "tags": {"highway": "bus_stop", "name": "Princess Square", "naptan:AtcoCode": "270000008401", "naptan:Bearing": "E", "naptan:CommonName": "Princess Square", "naptan:Indicator": "adj", "naptan:Landmark": "Princess Square", "naptan:NaptanCode": "lingpwdj", "naptan:Street": "Walcott Road", "naptan:verified": "no", "shelter": "yes", "source": "naptan_import"}}, {"type": "node", "id": 502320923, "lat": 53.0981487, "lon": -0.5346228, "tags": {"highway": "bus_stop", "name": "Barnes Lane", "naptan:AtcoCode": "270000008575", "naptan:Bearing": "NE", "naptan:CommonName": "Barnes Lane", "naptan:Indicator": "adj", "naptan:Landmark": "Barnes Lane", "naptan:NaptanCode": "lingtgtd", "naptan:Street": "Cliff Road", "naptan:verified": "no", "shelter": "yes", "source": "naptan_import"}}, {"type": "node", "id": 502320924, "lat": 53.0983053, "lon": -0.5341993, "tags": {"highway": "bus_stop", "name": "Barnes Lane", "naptan:AtcoCode": "270000008576", "naptan:Bearing": "SW", "naptan:CommonName": "Barnes Lane", "naptan:Indicator": "opp", "naptan:Landmark": "Barnes Lane", "naptan:NaptanCode": "lingtgtg", "naptan:Street": "Cliff Road", "naptan:verified": "no", "public_transport": "platform", "source": "naptan_import"}}, {"type": "node", "id": 502320925, "lat": 53.1029871, "lon": -0.5274824, "tags": {"highway": "bus_stop", "name": "Pottergate Road", "naptan:AtcoCode": "270000008577", "naptan:Bearing": "NE", "naptan:CommonName": "Pottergate Road", "naptan:Indicator": "opp", "naptan:Landmark": "Pottergate Road", "naptan:NaptanCode": "lingtgtj", "naptan:Street": "Cliff Road", "naptan:verified": "no", "source": "naptan_import"}}, {"type": "node", "id": 502320926, "lat": 53.1028076, "lon": -0.5275035, "tags": {"highway": "bus_stop", "name": "Pottergate Road", "naptan:AtcoCode": "270000008578", "naptan:Bearing": "SW", "naptan:CommonName": "Pottergate Road", "naptan:Indicator": "adj", "naptan:Landmark": "Pottergate Road", "naptan:NaptanCode": "lingtgtm", "naptan:Street": "Cliff Road", "naptan:verified": "no", "public_transport": "platform", "source": "naptan_import"}}, {"type": "node", "id": 502321088, "lat": 52.8369045, "lon": -0.3707991, "tags": {"bus": "yes", "highway": "bus_stop", "name": "St Andrew's Church", "naptan:AtcoCode": "270000008721", "naptan:Bearing": "S", "naptan:CommonName": "St Andrew's Church", "naptan:Indicator": "opp", "naptan:Landmark": "St Andrew's Church", "naptan:NaptanCode": "lingtpta", "naptan:Street": "High Street", "naptan:verified": "no", "public_transport": "platform", "source": "naptan_import"}}, {"type": "node", "id": 502321089, "lat": 52.8398555, "lon": -0.3676746, "tags": {"bus": "yes", "highway": "bus_stop", "name": "Dovecote", "naptan:AtcoCode": "270000008722", "naptan:Bearing": "SE", "naptan:CommonName": "Dovecote", "naptan:Indicator": "adj", "naptan:Landmark": "Dovecote", "naptan:NaptanCode": "lingtptd", "naptan:Street": "Station Street", "naptan:verified": "no", "public_transport": "platform", "source": "naptan_import"}}, {"type": "node", "id": 502321090, "lat": 52.839246, "lon": -0.3619366, "tags": {"bus": "yes", "highway": "bus_stop", "name": "Surgery", "naptan:AtcoCode": "270000008723", "naptan:Bearing": "W", "naptan:CommonName": "Surgery", "naptan:Indicator": "opp", "naptan:Landmark": "Surgery", "naptan:NaptanCode": "lingtptg", "naptan:Street": "Station Street", "naptan:verified": "no", "public_transport": "platform", "source": "naptan_import"}}, {"type": "node", "id": 502321092, "lat": 52.8370183, "lon": -0.3666526, "tags": {"bus": "yes", "highway": "bus_stop", "name": "East Street", "naptan:AtcoCode": "270000008724", "naptan:Bearing": "NW", "naptan:CommonName": "East Street", "naptan:Indicator": "NW - bound", "naptan:Landmark": "East Street", "naptan:NaptanCode": "lingtptj", "naptan:Street": "Doctor's Lane", "naptan:verified": "no", "public_transport": "platform", "source": "naptan_import"}}, {"type": "node", "id": 502321093, "lat": 52.8276343, "lon": -0.3641992, "tags": {"bus": "yes", "highway": "bus_stop", "name": "Bus Shelter", "naptan:AtcoCode": "270000008725", "naptan:Bearing": "N", "naptan:BusStopType": "CUS", "naptan:CommonName": "Bus Shelter", "naptan:Indicator": "opp", "naptan:Landmark": "Bus Shelter", "naptan:NaptanCode": "lingtptm", "naptan:Street": "Doctor's Lane", "naptan:verified": "no", "public_transport": "platform", "source": "naptan_import"}}, {"type": "node", "id": 502321094, "lat": 52.827614, "lon": -0.3640367, "tags": {"bus": "yes", "highway": "bus_stop", "name": "Bus Shelter", "naptan:AtcoCode": "270000008726", "naptan:Bearing": "S", "naptan:CommonName": "Bus Shelter", "naptan:Indicator": "adj", "naptan:Landmark": "Bus Shelter", "naptan:NaptanCode": "lingtptp", "naptan:Street": "Doctor's Lane", "naptan:verified": "no", "public_transport": "platform", "source": "naptan_import"}}, {"type": "node", "id": 502321095, "lat": 52.8288797, "lon": -0.3599813, "tags": {"bus": "yes", "highway": "bus_stop", "name": "Telephone Box", "naptan:AtcoCode": "270000008727", "naptan:Bearing": "N", "naptan:CommonName": "Telephone Box", "naptan:Indicator": "adj", "naptan:Landmark": "Telephone Box", "naptan:NaptanCode": "lingtptw", "naptan:Street": "Main Road", "naptan:verified": "no", "public_transport": "platform", "source": "naptan_import"}}, {"type": "node", "id": 502321096, "lat": 52.8287868, "lon": -0.3597622, "tags": {"bus": "yes", "highway": "bus_stop", "name": "Telephone Box", "naptan:AtcoCode": "270000008728", "naptan:Bearing": "S", "naptan:CommonName": "Telephone Box", "naptan:Indicator": "opp", "naptan:Landmark": "Telephone Box", "naptan:NaptanCode": "lingtpwa", "naptan:Street": "Main Road", "naptan:verified": "no", "public_transport": "platform", "source": "naptan_import"}}, {"type": "node", "id": 502321097, "lat": 52.8398217, "lon": -0.3502745, "tags": {"highway": "bus_stop", "name": "Main Road", "naptan:AtcoCode": "270000008731", "naptan:Bearing": "NE", "naptan:CommonName": "Main Road", "naptan:Indicator": "NE - bound", "naptan:Landmark": "Station Street", "naptan:NaptanCode": "lingtpwj", "naptan:Street": "Main Road", "naptan:verified": "no", "source": "naptan_import"}}, {"type": "node", "id": 502321098, "lat": 52.8497622, "lon": -0.347462, "tags": {"highway": "bus_stop", "name": "St Andrew's Church", "naptan:AtcoCode": "270000008732", "naptan:Bearing": "SE", "naptan:CommonName": "St Andrew's Church", "naptan:Indicator": "opp", "naptan:Landmark": "St Andrew's Church", "naptan:NaptanCode": "lingtpwm", "naptan:Street": "Main Road", "naptan:verified": "no", "source": "naptan_import"}}, {"type": "node", "id": 502321100, "lat": 52.8522939, "lon": -0.3484946, "tags": {"highway": "bus_stop", "name": "Fen Road", "naptan:AtcoCode": "270000008733", "naptan:Bearing": "S", "naptan:CommonName": "Fen Road", "naptan:Indicator": "adj", "naptan:Landmark": "Fen Road", "naptan:NaptanCode": "lingtpwp", "naptan:Street": "Main Road", "naptan:verified": "no", "source": "naptan_import", "toilets:wheelchair": "no", "wheelchair": "no"}}, {"type": "node", "id": 502321101, "lat": 52.8644124, "lon": -0.3464893, "tags": {"bus": "yes", "highway": "bus_stop", "name": "Millthorpe Drove", "naptan:AtcoCode": "270000008734", "naptan:Bearing": "N", "naptan:CommonName": "Millthorpe Drove", "naptan:Indicator": "opp", "naptan:Landmark": "Millthorpe Drove", "naptan:NaptanCode": "lingtpwt", "naptan:Street": "Main Road", "naptan:verified": "no", "public_transport": "platform", "source": "naptan_import"}}, {"type": "node", "id": 502321102, "lat": 52.8643023, "lon": -0.3463301, "tags": {"bus": "yes", "highway": "bus_stop", "name": "Millthorpe Drove", "naptan:AtcoCode": "270000008735", "naptan:Bearing": "S", "naptan:CommonName": "Millthorpe Drove", "naptan:Indicator": "adj", "naptan:Landmark": "Millthorpe Drove", "naptan:NaptanCode": "lingtwad", "naptan:Street": "Main Road", "naptan:verified": "no", "public_transport": "platform", "source": "naptan_import"}}, {"type": "node", "id": 502321103, "lat": 52.8712771, "lon": -0.3416816, "tags": {"bus": "yes", "highway": "bus_stop", "name": "Village Hall", "naptan:AtcoCode": "270000008736", "naptan:Bearing": "SW", "naptan:CommonName": "Village Hall", "naptan:Indicator": "adj", "naptan:Landmark": "Village Hall", "naptan:NaptanCode": "lingtwag", "naptan:Street": "Millthorpe Road", "naptan:verified": "no", "public_transport": "platform", "source": "naptan_import"}}, {"type": "node", "id": 502321104, "lat": 52.8714042, "lon": -0.3417659, "tags": {"bus": "yes", "highway": "bus_stop", "name": "Village Hall", "naptan:AtcoCode": "270000008737", "naptan:Bearing": "NE", "naptan:CommonName": "Village Hall", "naptan:Indicator": "opp", "naptan:Landmark": "Village Hall", "naptan:NaptanCode": "lingtwaj", "naptan:Street": "Millthorpe Road", "naptan:verified": "no", "public_transport": "platform", "source": "naptan_import"}}, {"type": "node", "id": 502321105, "lat": 52.8736109, "lon": -0.3420532, "tags": {"bus": "yes", "highway": "bus_stop", "name": "The Old Ship Inn", "naptan:AtcoCode": "270000008738", "naptan:Bearing": "N", "naptan:CommonName": "The Old Ship Inn", "naptan:Indicator": "opp", "naptan:Landmark": "The Old Ship Inn", "naptan:NaptanCode": "lingtwam", "naptan:Street": "High Street", "naptan:verified": "no", "public_transport": "platform", "source": "naptan_import"}}, {"type": "node", "id": 502321106, "lat": 52.8818481, "lon": -0.3428238, "tags": {"bus": "yes", "highway": "bus_stop", "name": "Neslam Road", "naptan:AtcoCode": "270000008739", "naptan:Bearing": "N", "naptan:CommonName": "Neslam Road", "naptan:Indicator": "opp", "naptan:Landmark": "Neslam Road", "naptan:NaptanCode": "lingtwap", "naptan:Street": "Main Road", "naptan:verified": "no", "public_transport": "platform", "source": "naptan_import"}}, {"type": "node", "id": 502321107, "lat": 52.8818727, "lon": -0.3426594, "tags": {"bus": "yes", "highway": "bus_stop", "name": "Neslam Road", "naptan:AtcoCode": "270000008740", "naptan:Bearing": "S", "naptan:CommonName": "Neslam Road", "naptan:Indicator": "adj", "naptan:Landmark": "Neslam Road", "naptan:NaptanCode": "lingtwaw", "naptan:Street": "Main Road", "naptan:verified": "no", "public_transport": "platform", "source": "naptan_import"}}, {"type": "node", "id": 502321120, "lat": 52.9025387, "lon": -0.3385549, "tags": {"highway": "bus_stop", "name": "St Andrew's Church", "naptan:AtcoCode": "270000008748", "naptan:Bearing": "SW", "naptan:CommonName": "St Andrew's Church", "naptan:Indicator": "adj", "naptan:Landmark": "St Andrew's Church", "naptan:NaptanCode": "lingtwga", "naptan:Street": "High Street", "naptan:verified": "no", "source": "naptan_import"}}, {"type": "node", "id": 502321123, "lat": 52.8998421, "lon": -0.0730518, "tags": {"bus": "yes", "highway": "bus_stop", "name": "Mandike Road", "naptan:AtcoCode": "270000008749", "naptan:Bearing": "W", "naptan:BusStopType": "CUS", "naptan:CommonName": "Mandike Road", "naptan:Indicator": "adj", "naptan:Landmark": "Mandike Road", "naptan:NaptanCode": "lingtwgd", "naptan:Street": "Eleys Lane", "naptan:verified": "no", "public_transport": "platform", "source": "naptan_import"}}, {"type": "node", "id": 502321127, "lat": 52.8809217, "lon": -0.0470913, "tags": {"highway": "bus_stop", "name": "All Saint's Church", "naptan:AtcoCode": "270000008753", "naptan:Bearing": "W", "naptan:CommonName": "All Saint's Church", "naptan:Indicator": "opp", "naptan:Landmark": "All Saint's Church", "naptan:NaptanCode": "lingtwgt", "naptan:Street": "Old Main Road", "naptan:verified": "no", "source": "naptan_import"}}, {"type": "node", "id": 502321130, "lat": 52.8915967, "lon": -0.0358038, "tags": {"highway": "bus_stop", "name": "Hilton's Lane", "naptan:AtcoCode": "270000008754", "naptan:Bearing": "N", "naptan:CommonName": "Hilton's Lane", "naptan:Indicator": "opp", "naptan:Landmark": "Hilton's Lane", "naptan:NaptanCode": "lingtwgw", "naptan:Street": "Wash Road", "naptan:verified": "no", "source": "naptan_import"}}, {"type": "node", "id": 502321133, "lat": 52.8913245, "lon": -0.0356526, "tags": {"highway": "bus_stop", "name": "Hilton's Lane", "naptan:AtcoCode": "270000008755", "naptan:Bearing": "S", "naptan:CommonName": "Hilton's Lane", "naptan:Indicator": "adj", "naptan:Landmark": "Hilton's Lane", "naptan:NaptanCode": "lingtwja", "naptan:Street": "Wash Road", "naptan:verified": "no", "source": "naptan_import"}}, {"type": "node", "id": 502321135, "lat": 52.9059424, "lon": -0.0328498, "tags": {"highway": "bus_stop", "name": "Seadyke House", "naptan:AtcoCode": "270000008756", "naptan:Bearing": "N", "naptan:CommonName": "Seadyke House", "naptan:Indicator": "N - bound", "naptan:Landmark": "Seadyke House", "naptan:NaptanCode": "lingtwjd", "naptan:Street": "Seadyke Road", "naptan:verified": "no", "source": "naptan_import"}}, {"type": "node", "id": 502321137, "lat": 52.9145869, "lon": -0.0222694, "tags": {"highway": "bus_stop", "name": "Houses", "naptan:AtcoCode": "270000008758", "naptan:Bearing": "SE", "naptan:CommonName": "Houses", "naptan:Indicator": "SE - bound", "naptan:Landmark": "Houses", "naptan:NaptanCode": "lingtwjm", "naptan:Street": "Nidd's Lane", "naptan:verified": "no", "source": "naptan_import"}}, {"type": "node", "id": 502321140, "lat": 52.9145532, "lon": -0.0224048, "tags": {"highway": "bus_stop", "name": "Houses", "naptan:AtcoCode": "270000008759", "naptan:Bearing": "NW", "naptan:CommonName": "Houses", "naptan:Indicator": "NW - bound", "naptan:Landmark": "Houses", "naptan:NaptanCode": "lingtwjp", "naptan:Street": "Nidd's Lane", "naptan:verified": "no", "source": "naptan_import"}}, {"type": "node", "id": 502321143, "lat": 52.9163843, "lon": -0.0173682, "tags": {"highway": "bus_stop", "name": "Letter Box Ivyhouse Farm", "naptan:AtcoCode": "270000008760", "naptan:Bearing": "SE", "naptan:CommonName": "Letter Box Ivyhouse Farm", "naptan:Indicator": "SE - bound", "naptan:Landmark": "Letter Box Ivyhouse Farm", "naptan:NaptanCode": "lingtwjt", "naptan:Street": "Skeldyke", "naptan:verified": "no", "source": "naptan_import"}}, {"type": "node", "id": 502321144, "lat": 52.9163326, "lon": -0.0175044, "tags": {"highway": "bus_stop", "name": "Letter Box Ivyhouse Farm", "naptan:AtcoCode": "270000008761", "naptan:Bearing": "NW", "naptan:CommonName": "Letter Box Ivyhouse Farm", "naptan:Indicator": "NW - bound", "naptan:Landmark": "Letter Box Ivyhouse Farm", "naptan:NaptanCode": "lingtwjw", "naptan:Street": "Skeldyke", "naptan:verified": "no", "source": "naptan_import"}}, {"type": "node", "id": 502321145, "lat": 52.9144087, "lon": -0.0121336, "tags": {"highway": "bus_stop", "name": "The Boat & Gun PH", "naptan:AtcoCode": "270000008762", "naptan:Bearing": "NE", "naptan:CommonName": "The Boat & Gun PH", "naptan:Indicator": "NE - bound", "naptan:Landmark": "The Boat & Gun PH", "naptan:NaptanCode": "lingtwma", "naptan:Street": "Marsh Road", "naptan:verified": "no", "source": "naptan_import"}}, {"type": "node", "id": 502321147, "lat": 52.933093, "lon": 0.0123675, "tags": {"bus": "yes", "highway": "bus_stop", "name": "Marsh Farm", "naptan:AtcoCode": "270000008763", "naptan:Bearing": "W", "naptan:CommonName": "Marsh Farm", "naptan:Indicator": "W - bound", "naptan:Landmark": "Marsh Farm", "naptan:NaptanCode": "lingtwmd", "naptan:Street": "Frampton Road", "naptan:verified": "no", "public_transport": "platform", "source": "naptan_import"}}, {"type": "node", "id": 502321148, "lat": 52.9492439, "lon": -0.0269404, "tags": {"highway": "bus_stop", "name": "Causeway", "naptan:AtcoCode": "270000008764", "naptan:Bearing": "SW", "naptan:CommonName": "Causeway", "naptan:Indicator": "opp", "naptan:Landmark": "Causeway", "naptan:NaptanCode": "lingtwmg", "naptan:Street": "Low Road", "naptan:verified": "no", "source": "naptan_import"}}, {"type": "node", "id": 502321149, "lat": 52.9582524, "lon": -0.0193538, "tags": {"highway": "bus_stop", "name": "Tytton Lane East", "naptan:AtcoCode": "270000008765", "naptan:Bearing": "S", "naptan:CommonName": "Tytton Lane East", "naptan:Indicator": "opp", "naptan:Landmark": "Tytton Lane East", "naptan:NaptanCode": "lingtwmj", "naptan:Street": "Wyberton Low Road", "naptan:verified": "no", "source": "naptan_import"}}, {"type": "node", "id": 502321150, "lat": 52.9584543, "lon": -0.0195977, "tags": {"highway": "bus_stop", "name": "Tytton Lane East", "naptan:AtcoCode": "270000008766", "naptan:Bearing": "N", "naptan:CommonName": "Tytton Lane East", "naptan:Indicator": "adj", "naptan:Landmark": "Tytton Lane East", "naptan:NaptanCode": "lingtwmp", "naptan:Street": "Wyberton Low Road", "naptan:verified": "no", "source": "naptan_import"}}, {"type": "node", "id": 502321151, "lat": 52.9705232, "lon": -0.0584678, "tags": {"highway": "bus_stop", "name": "Oldrids", "naptan:AtcoCode": "270000008767", "naptan:Bearing": "S", "naptan:BusStopType": "CUS", "naptan:CommonName": "Oldrids", "naptan:Indicator": "opp", "naptan:Landmark": "Oldrids", "naptan:NaptanCode": "lingtwmt", "naptan:Street": "A52", "naptan:verified": "no", "source": "naptan_import"}}, {"type": "node", "id": 502321154, "lat": 52.9695529, "lon": -0.05959, "tags": {"highway": "bus_stop", "name": "Hammer & Pincers PH", "naptan:AtcoCode": "270000008769", "naptan:Bearing": "E", "naptan:CommonName": "Hammer & Pincers PH", "naptan:Indicator": "adj", "naptan:Landmark": "Hammer & Pincers PH", "naptan:NaptanCode": "lingtwpa", "naptan:Street": "Swineshead Road", "naptan:verified": "no", "source": "naptan_import"}}, {"type": "node", "id": 502321159, "lat": 52.9704108, "lon": -0.0625982, "tags": {"highway": "bus_stop", "name": "Tesco", "naptan:AtcoCode": "270000008772", "naptan:Bearing": "SE", "naptan:CommonName": "Tesco", "naptan:Landmark": "Tesco", "naptan:NaptanCode": "lingtwpj", "naptan:Street": "Westbridge Road", "naptan:verified": "no", "source": "naptan_import"}}, {"type": "node", "id": 502321160, "lat": 52.9679405, "lon": -0.0771242, "tags": {"highway": "bus_stop", "name": "Fen Road", "naptan:AtcoCode": "270000008773", "naptan:Bearing": "W", "naptan:CommonName": "Fen Road", "naptan:Indicator": "adj", "naptan:Landmark": "Fen Road", "naptan:NaptanCode": "lingtwpm", "naptan:Street": "Swineshead Road", "naptan:verified": "no", "source": "naptan_import"}}, {"type": "node", "id": 502321164, "lat": 52.9711082, "lon": -0.1052954, "tags": {"highway": "bus_stop", "name": "The Orchards", "naptan:AtcoCode": "270000008775", "naptan:Bearing": "NW", "naptan:CommonName": "The Orchards", "naptan:Indicator": "opp", "naptan:Landmark": "The Orchards", "naptan:NaptanCode": "lingtwpw", "naptan:Street": "Fen Drove", "naptan:verified": "no", "source": "naptan_import"}}, {"type": "node", "id": 502321166, "lat": 52.971304, "lon": -0.1057337, "tags": {"highway": "bus_stop", "name": "The Orchards", "naptan:AtcoCode": "270000008776", "naptan:Bearing": "SE", "naptan:CommonName": "The Orchards", "naptan:Indicator": "adj", "naptan:Landmark": "The Orchards", "naptan:NaptanCode": "lingtwta", "naptan:Street": "Fen Drove", "naptan:verified": "no", "source": "naptan_import"}}, {"type": "node", "id": 502321169, "lat": 52.9755536, "lon": -0.1111929, "tags": {"highway": "bus_stop", "name": "Station Road", "naptan:AtcoCode": "270000008777", "naptan:Bearing": "W", "naptan:CommonName": "Station Road", "naptan:Indicator": "opp", "naptan:Landmark": "Station Road", "naptan:NaptanCode": "lingtwtd", "naptan:Street": "A1121", "naptan:verified": "no", "source": "naptan_import"}}, {"type": "node", "id": 502321171, "lat": 52.9650992, "lon": -0.1243656, "tags": {"highway": "bus_stop", "name": "Sykemouth Drove", "naptan:AtcoCode": "270000008778", "naptan:Bearing": "SW", "naptan:CommonName": "Sykemouth Drove", "naptan:Indicator": "opp", "naptan:Landmark": "Sykemouth Drove", "naptan:NaptanCode": "lingtwtg", "naptan:Street": "Station Road", "naptan:verified": "no", "source": "naptan_import"}}, {"type": "node", "id": 502321174, "lat": 52.965289, "lon": -0.1244319, "tags": {"highway": "bus_stop", "name": "Sykemouth Drove", "naptan:AtcoCode": "270000008779", "naptan:Bearing": "NE", "naptan:CommonName": "Sykemouth Drove", "naptan:Indicator": "adj", "naptan:Landmark": "Sykemouth Drove", "naptan:NaptanCode": "lingtwtj", "naptan:Street": "Station Road", "naptan:verified": "no", "source": "naptan_import"}}, {"type": "node", "id": 502321177, "lat": 52.9645264, "lon": -0.1205486, "tags": {"highway": "bus_stop", "name": "The Poacher Inn", "naptan:AtcoCode": "270000008780", "naptan:Bearing": "SW", "naptan:CommonName": "The Poacher Inn", "naptan:Indicator": "adj", "naptan:Landmark": "The Poacher Inn", "naptan:NaptanCode": "lingtwtm", "naptan:Street": "Swineshead Road", "naptan:verified": "no", "source": "naptan_import"}}, {"type": "node", "id": 502321180, "lat": 52.9646122, "lon": -0.1208576, "tags": {"highway": "bus_stop", "name": "The Poacher Inn", "naptan:AtcoCode": "270000008781", "naptan:Bearing": "NE", "naptan:CommonName": "The Poacher Inn", "naptan:Indicator": "opp", "naptan:Landmark": "The Poacher Inn", "naptan:NaptanCode": "lingtwtp", "naptan:Street": "Swineshead Road", "naptan:verified": "no", "source": "naptan_import"}}, {"type": "node", "id": 502321181, "lat": 52.9655022, "lon": -0.1106483, "tags": {"highway": "bus_stop", "name": "Leonard Cottages", "naptan:AtcoCode": "270000008782", "naptan:Bearing": "E", "naptan:CommonName": "Leonard Cottages", "naptan:Indicator": "adj", "naptan:Landmark": "Leonard Cottages", "naptan:NaptanCode": "lingtwtw", "naptan:Street": "Swineshead Road", "naptan:verified": "no", "source": "naptan_import"}}, {"type": "node", "id": 502321183, "lat": 52.965358, "lon": -0.1106248, "tags": {"highway": "bus_stop", "name": "Leonard Cottages", "naptan:AtcoCode": "270000008783", "naptan:Bearing": "W", "naptan:CommonName": "Leonard Cottages", "naptan:Indicator": "opp", "naptan:Landmark": "Leonard Cottages", "naptan:NaptanCode": "lingwada", "naptan:Street": "Swineshead Road", "naptan:verified": "no", "source": "naptan_import"}}, {"type": "node", "id": 502321186, "lat": 52.961832, "lon": -0.1269937, "tags": {"highway": "bus_stop", "name": "Kirton Holme Road", "naptan:AtcoCode": "270000008784", "naptan:Bearing": "NE", "naptan:CommonName": "Kirton Holme Road", "naptan:Indicator": "opp", "naptan:Landmark": "Kirton Holme Road", "naptan:NaptanCode": "lingwadg", "naptan:Street": "Boston Road", "naptan:verified": "no", "source": "naptan_import"}}, {"type": "node", "id": 502321189, "lat": 52.9586931, "lon": -0.133204, "tags": {"highway": "bus_stop", "name": "Fenhouses Drove", "naptan:AtcoCode": "270000008785", "naptan:Bearing": "SW", "naptan:CommonName": "Fenhouses Drove", "naptan:Indicator": "adj", "naptan:Landmark": "Fenhouses Drove", "naptan:NaptanCode": "lingwadj", "naptan:Street": "Boston Road", "naptan:verified": "no", "source": "naptan_import"}}, {"type": "node", "id": 502321198, "lat": 52.9588375, "lon": -0.1332424, "tags": {"highway": "bus_stop", "name": "Fenhouses Drove", "naptan:AtcoCode": "270000008786", "naptan:Bearing": "NE", "naptan:CommonName": "Fenhouses Drove", "naptan:Indicator": "opp", "naptan:Landmark": "Fenhouses Drove", "naptan:NaptanCode": "lingwadm", "naptan:Street": "Boston Road", "naptan:verified": "no", "source": "naptan_import"}}, {"type": "node", "id": 502321204, "lat": 52.956023, "lon": -0.167293, "tags": {"highway": "bus_stop", "name": "North End", "naptan:AtcoCode": "270000008789", "naptan:Bearing": "SW", "naptan:CommonName": "North End", "naptan:Indicator": "SW - bound", "naptan:Landmark": "North End", "naptan:NaptanCode": "lingwadw", "naptan:Street": "Boston Road", "naptan:verified": "no", "source": "naptan_import"}}, {"type": "node", "id": 502321206, "lat": 52.9560532, "lon": -0.1675001, "tags": {"highway": "bus_stop", "name": "North End", "naptan:AtcoCode": "270000008790", "naptan:Bearing": "NE", "naptan:CommonName": "North End", "naptan:Indicator": "NE - bound", "naptan:Landmark": "North End", "naptan:NaptanCode": "lingwaga", "naptan:Street": "Boston Road", "naptan:verified": "no", "source": "naptan_import"}}, {"type": "node", "id": 502321208, "lat": 52.8643316, "lon": 0.0634494, "tags": {"highway": "bus_stop", "name": "Christie House", "naptan:AtcoCode": "270000008793", "naptan:Bearing": "SE", "naptan:CommonName": "Christie House", "naptan:Landmark": "Christie House", "naptan:NaptanCode": "lingwagm", "naptan:Street": "Holbeach Marsh", "naptan:verified": "no", "source": "naptan_import"}}, {"type": "node", "id": 502321210, "lat": 52.8584855, "lon": 0.1101939, "tags": {"bench": "no", "covered": "no", "description": "Community Bus", "highway": "bus_stop", "name": "Road To Bemrose Farm & Coastguard Station", "naptan:AtcoCode": "270000008794", "naptan:Bearing": "S", "naptan:CommonName": "Track To Ward's Farm", "naptan:Landmark": "Track To Ward's Farm", "naptan:NaptanCode": "lingwagp", "naptan:Street": "Sot's Hole", "naptan:verified": "no", "network": "CallConnect", "operator": "SHDC", "shelter": "no", "source": "naptan_import"}}, {"type": "node", "id": 502321213, "lat": 52.8481812, "lon": 0.1162732, "tags": {"highway": "bus_stop", "name": "Durham's Road Letter Box", "naptan:AtcoCode": "270000008795", "naptan:Bearing": "E", "naptan:CommonName": "Durham's Road Letter Box", "naptan:Landmark": "Letter Box", "naptan:NaptanCode": "lingwagt", "naptan:Street": "Durham's Road", "naptan:verified": "no", "source": "naptan_import"}}, {"type": "node", "id": 502321224, "lat": 52.9703134, "lon": -0.026085, "tags": {"highway": "bus_stop", "name": "Stells Lane", "naptan:AtcoCode": "270000008798", "naptan:Bearing": "SW", "naptan:CommonName": "Stells Lane", "naptan:Indicator": "opp", "naptan:Landmark": "Stells Lane", "naptan:NaptanCode": "lingwajd", "naptan:Street": "London Road", "naptan:verified": "no", "source": "naptan_import"}}, {"type": "node", "id": 502321245, "lat": 52.9648241, "lon": -0.0290453, "tags": {"highway": "bus_stop", "name": "St Thomas Church", "naptan:AtcoCode": "270000008803", "naptan:Bearing": "SW", "naptan:BusStopType": "CUS", "naptan:CommonName": "St Thomas Church", "naptan:Indicator": "opp", "naptan:Landmark": "St Thomas Church", "naptan:NaptanCode": "lingwajw", "naptan:Street": "London Road", "naptan:verified": "no", "source": "naptan_import"}}, {"type": "node", "id": 502321250, "lat": 52.9649931, "lon": -0.0289334, "tags": {"highway": "bus_stop", "name": "St Thomas Church", "naptan:AtcoCode": "270000008804", "naptan:Bearing": "NE", "naptan:BusStopType": "CUS", "naptan:CommonName": "St Thomas Church", "naptan:Indicator": "o/s", "naptan:Landmark": "St Thomas Church", "naptan:NaptanCode": "lingwama", "naptan:Street": "London Road", "naptan:verified": "no", "source": "naptan_import"}}, {"type": "node", "id": 502321254, "lat": 52.9638038, "lon": -0.0309531, "tags": {"highway": "bus_stop", "name": "St Thomas Drive", "naptan:AtcoCode": "270000008805", "naptan:Bearing": "SW", "naptan:BusStopType": "CUS", "naptan:CommonName": "St Thomas Drive", "naptan:Indicator": "adj", "naptan:Landmark": "St Thomas Drive", "naptan:NaptanCode": "lingwamd", "naptan:Street": "London Road", "naptan:verified": "no", "source": "naptan_import"}}, {"type": "node", "id": 502321258, "lat": 52.9641063, "lon": -0.0307606, "tags": {"highway": "bus_stop", "name": "St Thomas Drive", "naptan:AtcoCode": "270000008806", "naptan:Bearing": "NE", "naptan:BusStopType": "CUS", "naptan:CommonName": "St Thomas Drive", "naptan:Indicator": "opp", "naptan:Landmark": "St Thomas Drive", "naptan:NaptanCode": "lingwamg", "naptan:Street": "London Road", "naptan:verified": "no", "source": "naptan_import"}}, {"type": "node", "id": 502321261, "lat": 52.9625071, "lon": -0.0335434, "tags": {"highway": "bus_stop", "name": "Hunters Creek", "naptan:AtcoCode": "270000008807", "naptan:Bearing": "SW", "naptan:BusStopType": "CUS", "naptan:CommonName": "Hunters Creek", "naptan:Indicator": "o/s", "naptan:Landmark": "Hunters Creek", "naptan:NaptanCode": "lingwamj", "naptan:Street": "London Road", "naptan:verified": "no", "source": "naptan_import"}}, {"type": "node", "id": 502321265, "lat": 52.9626328, "lon": -0.0335377, "tags": {"highway": "bus_stop", "name": "Hunters Creek", "naptan:AtcoCode": "270000008808", "naptan:Bearing": "NE", "naptan:BusStopType": "CUS", "naptan:CommonName": "Hunters Creek", "naptan:Indicator": "opp", "naptan:Landmark": "Hunters Creek", "naptan:NaptanCode": "lingwamp", "naptan:Street": "London Road", "naptan:verified": "no", "source": "naptan_import"}}, {"type": "node", "id": 502321269, "lat": 52.9578854, "lon": -0.0389642, "tags": {"highway": "bus_stop", "name": "Tytton Lane West", "naptan:AtcoCode": "270000008809", "naptan:Bearing": "N", "naptan:CommonName": "Tytton Lane West", "naptan:Indicator": "adj", "naptan:Landmark": "Tytton Lane West", "naptan:NaptanCode": "lingwamt", "naptan:Street": "London Road", "naptan:verified": "no", "source": "naptan_import"}}, {"type": "node", "id": 502321273, "lat": 52.9574983, "lon": -0.038937, "tags": {"highway": "bus_stop", "name": "Tytton Lane West", "naptan:AtcoCode": "270000008810", "naptan:Bearing": "S", "naptan:CommonName": "Tytton Lane West", "naptan:Indicator": "opp", "naptan:Landmark": "Tytton Lane West", "naptan:NaptanCode": "lingwamw", "naptan:Street": "London Road", "naptan:verified": "no", "source": "naptan_import"}}, {"type": "node", "id": 502321277, "lat": 52.9553173, "lon": -0.0402565, "tags": {"highway": "bus_stop", "name": "Delfield Road", "naptan:AtcoCode": "270000008811", "naptan:Bearing": "SW", "naptan:CommonName": "Delfield Road", "naptan:Indicator": "opp", "naptan:Landmark": "Delfield Road", "naptan:NaptanCode": "lingwapa", "naptan:Street": "London Road", "naptan:verified": "no", "source": "naptan_import"}}, {"type": "node", "id": 502321281, "lat": 52.9554898, "lon": -0.0403529, "tags": {"highway": "bus_stop", "name": "Delfield Road", "naptan:AtcoCode": "270000008812", "naptan:Bearing": "NE", "naptan:CommonName": "Delfield Road", "naptan:Indicator": "adj", "naptan:Landmark": "Delfield Road", "naptan:NaptanCode": "lingwapd", "naptan:Street": "London Road", "naptan:verified": "no", "source": "naptan_import"}}, {"type": "node", "id": 502321284, "lat": 52.9528105, "lon": -0.0419926, "tags": {"highway": "bus_stop", "name": "Cavendish Drive", "naptan:AtcoCode": "270000008813", "naptan:Bearing": "SE", "naptan:CommonName": "Cavendish Drive", "naptan:Indicator": "adj", "naptan:Landmark": "Cavendish Drive", "naptan:NaptanCode": "lingwapg", "naptan:Street": "Saundergate Lane", "naptan:verified": "no", "source": "naptan_import"}}, {"type": "node", "id": 502321288, "lat": 52.9527681, "lon": -0.0421433, "tags": {"highway": "bus_stop", "name": "Cavendish Drive", "naptan:AtcoCode": "270000008814", "naptan:Bearing": "NW", "naptan:CommonName": "Cavendish Drive", "naptan:Indicator": "opp", "naptan:Landmark": "Cavendish Drive", "naptan:NaptanCode": "lingwapj", "naptan:Street": "Saundergate Lane", "naptan:verified": "no", "source": "naptan_import"}}, {"type": "node", "id": 502321292, "lat": 52.9514637, "lon": -0.0399246, "tags": {"highway": "bus_stop", "name": "Granville Avenue", "naptan:AtcoCode": "270000008815", "naptan:Bearing": "SE", "naptan:CommonName": "Granville Avenue", "naptan:Indicator": "opp", "naptan:Landmark": "Granville Avenue", "naptan:NaptanCode": "lingwapm", "naptan:Street": "Saundergate Lane", "naptan:verified": "no", "source": "naptan_import"}}, {"type": "node", "id": 502321295, "lat": 52.9513652, "lon": -0.039944, "tags": {"highway": "bus_stop", "name": "Granville Avenue", "naptan:AtcoCode": "270000008816", "naptan:Bearing": "NW", "naptan:CommonName": "Granville Avenue", "naptan:Indicator": "adj", "naptan:Landmark": "Granville Avenue", "naptan:NaptanCode": "lingwapt", "naptan:Street": "Saundergate Lane", "naptan:verified": "no", "source": "naptan_import"}}, {"type": "node", "id": 502321297, "lat": 52.9506529, "lon": -0.0381898, "tags": {"highway": "bus_stop", "name": "Saundergate Park", "naptan:AtcoCode": "270000008817", "naptan:Bearing": "SE", "naptan:CommonName": "Saundergate Park", "naptan:Indicator": "adj", "naptan:Landmark": "Saundergate Park", "naptan:NaptanCode": "lingwapw", "naptan:Street": "Saundergate Lane", "naptan:verified": "no", "source": "naptan_import"}}, {"type": "node", "id": 502321299, "lat": 52.9505446, "lon": -0.038165, "tags": {"highway": "bus_stop", "name": "Saundergate Park", "naptan:AtcoCode": "270000008818", "naptan:Bearing": "NW", "naptan:CommonName": "Saundergate Park", "naptan:Indicator": "opp", "naptan:Landmark": "Saundergate Park", "naptan:NaptanCode": "lingwata", "naptan:Street": "Saundergate Lane", "naptan:verified": "no", "source": "naptan_import"}}, {"type": "node", "id": 502321300, "lat": 52.9497172, "lon": -0.037607, "tags": {"highway": "bus_stop", "name": "Winter Way", "naptan:AtcoCode": "270000008819", "naptan:Bearing": "SW", "naptan:CommonName": "Winter Way", "naptan:Indicator": "adj", "naptan:Landmark": "Winter Way", "naptan:NaptanCode": "lingwatd", "naptan:Street": "Parthian Avenue", "naptan:verified": "no", "source": "naptan_import"}}, {"type": "node", "id": 502321301, "lat": 52.9498255, "lon": -0.0376319, "tags": {"highway": "bus_stop", "name": "Winter Way", "naptan:AtcoCode": "270000008820", "naptan:Bearing": "NE", "naptan:CommonName": "Winter Way", "naptan:Indicator": "opp", "naptan:Landmark": "Winter Way", "naptan:NaptanCode": "lingwatg", "naptan:Street": "Parthian Avenue", "naptan:verified": "no", "source": "naptan_import"}}, {"type": "node", "id": 502321302, "lat": 52.9495115, "lon": -0.0414866, "tags": {"highway": "bus_stop", "name": "Telephone Box", "naptan:AtcoCode": "270000008821", "naptan:Bearing": "NW", "naptan:CommonName": "Telephone Box", "naptan:Indicator": "adj", "naptan:Landmark": "Telephone Box", "naptan:NaptanCode": "lingwatj", "naptan:Street": "Parthian Avenue", "naptan:verified": "no", "source": "naptan_import"}}, {"type": "node", "id": 502321303, "lat": 52.9515335, "lon": -0.0436133, "tags": {"highway": "bus_stop", "name": "London Road", "naptan:AtcoCode": "270000008822", "naptan:Bearing": "NW", "naptan:CommonName": "London Road", "naptan:Indicator": "NW - bound", "naptan:Landmark": "London Road", "naptan:NaptanCode": "lingwatm", "naptan:Street": "Parthian Avenue", "naptan:verified": "no", "source": "naptan_import"}}, {"type": "node", "id": 502321306, "lat": 52.9515675, "lon": -0.0434927, "tags": {"highway": "bus_stop", "name": "London Road", "naptan:AtcoCode": "270000008823", "naptan:Bearing": "SE", "naptan:CommonName": "London Road", "naptan:Indicator": "SE - bound", "naptan:Landmark": "London Road", "naptan:NaptanCode": "lingwatp", "naptan:Street": "Parthian Avenue", "naptan:verified": "no", "source": "naptan_import"}}, {"type": "node", "id": 502321310, "lat": 52.9523428, "lon": -0.0430707, "tags": {"bus": "yes", "highway": "bus_stop", "name": "Pincushion Inn", "naptan:AtcoCode": "270000008824", "naptan:Bearing": "SW", "naptan:CommonName": "Pincushion Inn", "naptan:Indicator": "opp", "naptan:Landmark": "Pincushion Inn", "naptan:NaptanCode": "lingwatw", "naptan:Street": "London Road", "naptan:verified": "no", "public_transport": "platform", "source": "naptan_import"}}, {"type": "node", "id": 502321314, "lat": 52.9500092, "lon": -0.046049, "tags": {"highway": "bus_stop", "name": "Ralphs Lane", "naptan:AtcoCode": "270000008825", "naptan:Bearing": "SW", "naptan:CommonName": "Ralphs Lane", "naptan:Indicator": "opp", "naptan:Landmark": "Ralphs Lane", "naptan:NaptanCode": "lingwawa", "naptan:Street": "London Road", "naptan:verified": "no", "source": "naptan_import"}}, {"type": "node", "id": 502321317, "lat": 52.9501908, "lon": -0.0461599, "tags": {"highway": "bus_stop", "name": "Ralphs Lane", "naptan:AtcoCode": "270000008826", "naptan:Bearing": "NE", "naptan:CommonName": "Ralphs Lane", "naptan:Indicator": "adj", "naptan:Landmark": "Ralphs Lane", "naptan:NaptanCode": "lingwawd", "naptan:Street": "London Road", "naptan:verified": "no", "source": "naptan_import"}}, {"type": "node", "id": 502321320, "lat": 52.9476017, "lon": -0.0489113, "tags": {"highway": "bus_stop", "name": "Millfield Lane West", "naptan:AtcoCode": "270000008827", "naptan:Bearing": "SW", "naptan:CommonName": "Millfield Lane West", "naptan:Indicator": "adj", "naptan:Landmark": "Millfield Lane West", "naptan:NaptanCode": "lingwawg", "naptan:Street": "London Road", "naptan:verified": "no", "source": "naptan_import"}}, {"type": "node", "id": 502321324, "lat": 52.947474, "lon": -0.0493487, "tags": {"highway": "bus_stop", "name": "Millfield Lane West", "naptan:AtcoCode": "270000008828", "naptan:Bearing": "NE", "naptan:CommonName": "Millfield Lane West", "naptan:Indicator": "opp", "naptan:Landmark": "Millfield Lane West", "naptan:NaptanCode": "lingwawj", "naptan:Street": "London Road", "naptan:verified": "no", "source": "naptan_import"}}, {"type": "node", "id": 502321328, "lat": 52.9495559, "lon": -0.0573507, "tags": {"bus": "yes", "highway": "bus_stop", "name": "Spotfield Lane", "naptan:AtcoCode": "270000008829", "naptan:Bearing": "W", "naptan:CommonName": "Spotfield Lane", "naptan:Indicator": "opp", "naptan:Landmark": "Spotfield Lane", "naptan:NaptanCode": "lingwawm", "naptan:Street": "Ralphs Lane", "naptan:verified": "no", "public_transport": "platform", "source": "naptan_import"}}, {"type": "node", "id": 502321332, "lat": 52.9496791, "lon": -0.0571687, "tags": {"highway": "bus_stop", "name": "Spotfield Lane", "naptan:AtcoCode": "270000008830", "naptan:Bearing": "E", "naptan:CommonName": "Spotfield Lane", "naptan:Indicator": "adj", "naptan:Landmark": "Spotfield Lane", "naptan:NaptanCode": "lingwawp", "naptan:Street": "Ralphs Lane", "naptan:verified": "no", "source": "naptan_import"}}, {"type": "node", "id": 502321336, "lat": 52.9464206, "lon": -0.064653, "tags": {"highway": "bus_stop", "name": "St Michael's Church", "naptan:AtcoCode": "270000008831", "naptan:Bearing": "SW", "naptan:CommonName": "St Michael's Church", "naptan:Indicator": "adj", "naptan:Landmark": "St Michael's Church", "naptan:NaptanCode": "lingwawt", "naptan:Street": "Ralphs Lane", "naptan:verified": "no", "source": "naptan_import"}}, {"type": "node", "id": 502321340, "lat": 52.9433214, "lon": -0.0723756, "tags": {"bus": "yes", "highway": "bus_stop", "name": "West End Road", "naptan:AtcoCode": "270000008832", "naptan:Bearing": "SW", "naptan:CommonName": "West End Road", "naptan:Indicator": "adj", "naptan:Landmark": "West End Road", "naptan:NaptanCode": "lingwdad", "naptan:Street": "Ralphs Lane", "naptan:verified": "no", "public_transport": "platform", "source": "naptan_import"}}, {"type": "node", "id": 502321343, "lat": 52.9435206, "lon": -0.0720903, "tags": {"highway": "bus_stop", "name": "West End Road", "naptan:AtcoCode": "270000008833", "naptan:Bearing": "NE", "naptan:CommonName": "West End Road", "naptan:Indicator": "opp", "naptan:Landmark": "West End Road", "naptan:NaptanCode": "lingwdag", "naptan:Street": "Ralphs Lane", "naptan:verified": "no", "source": "naptan_import"}}, {"type": "node", "id": 502321347, "lat": 52.9425497, "lon": -0.0804235, "tags": {"highway": "bus_stop", "name": "Post Office", "naptan:AtcoCode": "270000008834", "naptan:Bearing": "NW", "naptan:CommonName": "Post Office", "naptan:Indicator": "NW - bound", "naptan:Landmark": "Post Office", "naptan:NaptanCode": "lingwdaj", "naptan:Street": "Willington Road", "naptan:verified": "no", "source": "naptan_import"}}, {"type": "node", "id": 502321351, "lat": 52.9375679, "lon": -0.0576965, "tags": {"highway": "bus_stop", "name": "Middlegate Road", "naptan:AtcoCode": "270000008835", "naptan:Bearing": "NE", "naptan:CommonName": "Middlegate Road", "naptan:Indicator": "opp", "naptan:Landmark": "Middlegate Road", "naptan:NaptanCode": "lingwdam", "naptan:Street": "London Road", "naptan:verified": "no", "source": "naptan_import"}}, {"type": "node", "id": 502321354, "lat": 52.9369143, "lon": -0.0578598, "tags": {"highway": "bus_stop", "name": "Middlegate Road", "naptan:AtcoCode": "270000008836", "naptan:Bearing": "SW", "naptan:CommonName": "Middlegate Road", "naptan:Indicator": "adj", "naptan:Landmark": "Middlegate Road", "naptan:NaptanCode": "lingwdap", "naptan:Street": "London Road", "naptan:verified": "no", "source": "naptan_import"}}, {"type": "node", "id": 502321358, "lat": 52.9322851, "lon": -0.0584837, "tags": {"highway": "bus_stop", "name": "Woodlands Court", "naptan:AtcoCode": "270000008837", "naptan:Bearing": "S", "naptan:CommonName": "Woodlands Court", "naptan:Indicator": "opp", "naptan:Landmark": "Woodlands Court", "naptan:NaptanCode": "lingwdat", "naptan:Street": "Boston Road", "naptan:verified": "no", "source": "naptan_import"}}, {"type": "node", "id": 502321363, "lat": 52.9321895, "lon": -0.0586814, "tags": {"highway": "bus_stop", "name": "Woodlands Court", "naptan:AtcoCode": "270000008838", "naptan:Bearing": "N", "naptan:CommonName": "Woodlands Court", "naptan:Indicator": "adj", "naptan:Landmark": "Woodlands Court", "naptan:NaptanCode": "lingwdaw", "naptan:Street": "Boston Road", "naptan:verified": "no", "source": "naptan_import"}}, {"type": "node", "id": 502321366, "lat": 52.9312874, "lon": -0.0573975, "tags": {"highway": "bus_stop", "name": "The Chestnuts", "naptan:AtcoCode": "270000008839", "naptan:Bearing": "E", "naptan:CommonName": "The Chestnuts", "naptan:Indicator": "adj", "naptan:Landmark": "The Chestnuts", "naptan:NaptanCode": "lingwdga", "naptan:Street": "Lighton Avenue", "naptan:verified": "no", "source": "naptan_import"}}, {"type": "node", "id": 502321370, "lat": 52.930874, "lon": -0.0552139, "tags": {"highway": "bus_stop", "name": "97 Lighton Avenue", "naptan:AtcoCode": "270000008840", "naptan:Bearing": "E", "naptan:CommonName": "97 Lighton Avenue", "naptan:Indicator": "o/s", "naptan:Landmark": "Number 97", "naptan:NaptanCode": "lingwdgd", "naptan:Street": "Lighton Avenue", "naptan:verified": "no", "source": "naptan_import"}}, {"type": "node", "id": 502321373, "lat": 52.931016, "lon": -0.0534517, "tags": {"highway": "bus_stop", "name": "D'eyncourt", "naptan:AtcoCode": "270000008841", "naptan:Bearing": "NW", "naptan:CommonName": "D'eyncourt", "naptan:Indicator": "opp", "naptan:Landmark": "D'eyncourt", "naptan:NaptanCode": "lingwdgj", "naptan:Street": "Lighton Avenue", "naptan:verified": "no", "source": "naptan_import"}}, {"type": "node", "id": 502321377, "lat": 52.9342314, "lon": -0.0532479, "tags": {"highway": "bus_stop", "name": "Middlegate Road", "naptan:AtcoCode": "270000008842", "naptan:Bearing": "NE", "naptan:CommonName": "Middlegate Road", "naptan:Landmark": "Middlegate Road", "naptan:NaptanCode": "lingwdgm", "naptan:Street": "Lighton Avenue", "naptan:verified": "no", "source": "naptan_import"}}, {"type": "node", "id": 502321381, "lat": 52.9344111, "lon": -0.0532398, "tags": {"highway": "bus_stop", "name": "Lighton Avenue", "naptan:AtcoCode": "270000008843", "naptan:Bearing": "NW", "naptan:CommonName": "Lighton Avenue", "naptan:Indicator": "adj", "naptan:Landmark": "Lighton Avenue", "naptan:NaptanCode": "lingwdgp", "naptan:Street": "Middlegate Road", "naptan:verified": "no", "source": "naptan_import"}}, {"type": "node", "id": 502321385, "lat": 52.9343883, "lon": -0.0529432, "tags": {"highway": "bus_stop", "name": "Lighton Avenue", "naptan:AtcoCode": "270000008844", "naptan:Bearing": "SE", "naptan:CommonName": "Lighton Avenue", "naptan:Indicator": "opp", "naptan:Landmark": "Lighton Avenue", "naptan:NaptanCode": "lingwdgt", "naptan:Street": "Middlegate Road West", "naptan:verified": "no", "source": "naptan_import"}}, {"type": "node", "id": 502321389, "lat": 52.9330436, "lon": -0.0482568, "tags": {"highway": "bus_stop", "name": "Middlegate Road East A16", "naptan:AtcoCode": "270000008845", "naptan:Bearing": "SE", "naptan:CommonName": "Middlegate Road East A16", "naptan:Indicator": "SE - bound", "naptan:Landmark": "A16", "naptan:NaptanCode": "lingwdgw", "naptan:Street": "Middlegate Road East", "naptan:verified": "no", "source": "naptan_import"}}, {"type": "node", "id": 502321393, "lat": 52.932955, "lon": -0.0483352, "tags": {"highway": "bus_stop", "name": "Middlegate Road East A16", "naptan:AtcoCode": "270000008846", "naptan:Bearing": "NW", "naptan:CommonName": "Middlegate Road East A16", "naptan:Indicator": "NW - bound", "naptan:Landmark": "A16", "naptan:NaptanCode": "lingwdja", "naptan:Street": "Middlegate Road East", "naptan:verified": "no", "source": "naptan_import"}}, {"type": "node", "id": 502321396, "lat": 52.9325461, "lon": -0.0458835, "tags": {"highway": "bus_stop", "name": "Lenton Way", "naptan:AtcoCode": "270000008847", "naptan:Bearing": "E", "naptan:CommonName": "Lenton Way", "naptan:Indicator": "adj", "naptan:Landmark": "Lenton Way", "naptan:NaptanCode": "lingwdjd", "naptan:Street": "Middlegate Road East", "naptan:verified": "no", "source": "naptan_import"}}, {"type": "node", "id": 502321400, "lat": 52.9324446, "lon": -0.0457244, "tags": {"highway": "bus_stop", "name": "Lenton Way", "naptan:AtcoCode": "270000008848", "naptan:Bearing": "W", "naptan:CommonName": "Lenton Way", "naptan:Indicator": "opp", "naptan:Landmark": "Lenton Way", "naptan:NaptanCode": "lingwdjg", "naptan:Street": "Middlegate Road East", "naptan:verified": "no", "source": "naptan_import"}}, {"type": "node", "id": 502321404, "lat": 52.9301926, "lon": -0.047656, "tags": {"highway": "bus_stop", "name": "Craven Avenue", "naptan:AtcoCode": "270000008849", "naptan:Bearing": "NE", "naptan:CommonName": "Craven Avenue", "naptan:Indicator": "adj", "naptan:Landmark": "Craven Avenue", "naptan:NaptanCode": "lingwdjm", "naptan:Street": "Horseshoe Lane", "naptan:verified": "no", "source": "naptan_import"}}, {"type": "node", "id": 502321408, "lat": 52.9273355, "lon": -0.0521588, "tags": {"highway": "bus_stop", "name": "Pell's Drive", "naptan:AtcoCode": "270000008850", "naptan:Bearing": "W", "naptan:CommonName": "Pell's Drive", "naptan:Indicator": "opp", "naptan:Landmark": "Pell's Drive", "naptan:NaptanCode": "lingwdjp", "naptan:Street": "Station Road", "naptan:verified": "no", "source": "naptan_import"}}, {"type": "node", "id": 502321412, "lat": 52.9273758, "lon": -0.0524248, "tags": {"highway": "bus_stop", "name": "Pell's Drive", "naptan:AtcoCode": "270000008851", "naptan:Bearing": "E", "naptan:CommonName": "Pell's Drive", "naptan:Indicator": "adj", "naptan:Landmark": "Pell's Drive", "naptan:NaptanCode": "lingwdjt", "naptan:Street": "Station Road", "naptan:verified": "no", "source": "naptan_import"}}, {"type": "node", "id": 502321416, "lat": 52.92773, "lon": -0.0564856, "tags": {"highway": "bus_stop", "name": "Town Hall", "naptan:AtcoCode": "270000008852", "naptan:Bearing": "NW", "naptan:CommonName": "Town Hall", "naptan:Indicator": "adj", "naptan:Landmark": "Town Hall", "naptan:NaptanCode": "lingwdjw", "naptan:Street": "Station Road", "naptan:verified": "no", "source": "naptan_import"}}, {"type": "node", "id": 502321419, "lat": 52.9278386, "lon": -0.0565253, "tags": {"highway": "bus_stop", "name": "Town Hall", "naptan:AtcoCode": "270000008853", "naptan:Bearing": "SE", "naptan:CommonName": "Town Hall", "naptan:Indicator": "opp", "naptan:Landmark": "Town Hall", "naptan:NaptanCode": "lingwdma", "naptan:Street": "Station Road", "naptan:verified": "no", "source": "naptan_import"}}, {"type": "node", "id": 502321423, "lat": 52.9236143, "lon": -0.0659829, "tags": {"highway": "bus_stop", "name": "Woodside Road", "naptan:AtcoCode": "270000008854", "naptan:Bearing": "SW", "naptan:CommonName": "Woodside Road", "naptan:Indicator": "opp", "naptan:Landmark": "Woodside Road", "naptan:NaptanCode": "lingwdmd", "naptan:Street": "London Road", "naptan:verified": "no", "source": "naptan_import"}}, {"type": "node", "id": 502321426, "lat": 52.9237846, "lon": -0.0659455, "tags": {"highway": "bus_stop", "name": "Woodside Road", "naptan:AtcoCode": "270000008855", "naptan:Bearing": "NE", "naptan:CommonName": "Woodside Road", "naptan:Indicator": "adj", "naptan:Landmark": "Woodside Road", "naptan:NaptanCode": "lingwdmg", "naptan:Street": "London Road", "naptan:verified": "no", "source": "naptan_import"}}, {"type": "node", "id": 502321447, "lat": 52.9039043, "lon": -0.0919915, "tags": {"bus": "yes", "highway": "bus_stop", "name": "The Pools", "naptan:AtcoCode": "270000008856", "naptan:Bearing": "SW", "naptan:CommonName": "The Pools", "naptan:Indicator": "opp", "naptan:Landmark": "The Pools", "naptan:NaptanCode": "lingwdmj", "naptan:Street": "Boston Road", "naptan:verified": "no", "public_transport": "platform", "source": "naptan_import"}}, {"type": "node", "id": 502321451, "lat": 52.9534184, "lon": -0.1663015, "tags": {"highway": "bus_stop", "name": "Tarry Hill", "naptan:AtcoCode": "270000008857", "naptan:Bearing": "SE", "naptan:CommonName": "Tarry Hill", "naptan:Indicator": "adj", "naptan:Landmark": "Tarry Hill", "naptan:NaptanCode": "lingwdmp", "naptan:Street": "Station Road", "naptan:verified": "no", "source": "naptan_import"}}, {"type": "node", "id": 502321456, "lat": 52.9516791, "lon": -0.1648716, "tags": {"highway": "bus_stop", "name": "Tarry Hill", "naptan:AtcoCode": "270000008858", "naptan:Bearing": "NW", "naptan:CommonName": "Tarry Hill", "naptan:Indicator": "opp", "naptan:Landmark": "Tarry Hill", "naptan:NaptanCode": "lingwdmt", "naptan:Street": "Station Road", "naptan:verified": "no", "source": "naptan_import"}}, {"type": "node", "id": 502321459, "lat": 52.9499149, "lon": -0.1624157, "tags": {"highway": "bus_stop", "name": "Cole's Lane", "naptan:AtcoCode": "270000008859", "naptan:Bearing": "SE", "naptan:CommonName": "Cole's Lane", "naptan:Indicator": "opp", "naptan:Landmark": "Cole's Lane", "naptan:NaptanCode": "lingwdmw", "naptan:Street": "Station Road", "naptan:verified": "no", "source": "naptan_import"}},